{"type": "autonav_status", "version": 1, "state": "running", "current_wp_idx": 0, "total_wp": 7, "heading_deg": 117.017, "target_bearing_deg": 87.0, "bearing_error_deg": -30.0, "dist_to_wp_m": 4.69, "linear": 0.0, "angular": 0.6, "gps_age_s": 0.08, "gps_packet_age_s": 0.08, "gps_fix_quality": 4, "sensor_block_reason": null, "imu_age_s": 0.0, "speed_ratio": 1.0, "manual_speed": 0.4, "calib": {"mark": {"lat": 38.94125036, "lon": -92.31891425166667}, "offset_applied": 109.55262857151743}, "waypoints_window": [{"idx": 0, "lat": 38.94124777, "lon": -92.31884882, "current": true}, {"idx": 1, "lat": 38.9412436, "lon": -92.31878981, "current": false}, {"idx": 2, "lat": 38.94120606, "lon": -92.3187308, "current": false}, {"idx": 3, "lat": 38.94124047, "lon": -92.31867984, "current": false}, {"idx": 4, "lat": 38.94124047, "lon": -92.31856987, "current": false}, {"idx": 5, "lat": 38.94121959, "lon": -92.31852293, "current": false}, {"idx": 6, "lat": 38.94114243, "lon": -92.31852159, "current": false}], "waiting_at_wp": false, "waiting_wp_idx": null, "imu_raw": {"type": "imu_frame", "version": 1, "rot": {"qi": 0.017, "qj": 0.027, "qk": -0.558, "qr": 0.829}, "euler": {"roll": -0.11, "pitch": 3.65, "yaw": 41.68, "north_offset_deg": 109.5526}, "hz": 48.0, "heading": {"raw": 7.464, "deg": 117.017, "dir": "ESE"}, "ts": 3099403, "game_rot": {"qi": 0.001, "qj": 0.032, "qk": -0.065, "qr": 0.997}, "accel": {"x": -0.64, "y": -0.02, "z": 9.88}, "lin_accel": {"x": -0.01, "y": -0.01, "z": 0.02}, "gravity": {"x": -0.62, "y": -0.02, "z": 9.87}, "gyro": {"x": 0.0, "y": 0.0, "z": 0.0}, "mag": {"x": -19.7, "y": 6.1, "z": 3.5}, "steps": 0, "cal": 0}, "rtk_raw": {"type": "rtk_frame", "version": 1, "lat": 38.94124558666667, "lon": -92.31890289333333, "alt": 236.794, "fix_quality": 4, "num_sats": 17, "hdop": 1.1, "speed_knots": 0.05, "track_deg": 129.17, "rtk_ts": 1777440298.593481, "server_ts": 1777440299.327915, "source": "rtk"}}
{"type": "autonav_status", "version": 1, "state": "running", "current_wp_idx": 0, "total_wp": 7, "heading_deg": 117.017, "target_bearing_deg": 87.0, "bearing_error_deg": -30.0, "dist_to_wp_m": 4.69, "linear": 0.0, "angular": 0.6, "gps_age_s": 0.08, "gps_packet_age_s": 0.08, "gps_fix_quality": 4, "sensor_block_reason": null, "imu_age_s": 0.0, "speed_ratio": 1.0, "manual_speed": 0.4, "calib": {"mark": {"lat": 38.94125036, "lon": -92.31891425166667}, "offset_applied": 109.55262857151743}, "waypoints_window": [{"idx": 0, "lat": 38.94124777, "lon": -92.31884882, "current": true}, {"idx": 1, "lat": 38.9412436, "lon": -92.31878981, "current": false}, {"idx": 2, "lat": 38.94120606, "lon": -92.3187308, "current": false}, {"idx": 3, "lat": 38.94124047, "lon": -92.31867984, "current": false}, {"idx": 4, "lat": 38.94124047, "lon": -92.31856987, "current": false}, {"idx": 5, "lat": 38.94121959, "lon": -92.31852293, "current": false}, {"idx": 6, "lat": 38.94114243, "lon": -92.31852159, "current": false}], "waiting_at_wp": false, "waiting_wp_idx": null, "imu_raw": {"type": "imu_frame", "version": 1, "rot": {"qi": 0.017, "qj": 0.027, "qk": -0.558, "qr": 0.829}, "euler": {"roll": -0.11, "pitch": 3.65, "yaw": 41.68, "north_offset_deg": 109.5526}, "hz": 48.5, "heading": {"raw": 7.464, "deg": 117.017, "dir": "ESE"}, "ts": 3099605, "game_rot": {"qi": 0.001, "qj": 0.032, "qk": -0.065, "qr": 0.997}, "accel": {"x": -0.64, "y": -0.02, "z": 9.88}, "lin_accel": {"x": -0.01, "y": -0.01, "z": 0.01}, "gravity": {"x": -0.62, "y": -0.02, "z": 9.88}, "gyro": {"x": 0.0, "y": 0.0, "z": 0.0}, "mag": {"x": -20.4, "y": 5.8, "z": 5.1}, "steps": 0, "cal": 0}, "rtk_raw": {"type": "rtk_frame", "version": 1, "lat": 38.94124558666667, "lon": -92.31890289333333, "alt": 236.794, "fix_quality": 4, "num_sats": 17, "hdop": 1.1, "speed_knots": 0.05, "track_deg": 129.17, "rtk_ts": 1777440298.593481, "server_ts": 1777440299.529184, "source": "rtk"}}
{"type": "autonav_status", "version": 1, "state": "running", "current_wp_idx": 0, "total_wp": 7, "heading_deg": 117.017, "target_bearing_deg": 87.1, "bearing_error_deg": -29.9, "dist_to_wp_m": 4.69, "linear": 0.0, "angular": 0.599, "gps_age_s": 0.08, "gps_packet_age_s": 0.08, "gps_fix_quality": 4, "sensor_block_reason": null, "imu_age_s": 0.02, "speed_ratio": 1.0, "manual_speed": 0.4, "calib": {"mark": {"lat": 38.94125036, "lon": -92.31891425166667}, "offset_applied": 109.55262857151743}, "waypoints_window": [{"idx": 0, "lat": 38.94124777, "lon": -92.31884882, "current": true}, {"idx": 1, "lat": 38.9412436, "lon": -92.31878981, "current": false}, {"idx": 2, "lat": 38.94120606, "lon": -92.3187308, "current": false}, {"idx": 3, "lat": 38.94124047, "lon": -92.31867984, "current": false}, {"idx": 4, "lat": 38.94124047, "lon": -92.31856987, "current": false}, {"idx": 5, "lat": 38.94121959, "lon": -92.31852293, "current": false}, {"idx": 6, "lat": 38.94114243, "lon": -92.31852159, "current": false}], "waiting_at_wp": false, "waiting_wp_idx": null, "imu_raw": {"type": "imu_frame", "version": 1, "rot": {"qi": 0.017, "qj": 0.027, "qk": -0.558, "qr": 0.829}, "euler": {"roll": -0.11, "pitch": 3.65, "yaw": 41.68, "north_offset_deg": 109.5526}, "hz": 48.5, "heading": {"raw": 7.464, "deg": 117.017, "dir": "ESE"}, "ts": 3099788, "game_rot": {"qi": 0.001, "qj": 0.032, "qk": -0.065, "qr": 0.997}, "accel": {"x": -0.64, "y": -0.02, "z": 9.88}, "lin_accel": {"x": -0.01, "y": -0.01, "z": 0.01}, "gravity": {"x": -0.62, "y": -0.02, "z": 9.88}, "gyro": {"x": 0.0, "y": 0.0, "z": 0.0}, "mag": {"x": -20.3, "y": 6.6, "z": 4.8}, "steps": 0, "cal": 0}, "rtk_raw": {"type": "rtk_frame", "version": 1, "lat": 38.94124561833333, "lon": -92.31890290333334, "alt": 236.789, "fix_quality": 4, "num_sats": 17, "hdop": 1.1, "speed_knots": 0.04, "track_deg": 129.17, "rtk_ts": 1777440299.594524, "server_ts": 1777440299.7297988, "source": "rtk"}}
{"type": "autonav_status", "version": 1, "state": "running", "current_wp_idx": 0, "total_wp": 7, "heading_deg": 117.017, "target_bearing_deg": 87.1, "bearing_error_deg": -29.9, "dist_to_wp_m": 4.69, "linear": 0.0, "angular": 0.599, "gps_age_s": 0.08, "gps_packet_age_s": 0.08, "gps_fix_quality": 4, "sensor_block_reason": null, "imu_age_s": 0.0, "speed_ratio": 1.0, "manual_speed": 0.4, "calib": {"mark": {"lat": 38.94125036, "lon": -92.31891425166667}, "offset_applied": 109.55262857151743}, "waypoints_window": [{"idx": 0, "lat": 38.94124777, "lon": -92.31884882, "current": true}, {"idx": 1, "lat": 38.9412436, "lon": -92.31878981, "current": false}, {"idx": 2, "lat": 38.94120606, "lon": -92.3187308, "current": false}, {"idx": 3, "lat": 38.94124047, "lon": -92.31867984, "current": false}, {"idx": 4, "lat": 38.94124047, "lon": -92.31856987, "current": false}, {"idx": 5, "lat": 38.94121959, "lon": -92.31852293, "current": false}, {"idx": 6, "lat": 38.94114243, "lon": -92.31852159, "current": false}], "waiting_at_wp": false, "waiting_wp_idx": null, "imu_raw": {"type": "imu_frame", "version": 1, "rot": {"qi": 0.017, "qj": 0.027, "qk": -0.558, "qr": 0.829}, "euler": {"roll": -0.11, "pitch": 3.65, "yaw": 41.68, "north_offset_deg": 109.5526}, "hz": 48.1, "heading": {"raw": 7.464, "deg": 117.017, "dir": "ESE"}, "ts": 3100005, "game_rot": {"qi": 0.001, "qj": 0.032, "qk": -0.065, "qr": 0.997}, "accel": {"x": -0.64, "y": -0.02, "z": 9.84}, "lin_accel": {"x": -0.01, "y": -0.01, "z": -0.03}, "gravity": {"x": -0.62, "y": -0.02, "z": 9.88}, "gyro": {"x": 0.0, "y": 0.0, "z": 0.0}, "mag": {"x": -21.0, "y": 6.1, "z": 3.9}, "steps": 0, "cal": 0}, "rtk_raw": {"type": "rtk_frame", "version": 1, "lat": 38.94124561833333, "lon": -92.31890290333334, "alt": 236.789, "fix_quality": 4, "num_sats": 17, "hdop": 1.1, "speed_knots": 0.04, "track_deg": 129.17, "rtk_ts": 1777440299.594524, "server_ts": 1777440299.930706, "source": "rtk"}}
{"type": "autonav_status", "version": 1, "state": "running", "current_wp_idx": 0, "total_wp": 7, "heading_deg": 117.017, "target_bearing_deg": 87.1, "bearing_error_deg": -29.9, "dist_to_wp_m": 4.69, "linear": 0.0, "angular": 0.599, "gps_age_s": 0.08, "gps_packet_age_s": 0.08, "gps_fix_quality": 4, "sensor_block_reason": null, "imu_age_s": 0.01, "speed_ratio": 1.0, "manual_speed": 0.4, "calib": {"mark": {"lat": 38.94125036, "lon": -92.31891425166667}, "offset_applied": 109.55262857151743}, "waypoints_window": [{"idx": 0, "lat": 38.94124777, "lon": -92.31884882, "current": true}, {"idx": 1, "lat": 38.9412436, "lon": -92.31878981, "current": false}, {"idx": 2, "lat": 38.94120606, "lon": -92.3187308, "current": false}, {"idx": 3, "lat": 38.94124047, "lon": -92.31867984, "current": false}, {"idx": 4, "lat": 38.94124047, "lon": -92.31856987, "current": false}, {"idx": 5, "lat": 38.94121959, "lon": -92.31852293, "current": false}, {"idx": 6, "lat": 38.94114243, "lon": -92.31852159, "current": false}], "waiting_at_wp": false, "waiting_wp_idx": null, "imu_raw": {"type": "imu_frame", "version": 1, "rot": {"qi": 0.017, "qj": 0.027, "qk": -0.558, "qr": 0.829}, "euler": {"roll": -0.11, "pitch": 3.65, "yaw": 41.68, "north_offset_deg": 109.5526}, "hz": 47.8, "heading": {"raw": 7.464, "deg": 117.017, "dir": "ESE"}, "ts": 3100197, "game_rot": {"qi": 0.001, "qj": 0.031, "qk": -0.065, "qr": 0.997}, "accel": {"x": -0.68, "y": 0.21, "z": 9.77}, "lin_accel": {"x": -0.05, "y": 0.22, "z": -0.11}, "gravity": {"x": -0.62, "y": -0.02, "z": 9.88}, "gyro": {"x": -0.055, "y": -0.049, "z": 0.047}, "mag": {"x": -20.4, "y": 5.8, "z": 5.1}, "steps": 0, "cal": 0}, "rtk_raw": {"type": "rtk_frame", "version": 1, "lat": 38.94124561833333, "lon": -92.31890290333334, "alt": 236.789, "fix_quality": 4, "num_sats": 17, "hdop": 1.1, "speed_knots": 0.04, "track_deg": 129.17, "rtk_ts": 1777440299.594524, "server_ts": 1777440300.1311302, "source": "rtk"}}
{"type": "autonav_status", "version": 1, "state": "running", "current_wp_idx": 0, "total_wp": 7, "heading_deg": 115.647, "target_bearing_deg": 87.1, "bearing_error_deg": -28.6, "dist_to_wp_m": 4.69, "linear": 0.0, "angular": 0.572, "gps_age_s": 0.08, "gps_packet_age_s": 0.08, "gps_fix_quality": 4, "sensor_block_reason": null, "imu_age_s": 0.01, "speed_ratio": 1.0, "manual_speed": 0.4, "calib": {"mark": {"lat": 38.94125036, "lon": -92.31891425166667}, "offset_applied": 109.55262857151743}, "waypoints_window": [{"idx": 0, "lat": 38.94124777, "lon": -92.31884882, "current": true}, {"idx": 1, "lat": 38.9412436, "lon": -92.31878981, "current": false}, {"idx": 2, "lat": 38.94120606, "lon": -92.3187308, "current": false}, {"idx": 3, "lat": 38.94124047, "lon": -92.31867984, "current": false}, {"idx": 4, "lat": 38.94124047, "lon": -92.31856987, "current": false}, {"idx": 5, "lat": 38.94121959, "lon": -92.31852293, "current": false}, {"idx": 6, "lat": 38.94114243, "lon": -92.31852159, "current": false}], "waiting_at_wp": false, "waiting_wp_idx": null, "imu_raw": {"type": "imu_frame", "version": 1, "rot": {"qi": 0.011, "qj": 0.026, "qk": -0.548, "qr": 0.836}, "euler": {"roll": -0.58, "pitch": 3.18, "yaw": 43.05, "north_offset_deg": 109.5526}, "hz": 47.8, "heading": {"raw": 6.094, "deg": 115.647, "dir": "ESE"}, "ts": 3100407, "game_rot": {"qi": -0.003, "qj": 0.028, "qk": -0.053, "qr": 0.998}, "accel": {"x": -0.79, "y": -1.48, "z": 10.34}, "lin_accel": {"x": -0.3, "y": -1.51, "z": 0.41}, "gravity": {"x": -0.48, "y": 0.03, "z": 9.94}, "gyro": {"x": -0.033, "y": -0.008, "z": 0.047}, "mag": {"x": -21.3, "y": 7.2, "z": 4.8}, "steps": 0, "cal": 0}, "rtk_raw": {"type": "rtk_frame", "version": 1, "lat": 38.94124561833333, "lon": -92.31890290333334, "alt": 236.789, "fix_quality": 4, "num_sats": 17, "hdop": 1.1, "speed_knots": 0.04, "track_deg": 129.17, "rtk_ts": 1777440299.594524, "server_ts": 1777440300.332434, "source": "rtk"}}
{"type": "autonav_status", "version": 1, "state": "running", "current_wp_idx": 0, "total_wp": 7, "heading_deg": 115.185, "target_bearing_deg": 87.1, "bearing_error_deg": -28.1, "dist_to_wp_m": 4.69, "linear": 0.0, "angular": 0.562, "gps_age_s": 0.08, "gps_packet_age_s": 0.08, "gps_fix_quality": 4, "sensor_block_reason": null, "imu_age_s": 0.02, "speed_ratio": 1.0, "manual_speed": 0.4, "calib": {"mark": {"lat": 38.94125036, "lon": -92.31891425166667}, "offset_applied": 109.55262857151743}, "waypoints_window": [{"idx": 0, "lat": 38.94124777, "lon": -92.31884882, "current": true}, {"idx": 1, "lat": 38.9412436, "lon": -92.31878981, "current": false}, {"idx": 2, "lat": 38.94120606, "lon": -92.3187308, "current": false}, {"idx": 3, "lat": 38.94124047, "lon": -92.31867984, "current": false}, {"idx": 4, "lat": 38.94124047, "lon": -92.31856987, "current": false}, {"idx": 5, "lat": 38.94121959, "lon": -92.31852293, "current": false}, {"idx": 6, "lat": 38.94114243, "lon": -92.31852159, "current": false}], "waiting_at_wp": false, "waiting_wp_idx": null, "imu_raw": {"type": "imu_frame", "version": 1, "rot": {"qi": 0.012, "qj": 0.025, "qk": -0.545, "qr": 0.838}, "euler": {"roll": -0.41, "pitch": 3.15, "yaw": 43.46, "north_offset_deg": 109.5526}, "hz": 47.6, "heading": {"raw": 5.632, "deg": 115.185, "dir": "ESE"}, "ts": 3100596, "game_rot": {"qi": -0.002, "qj": 0.027, "qk": -0.049, "qr": 0.998}, "accel": {"x": -0.68, "y": 0.02, "z": 9.69}, "lin_accel": {"x": -0.22, "y": -0.05, "z": -0.24}, "gravity": {"x": -0.45, "y": 0.07, "z": 9.93}, "gyro": {"x": 0.01, "y": -0.016, "z": 0.082}, "mag": {"x": -20.0, "y": 6.1, "z": 3.9}, "steps": 0, "cal": 0}, "rtk_raw": {"type": "rtk_frame", "version": 1, "lat": 38.94124561833333, "lon": -92.31890290333334, "alt": 236.789, "fix_quality": 4, "num_sats": 17, "hdop": 1.1, "speed_knots": 0.04, "track_deg": 129.17, "rtk_ts": 1777440299.594524, "server_ts": 1777440300.5336692, "source": "rtk"}}
{"type": "autonav_status", "version": 1, "state": "running", "current_wp_idx": 0, "total_wp": 7, "heading_deg": 114.259, "target_bearing_deg": 87.5, "bearing_error_deg": -26.8, "dist_to_wp_m": 4.66, "linear": 0.0, "angular": 0.535, "gps_age_s": 0.08, "gps_packet_age_s": 0.08, "gps_fix_quality": 4, "sensor_block_reason": null, "imu_age_s": 0.01, "speed_ratio": 1.0, "manual_speed": 0.4, "calib": {"mark": {"lat": 38.94125036, "lon": -92.31891425166667}, "offset_applied": 109.55262857151743}, "waypoints_window": [{"idx": 0, "lat": 38.94124777, "lon": -92.31884882, "current": true}, {"idx": 1, "lat": 38.9412436, "lon": -92.31878981, "current": false}, {"idx": 2, "lat": 38.94120606, "lon": -92.3187308, "current": false}, {"idx": 3, "lat": 38.94124047, "lon": -92.31867984, "current": false}, {"idx": 4, "lat": 38.94124047, "lon": -92.31856987, "current": false}, {"idx": 5, "lat": 38.94121959, "lon": -92.31852293, "current": false}, {"idx": 6, "lat": 38.94114243, "lon": -92.31852159, "current": false}], "waiting_at_wp": false, "waiting_wp_idx": null, "imu_raw": {"type": "imu_frame", "version": 1, "rot": {"qi": 0.012, "qj": 0.023, "qk": -0.538, "qr": 0.842}, "euler": {"roll": -0.26, "pitch": 2.96, "yaw": 44.44, "north_offset_deg": 109.5526}, "hz": 47.1, "heading": {"raw": 4.706, "deg": 114.259, "dir": "ESE"}, "ts": 3100808, "game_rot": {"qi": -0.001, "qj": 0.026, "qk": -0.041, "qr": 0.999}, "accel": {"x": -0.68, "y": -0.14, "z": 9.65}, "lin_accel": {"x": -0.25, "y": -0.23, "z": -0.28}, "gravity": {"x": -0.42, "y": 0.09, "z": 9.93}, "gyro": {"x": -0.012, "y": 0.0, "z": 0.059}, "mag": {"x": -19.6, "y": 7.4, "z": 6.0}, "steps": 0, "cal": 0}, "rtk_raw": {"type": "rtk_frame", "version": 1, "lat": 38.94124593833333, "lon": -92.31890259666666, "alt": 236.803, "fix_quality": 4, "num_sats": 17, "hdop": 1.1, "speed_knots": 0.24, "track_deg": 129.17, "rtk_ts": 1777440300.589081, "server_ts": 1777440300.734853, "source": "rtk"}}
{"type": "autonav_status", "version": 1, "state": "running", "current_wp_idx": 0, "total_wp": 7, "heading_deg": 113.345, "target_bearing_deg": 87.5, "bearing_error_deg": -25.9, "dist_to_wp_m": 4.66, "linear": 0.0, "angular": 0.517, "gps_age_s": 0.08, "gps_packet_age_s": 0.08, "gps_fix_quality": 4, "sensor_block_reason": null, "imu_age_s": 0.01, "speed_ratio": 1.0, "manual_speed": 0.4, "calib": {"mark": {"lat": 38.94125036, "lon": -92.31891425166667}, "offset_applied": 109.55262857151743}, "waypoints_window": [{"idx": 0, "lat": 38.94124777, "lon": -92.31884882, "current": true}, {"idx": 1, "lat": 38.9412436, "lon": -92.31878981, "current": false}, {"idx": 2, "lat": 38.94120606, "lon": -92.3187308, "current": false}, {"idx": 3, "lat": 38.94124047, "lon": -92.31867984, "current": false}, {"idx": 4, "lat": 38.94124047, "lon": -92.31856987, "current": false}, {"idx": 5, "lat": 38.94121959, "lon": -92.31852293, "current": false}, {"idx": 6, "lat": 38.94114243, "lon": -92.31852159, "current": false}], "waiting_at_wp": false, "waiting_wp_idx": null, "imu_raw": {"type": "imu_frame", "version": 1, "rot": {"qi": 0.011, "qj": 0.023, "qk": -0.532, "qr": 0.847}, "euler": {"roll": -0.33, "pitch": 2.9, "yaw": 45.22, "north_offset_deg": 109.5526}, "hz": 47.9, "heading": {"raw": 3.792, "deg": 113.345, "dir": "ESE"}, "ts": 3101008, "game_rot": {"qi": -0.002, "qj": 0.025, "qk": -0.033, "qr": 0.999}, "accel": {"x": -0.37, "y": -0.14, "z": 9.81}, "lin_accel": {"x": 0.03, "y": -0.21, "z": -0.12}, "gravity": {"x": -0.4, "y": 0.07, "z": 9.93}, "gyro": {"x": -0.006, "y": -0.008, "z": 0.104}, "mag": {"x": -20.3, "y": 7.0, "z": 6.0}, "steps": 0, "cal": 0}, "rtk_raw": {"type": "rtk_frame", "version": 1, "lat": 38.94124593833333, "lon": -92.31890259666666, "alt": 236.803, "fix_quality": 4, "num_sats": 17, "hdop": 1.1, "speed_knots": 0.24, "track_deg": 129.17, "rtk_ts": 1777440300.589081, "server_ts": 1777440300.93604, "source": "rtk"}}
{"type": "autonav_status", "version": 1, "state": "running", "current_wp_idx": 0, "total_wp": 7, "heading_deg": 112.195, "target_bearing_deg": 87.5, "bearing_error_deg": -24.7, "dist_to_wp_m": 4.66, "linear": 0.0, "angular": 0.494, "gps_age_s": 0.08, "gps_packet_age_s": 0.08, "gps_fix_quality": 4, "sensor_block_reason": null, "imu_age_s": 0.01, "speed_ratio": 1.0, "manual_speed": 0.4, "calib": {"mark": {"lat": 38.94125036, "lon": -92.31891425166667}, "offset_applied": 109.55262857151743}, "waypoints_window": [{"idx": 0, "lat": 38.94124777, "lon": -92.31884882, "current": true}, {"idx": 1, "lat": 38.9412436, "lon": -92.31878981, "current": false}, {"idx": 2, "lat": 38.94120606, "lon": -92.3187308, "current": false}, {"idx": 3, "lat": 38.94124047, "lon": -92.31867984, "current": false}, {"idx": 4, "lat": 38.94124047, "lon": -92.31856987, "current": false}, {"idx": 5, "lat": 38.94121959, "lon": -92.31852293, "current": false}, {"idx": 6, "lat": 38.94114243, "lon": -92.31852159, "current": false}], "waiting_at_wp": false, "waiting_wp_idx": null, "imu_raw": {"type": "imu_frame", "version": 1, "rot": {"qi": 0.011, "qj": 0.021, "qk": -0.523, "qr": 0.852}, "euler": {"roll": -0.18, "pitch": 2.71, "yaw": 46.46, "north_offset_deg": 109.5526}, "hz": 48.5, "heading": {"raw": 2.642, "deg": 112.195, "dir": "ESE"}, "ts": 3101208, "game_rot": {"qi": -0.001, "qj": 0.024, "qk": -0.023, "qr": 0.999}, "accel": {"x": -0.1, "y": 0.32, "z": 9.08}, "lin_accel": {"x": 0.28, "y": 0.24, "z": -0.84}, "gravity": {"x": -0.38, "y": 0.08, "z": 9.92}, "gyro": {"x": -0.01, "y": -0.002, "z": 0.105}, "mag": {"x": -20.0, "y": 6.2, "z": 5.9}, "steps": 0, "cal": 0}, "rtk_raw": {"type": "rtk_frame", "version": 1, "lat": 38.94124593833333, "lon": -92.31890259666666, "alt": 236.803, "fix_quality": 4, "num_sats": 17, "hdop": 1.1, "speed_knots": 0.24, "track_deg": 129.17, "rtk_ts": 1777440300.589081, "server_ts": 1777440301.1372612, "source": "rtk"}}
{"type": "autonav_status", "version": 1, "state": "running", "current_wp_idx": 0, "total_wp": 7, "heading_deg": 110.819, "target_bearing_deg": 87.5, "bearing_error_deg": -23.3, "dist_to_wp_m": 4.66, "linear": 0.0, "angular": 0.467, "gps_age_s": 0.08, "gps_packet_age_s": 0.08, "gps_fix_quality": 4, "sensor_block_reason": null, "imu_age_s": 0.02, "speed_ratio": 1.0, "manual_speed": 0.4, "calib": {"mark": {"lat": 38.94125036, "lon": -92.31891425166667}, "offset_applied": 109.55262857151743}, "waypoints_window": [{"idx": 0, "lat": 38.94124777, "lon": -92.31884882, "current": true}, {"idx": 1, "lat": 38.9412436, "lon": -92.31878981, "current": false}, {"idx": 2, "lat": 38.94120606, "lon": -92.3187308, "current": false}, {"idx": 3, "lat": 38.94124047, "lon": -92.31867984, "current": false}, {"idx": 4, "lat": 38.94124047, "lon": -92.31856987, "current": false}, {"idx": 5, "lat": 38.94121959, "lon": -92.31852293, "current": false}, {"idx": 6, "lat": 38.94114243, "lon": -92.31852159, "current": false}], "waiting_at_wp": false, "waiting_wp_idx": null, "imu_raw": {"type": "imu_frame", "version": 1, "rot": {"qi": 0.01, "qj": 0.021, "qk": -0.513, "qr": 0.858}, "euler": {"roll": -0.25, "pitch": 2.65, "yaw": 47.8, "north_offset_deg": 109.5526}, "hz": 48.4, "heading": {"raw": 1.267, "deg": 110.819, "dir": "ESE"}, "ts": 3101399, "game_rot": {"qi": -0.002, "qj": 0.024, "qk": -0.011, "qr": 1.0}, "accel": {"x": -0.71, "y": 0.17, "z": 9.04}, "lin_accel": {"x": -0.34, "y": 0.1, "z": -0.88}, "gravity": {"x": -0.38, "y": 0.07, "z": 9.92}, "gyro": {"x": -0.01, "y": 0.01, "z": 0.129}, "mag": {"x": -20.3, "y": 7.1, "z": 7.2}, "steps": 0, "cal": 0}, "rtk_raw": {"type": "rtk_frame", "version": 1, "lat": 38.94124593833333, "lon": -92.31890259666666, "alt": 236.803, "fix_quality": 4, "num_sats": 17, "hdop": 1.1, "speed_knots": 0.24, "track_deg": 129.17, "rtk_ts": 1777440300.589081, "server_ts": 1777440301.3385038, "source": "rtk"}}
{"type": "autonav_status", "version": 1, "state": "running", "current_wp_idx": 0, "total_wp": 7, "heading_deg": 109.102, "target_bearing_deg": 87.5, "bearing_error_deg": -21.6, "dist_to_wp_m": 4.66, "linear": 0.0, "angular": 0.432, "gps_age_s": 0.08, "gps_packet_age_s": 0.08, "gps_fix_quality": 4, "sensor_block_reason": null, "imu_age_s": 0.01, "speed_ratio": 1.0, "manual_speed": 0.4, "calib": {"mark": {"lat": 38.94125036, "lon": -92.31891425166667}, "offset_applied": 109.55262857151743}, "waypoints_window": [{"idx": 0, "lat": 38.94124777, "lon": -92.31884882, "current": true}, {"idx": 1, "lat": 38.9412436, "lon": -92.31878981, "current": false}, {"idx": 2, "lat": 38.94120606, "lon": -92.3187308, "current": false}, {"idx": 3, "lat": 38.94124047, "lon": -92.31867984, "current": false}, {"idx": 4, "lat": 38.94124047, "lon": -92.31856987, "current": false}, {"idx": 5, "lat": 38.94121959, "lon": -92.31852293, "current": false}, {"idx": 6, "lat": 38.94114243, "lon": -92.31852159, "current": false}], "waiting_at_wp": false, "waiting_wp_idx": null, "imu_raw": {"type": "imu_frame", "version": 1, "rot": {"qi": 0.009, "qj": 0.021, "qk": -0.5, "qr": 0.866}, "euler": {"roll": -0.31, "pitch": 2.6, "yaw": 49.52, "north_offset_deg": 109.5526}, "hz": 48.3, "heading": {"raw": 359.549, "deg": 109.102, "dir": "ESE"}, "ts": 3101610, "game_rot": {"qi": -0.003, "qj": 0.023, "qk": 0.004, "qr": 1.0}, "accel": {"x": -0.1, "y": -0.21, "z": 9.96}, "lin_accel": {"x": 0.27, "y": -0.25, "z": 0.05}, "gravity": {"x": -0.37, "y": 0.04, "z": 9.91}, "gyro": {"x": 0.0, "y": -0.008, "z": 0.156}, "mag": {"x": -19.7, "y": 7.1, "z": 7.2}, "steps": 0, "cal": 0}, "rtk_raw": {"type": "rtk_frame", "version": 1, "lat": 38.94124593833333, "lon": -92.31890259666666, "alt": 236.803, "fix_quality": 4, "num_sats": 17, "hdop": 1.1, "speed_knots": 0.24, "track_deg": 129.17, "rtk_ts": 1777440300.589081, "server_ts": 1777440301.539784, "source": "rtk"}}
{"type": "autonav_status", "version": 1, "state": "running", "current_wp_idx": 0, "total_wp": 7, "heading_deg": 106.806, "target_bearing_deg": 87.8, "bearing_error_deg": -19.0, "dist_to_wp_m": 4.58, "linear": 0.0, "angular": 0.38, "gps_age_s": 0.08, "gps_packet_age_s": 0.08, "gps_fix_quality": 4, "sensor_block_reason": null, "imu_age_s": 0.0, "speed_ratio": 1.0, "manual_speed": 0.4, "calib": {"mark": {"lat": 38.94125036, "lon": -92.31891425166667}, "offset_applied": 109.55262857151743}, "waypoints_window": [{"idx": 0, "lat": 38.94124777, "lon": -92.31884882, "current": true}, {"idx": 1, "lat": 38.9412436, "lon": -92.31878981, "current": false}, {"idx": 2, "lat": 38.94120606, "lon": -92.3187308, "current": false}, {"idx": 3, "lat": 38.94124047, "lon": -92.31867984, "current": false}, {"idx": 4, "lat": 38.94124047, "lon": -92.31856987, "current": false}, {"idx": 5, "lat": 38.94121959, "lon": -92.31852293, "current": false}, {"idx": 6, "lat": 38.94114243, "lon": -92.31852159, "current": false}], "waiting_at_wp": false, "waiting_wp_idx": null, "imu_raw": {"type": "imu_frame", "version": 1, "rot": {"qi": 0.009, "qj": 0.02, "qk": -0.483, "qr": 0.875}, "euler": {"roll": -0.2, "pitch": 2.5, "yaw": 51.78, "north_offset_deg": 109.5526}, "hz": 48.4, "heading": {"raw": 357.254, "deg": 106.806, "dir": "ESE"}, "ts": 3101819, "game_rot": {"qi": -0.003, "qj": 0.022, "qk": 0.024, "qr": 0.999}, "accel": {"x": -0.33, "y": 0.32, "z": 10.53}, "lin_accel": {"x": 0.02, "y": 0.29, "z": 0.62}, "gravity": {"x": -0.35, "y": 0.03, "z": 9.91}, "gyro": {"x": 0.002, "y": -0.012, "z": 0.182}, "mag": {"x": -19.4, "y": 5.9, "z": 7.1}, "steps": 0, "cal": 0}, "rtk_raw": {"type": "rtk_frame", "version": 1, "lat": 38.941246185, "lon": -92.31890165666667, "alt": 236.789, "fix_quality": 4, "num_sats": 17, "hdop": 1.1, "speed_knots": 0.29, "track_deg": 129.17, "rtk_ts": 1777440301.578474, "server_ts": 1777440301.7410681, "source": "rtk"}}
{"type": "autonav_status", "version": 1, "state": "running", "current_wp_idx": 0, "total_wp": 7, "heading_deg": 104.975, "target_bearing_deg": 87.8, "bearing_error_deg": -17.2, "dist_to_wp_m": 4.58, "linear": 0.0, "angular": 0.344, "gps_age_s": 0.08, "gps_packet_age_s": 0.08, "gps_fix_quality": 4, "sensor_block_reason": null, "imu_age_s": 0.01, "speed_ratio": 1.0, "manual_speed": 0.4, "calib": {"mark": {"lat": 38.94125036, "lon": -92.31891425166667}, "offset_applied": 109.55262857151743}, "waypoints_window": [{"idx": 0, "lat": 38.94124777, "lon": -92.31884882, "current": true}, {"idx": 1, "lat": 38.9412436, "lon": -92.31878981, "current": false}, {"idx": 2, "lat": 38.94120606, "lon": -92.3187308, "current": false}, {"idx": 3, "lat": 38.94124047, "lon": -92.31867984, "current": false}, {"idx": 4, "lat": 38.94124047, "lon": -92.31856987, "current": false}, {"idx": 5, "lat": 38.94121959, "lon": -92.31852293, "current": false}, {"idx": 6, "lat": 38.94114243, "lon": -92.31852159, "current": false}], "waiting_at_wp": false, "waiting_wp_idx": null, "imu_raw": {"type": "imu_frame", "version": 1, "rot": {"qi": 0.008, "qj": 0.02, "qk": -0.469, "qr": 0.883}, "euler": {"roll": -0.27, "pitch": 2.45, "yaw": 53.59, "north_offset_deg": 109.5526}, "hz": 47.9, "heading": {"raw": 355.422, "deg": 104.975, "dir": "ESE"}, "ts": 3102009, "game_rot": {"qi": -0.004, "qj": 0.022, "qk": 0.04, "qr": 0.999}, "accel": {"x": -0.48, "y": -0.18, "z": 9.77}, "lin_accel": {"x": -0.12, "y": -0.18, "z": -0.14}, "gravity": {"x": -0.36, "y": 0.01, "z": 9.91}, "gyro": {"x": -0.018, "y": -0.01, "z": 0.201}, "mag": {"x": -18.3, "y": 7.6, "z": 7.6}, "steps": 0, "cal": 0}, "rtk_raw": {"type": "rtk_frame", "version": 1, "lat": 38.941246185, "lon": -92.31890165666667, "alt": 236.789, "fix_quality": 4, "num_sats": 17, "hdop": 1.1, "speed_knots": 0.29, "track_deg": 129.17, "rtk_ts": 1777440301.578474, "server_ts": 1777440301.942367, "source": "rtk"}}
{"type": "autonav_status", "version": 1, "state": "running", "current_wp_idx": 0, "total_wp": 7, "heading_deg": 103.136, "target_bearing_deg": 87.8, "bearing_error_deg": -15.3, "dist_to_wp_m": 4.58, "linear": 0.0, "angular": 0.307, "gps_age_s": 0.08, "gps_packet_age_s": 0.08, "gps_fix_quality": 4, "sensor_block_reason": null, "imu_age_s": 0.01, "speed_ratio": 1.0, "manual_speed": 0.4, "calib": {"mark": {"lat": 38.94125036, "lon": -92.31891425166667}, "offset_applied": 109.55262857151743}, "waypoints_window": [{"idx": 0, "lat": 38.94124777, "lon": -92.31884882, "current": true}, {"idx": 1, "lat": 38.9412436, "lon": -92.31878981, "current": false}, {"idx": 2, "lat": 38.94120606, "lon": -92.3187308, "current": false}, {"idx": 3, "lat": 38.94124047, "lon": -92.31867984, "current": false}, {"idx": 4, "lat": 38.94124047, "lon": -92.31856987, "current": false}, {"idx": 5, "lat": 38.94121959, "lon": -92.31852293, "current": false}, {"idx": 6, "lat": 38.94114243, "lon": -92.31852159, "current": false}], "waiting_at_wp": false, "waiting_wp_idx": null, "imu_raw": {"type": "imu_frame", "version": 1, "rot": {"qi": 0.007, "qj": 0.02, "qk": -0.454, "qr": 0.891}, "euler": {"roll": -0.33, "pitch": 2.41, "yaw": 55.52, "north_offset_deg": 109.5526}, "hz": 47.6, "heading": {"raw": 353.584, "deg": 103.136, "dir": "ESE"}, "ts": 3102218, "game_rot": {"qi": -0.004, "qj": 0.021, "qk": 0.056, "qr": 0.998}, "accel": {"x": -0.56, "y": -0.02, "z": 10.0}, "lin_accel": {"x": -0.21, "y": -0.01, "z": 0.09}, "gravity": {"x": -0.35, "y": -0.02, "z": 9.91}, "gyro": {"x": 0.0, "y": -0.012, "z": 0.162}, "mag": {"x": -18.0, "y": 6.9, "z": 9.2}, "steps": 0, "cal": 0}, "rtk_raw": {"type": "rtk_frame", "version": 1, "lat": 38.941246185, "lon": -92.31890165666667, "alt": 236.789, "fix_quality": 4, "num_sats": 17, "hdop": 1.1, "speed_knots": 0.29, "track_deg": 129.17, "rtk_ts": 1777440301.578474, "server_ts": 1777440302.142955, "source": "rtk"}}
{"type": "autonav_status", "version": 1, "state": "running", "current_wp_idx": 0, "total_wp": 7, "heading_deg": 101.412, "target_bearing_deg": 87.8, "bearing_error_deg": -13.6, "dist_to_wp_m": 4.58, "linear": 0.0, "angular": 0.272, "gps_age_s": 0.08, "gps_packet_age_s": 0.08, "gps_fix_quality": 4, "sensor_block_reason": null, "imu_age_s": 0.02, "speed_ratio": 1.0, "manual_speed": 0.4, "calib": {"mark": {"lat": 38.94125036, "lon": -92.31891425166667}, "offset_applied": 109.55262857151743}, "waypoints_window": [{"idx": 0, "lat": 38.94124777, "lon": -92.31884882, "current": true}, {"idx": 1, "lat": 38.9412436, "lon": -92.31878981, "current": false}, {"idx": 2, "lat": 38.94120606, "lon": -92.3187308, "current": false}, {"idx": 3, "lat": 38.94124047, "lon": -92.31867984, "current": false}, {"idx": 4, "lat": 38.94124047, "lon": -92.31856987, "current": false}, {"idx": 5, "lat": 38.94121959, "lon": -92.31852293, "current": false}, {"idx": 6, "lat": 38.94114243, "lon": -92.31852159, "current": false}], "waiting_at_wp": false, "waiting_wp_idx": null, "imu_raw": {"type": "imu_frame", "version": 1, "rot": {"qi": 0.007, "qj": 0.02, "qk": -0.44, "qr": 0.898}, "euler": {"roll": -0.29, "pitch": 2.41, "yaw": 57.32, "north_offset_deg": 109.5526}, "hz": 47.7, "heading": {"raw": 351.859, "deg": 101.412, "dir": "ESE"}, "ts": 3102405, "game_rot": {"qi": -0.004, "qj": 0.021, "qk": 0.071, "qr": 0.997}, "accel": {"x": -0.75, "y": -0.1, "z": 10.34}, "lin_accel": {"x": -0.39, "y": -0.09, "z": 0.45}, "gravity": {"x": -0.36, "y": -0.02, "z": 9.9}, "gyro": {"x": -0.014, "y": 0.023, "z": 0.133}, "mag": {"x": -18.4, "y": 6.1, "z": 9.1}, "steps": 0, "cal": 0}, "rtk_raw": {"type": "rtk_frame", "version": 1, "lat": 38.941246185, "lon": -92.31890165666667, "alt": 236.789, "fix_quality": 4, "num_sats": 17, "hdop": 1.1, "speed_knots": 0.29, "track_deg": 129.17, "rtk_ts": 1777440301.578474, "server_ts": 1777440302.344209, "source": "rtk"}}
{"type": "autonav_status", "version": 1, "state": "running", "current_wp_idx": 0, "total_wp": 7, "heading_deg": 99.576, "target_bearing_deg": 87.8, "bearing_error_deg": -11.8, "dist_to_wp_m": 4.58, "linear": 0.0, "angular": 0.236, "gps_age_s": 0.08, "gps_packet_age_s": 0.08, "gps_fix_quality": 4, "sensor_block_reason": null, "imu_age_s": 0.01, "speed_ratio": 1.0, "manual_speed": 0.4, "calib": {"mark": {"lat": 38.94125036, "lon": -92.31891425166667}, "offset_applied": 109.55262857151743}, "waypoints_window": [{"idx": 0, "lat": 38.94124777, "lon": -92.31884882, "current": true}, {"idx": 1, "lat": 38.9412436, "lon": -92.31878981, "current": false}, {"idx": 2, "lat": 38.94120606, "lon": -92.3187308, "current": false}, {"idx": 3, "lat": 38.94124047, "lon": -92.31867984, "current": false}, {"idx": 4, "lat": 38.94124047, "lon": -92.31856987, "current": false}, {"idx": 5, "lat": 38.94121959, "lon": -92.31852293, "current": false}, {"idx": 6, "lat": 38.94114243, "lon": -92.31852159, "current": false}], "waiting_at_wp": false, "waiting_wp_idx": null, "imu_raw": {"type": "imu_frame", "version": 1, "rot": {"qi": 0.006, "qj": 0.02, "qk": -0.426, "qr": 0.904}, "euler": {"roll": -0.36, "pitch": 2.37, "yaw": 59.12, "north_offset_deg": 109.5526}, "hz": 47.8, "heading": {"raw": 350.023, "deg": 99.576, "dir": "E"}, "ts": 3102613, "game_rot": {"qi": -0.005, "qj": 0.02, "qk": 0.087, "qr": 0.996}, "accel": {"x": -0.98, "y": -0.52, "z": 9.54}, "lin_accel": {"x": -0.34, "y": -0.11, "z": -0.44}, "gravity": {"x": -0.38, "y": -0.06, "z": 9.9}, "gyro": {"x": 0.008, "y": 0.0, "z": 0.176}, "mag": {"x": -16.6, "y": 7.0, "z": 9.6}, "steps": 0, "cal": 0}, "rtk_raw": {"type": "rtk_frame", "version": 1, "lat": 38.941246185, "lon": -92.31890165666667, "alt": 236.789, "fix_quality": 4, "num_sats": 17, "hdop": 1.1, "speed_knots": 0.29, "track_deg": 129.17, "rtk_ts": 1777440301.578474, "server_ts": 1777440302.545469, "source": "rtk"}}
{"type": "autonav_status", "version": 1, "state": "running", "current_wp_idx": 0, "total_wp": 7, "heading_deg": 97.967, "target_bearing_deg": 88.2, "bearing_error_deg": -9.8, "dist_to_wp_m": 4.44, "linear": 0.0, "angular": 0.195, "gps_age_s": 0.08, "gps_packet_age_s": 0.08, "gps_fix_quality": 4, "sensor_block_reason": null, "imu_age_s": 0.0, "speed_ratio": 1.0, "manual_speed": 0.4, "calib": {"mark": {"lat": 38.94125036, "lon": -92.31891425166667}, "offset_applied": 109.55262857151743}, "waypoints_window": [{"idx": 0, "lat": 38.94124777, "lon": -92.31884882, "current": true}, {"idx": 1, "lat": 38.9412436, "lon": -92.31878981, "current": false}, {"idx": 2, "lat": 38.94120606, "lon": -92.3187308, "current": false}, {"idx": 3, "lat": 38.94124047, "lon": -92.31867984, "current": false}, {"idx": 4, "lat": 38.94124047, "lon": -92.31856987, "current": false}, {"idx": 5, "lat": 38.94121959, "lon": -92.31852293, "current": false}, {"idx": 6, "lat": 38.94114243, "lon": -92.31852159, "current": false}], "waiting_at_wp": false, "waiting_wp_idx": null, "imu_raw": {"type": "imu_frame", "version": 1, "rot": {"qi": 0.006, "qj": 0.02, "qk": -0.413, "qr": 0.91}, "euler": {"roll": -0.32, "pitch": 2.37, "yaw": 60.76, "north_offset_deg": 109.5526}, "hz": 47.7, "heading": {"raw": 348.415, "deg": 97.967, "dir": "E"}, "ts": 3102826, "game_rot": {"qi": -0.005, "qj": 0.02, "qk": 0.101, "qr": 0.995}, "accel": {"x": -0.71, "y": 0.02, "z": 9.85}, "lin_accel": {"x": 0.11, "y": -0.08, "z": 0.41}, "gravity": {"x": -0.41, "y": -0.05, "z": 9.89}, "gyro": {"x": -0.01, "y": -0.01, "z": 0.123}, "mag": {"x": -17.0, "y": 6.6, "z": 9.9}, "steps": 0, "cal": 0}, "rtk_raw": {"type": "rtk_frame", "version": 1, "lat": 38.941246523333334, "lon": -92.31890007833333, "alt": 236.783, "fix_quality": 4, "num_sats": 17, "hdop": 1.1, "speed_knots": 0.41, "track_deg": 129.17, "rtk_ts": 1777440302.591638, "server_ts": 1777440302.7459068, "source": "rtk"}}
{"type": "autonav_status", "version": 1, "state": "running", "current_wp_idx": 0, "total_wp": 7, "heading_deg": 96.818, "target_bearing_deg": 88.2, "bearing_error_deg": -8.6, "dist_to_wp_m": 4.44, "linear": 0.0, "angular": 0.172, "gps_age_s": 0.08, "gps_packet_age_s": 0.08, "gps_fix_quality": 4, "sensor_block_reason": null, "imu_age_s": 0.02, "speed_ratio": 1.0, "manual_speed": 0.4, "calib": {"mark": {"lat": 38.94125036, "lon": -92.31891425166667}, "offset_applied": 109.55262857151743}, "waypoints_window": [{"idx": 0, "lat": 38.94124777, "lon": -92.31884882, "current": true}, {"idx": 1, "lat": 38.9412436, "lon": -92.31878981, "current": false}, {"idx": 2, "lat": 38.94120606, "lon": -92.3187308, "current": false}, {"idx": 3, "lat": 38.94124047, "lon": -92.31867984, "current": false}, {"idx": 4, "lat": 38.94124047, "lon": -92.31856987, "current": false}, {"idx": 5, "lat": 38.94121959, "lon": -92.31852293, "current": false}, {"idx": 6, "lat": 38.94114243, "lon": -92.31852159, "current": false}], "waiting_at_wp": false, "waiting_wp_idx": null, "imu_raw": {"type": "imu_frame", "version": 1, "rot": {"qi": 0.005, "qj": 0.02, "qk": -0.404, "qr": 0.915}, "euler": {"roll": -0.4, "pitch": 2.33, "yaw": 61.86, "north_offset_deg": 109.5526}, "hz": 48.1, "heading": {"raw": 347.265, "deg": 96.818, "dir": "E"}, "ts": 3103008, "game_rot": {"qi": -0.006, "qj": 0.02, "qk": 0.111, "qr": 0.994}, "accel": {"x": -1.02, "y": -0.14, "z": 9.69}, "lin_accel": {"x": -0.61, "y": -0.07, "z": -0.19}, "gravity": {"x": -0.41, "y": -0.07, "z": 9.88}, "gyro": {"x": -0.02, "y": 0.023, "z": 0.115}, "mag": {"x": -16.6, "y": 7.5, "z": 11.6}, "steps": 0, "cal": 0}, "rtk_raw": {"type": "rtk_frame", "version": 1, "lat": 38.941246523333334, "lon": -92.31890007833333, "alt": 236.783, "fix_quality": 4, "num_sats": 17, "hdop": 1.1, "speed_knots": 0.41, "track_deg": 129.17, "rtk_ts": 1777440302.591638, "server_ts": 1777440302.947087, "source": "rtk"}}
{"type": "autonav_status", "version": 1, "state": "running", "current_wp_idx": 0, "total_wp": 7, "heading_deg": 95.425, "target_bearing_deg": 88.2, "bearing_error_deg": -7.2, "dist_to_wp_m": 4.44, "linear": 0.0, "angular": 0.144, "gps_age_s": 0.08, "gps_packet_age_s": 0.08, "gps_fix_quality": 4, "sensor_block_reason": null, "imu_age_s": 0.01, "speed_ratio": 1.0, "manual_speed": 0.4, "calib": {"mark": {"lat": 38.94125036, "lon": -92.31891425166667}, "offset_applied": 109.55262857151743}, "waypoints_window": [{"idx": 0, "lat": 38.94124777, "lon": -92.31884882, "current": true}, {"idx": 1, "lat": 38.9412436, "lon": -92.31878981, "current": false}, {"idx": 2, "lat": 38.94120606, "lon": -92.3187308, "current": false}, {"idx": 3, "lat": 38.94124047, "lon": -92.31867984, "current": false}, {"idx": 4, "lat": 38.94124047, "lon": -92.31856987, "current": false}, {"idx": 5, "lat": 38.94121959, "lon": -92.31852293, "current": false}, {"idx": 6, "lat": 38.94114243, "lon": -92.31852159, "current": false}], "waiting_at_wp": false, "waiting_wp_idx": null, "imu_raw": {"type": "imu_frame", "version": 1, "rot": {"qi": 0.005, "qj": 0.02, "qk": -0.393, "qr": 0.919}, "euler": {"roll": -0.37, "pitch": 2.33, "yaw": 63.26, "north_offset_deg": 109.5526}, "hz": 47.8, "heading": {"raw": 345.872, "deg": 95.425, "dir": "E"}, "ts": 3103220, "game_rot": {"qi": -0.006, "qj": 0.02, "qk": 0.123, "qr": 0.992}, "accel": {"x": -0.71, "y": -0.64, "z": 9.89}, "lin_accel": {"x": 0.06, "y": -0.1, "z": 0.0}, "gravity": {"x": -0.43, "y": -0.07, "z": 9.88}, "gyro": {"x": 0.02, "y": 0.008, "z": 0.098}, "mag": {"x": -17.0, "y": 7.6, "z": 12.8}, "steps": 0, "cal": 0}, "rtk_raw": {"type": "rtk_frame", "version": 1, "lat": 38.941246523333334, "lon": -92.31890007833333, "alt": 236.783, "fix_quality": 4, "num_sats": 17, "hdop": 1.1, "speed_knots": 0.41, "track_deg": 129.17, "rtk_ts": 1777440302.591638, "server_ts": 1777440303.1483421, "source": "rtk"}}
{"type": "autonav_status", "version": 1, "state": "running", "current_wp_idx": 0, "total_wp": 7, "heading_deg": 94.5, "target_bearing_deg": 88.2, "bearing_error_deg": -6.3, "dist_to_wp_m": 4.44, "linear": 0.0, "angular": 0.126, "gps_age_s": 0.08, "gps_packet_age_s": 0.08, "gps_fix_quality": 4, "sensor_block_reason": null, "imu_age_s": 0.0, "speed_ratio": 1.0, "manual_speed": 0.4, "calib": {"mark": {"lat": 38.94125036, "lon": -92.31891425166667}, "offset_applied": 109.55262857151743}, "waypoints_window": [{"idx": 0, "lat": 38.94124777, "lon": -92.31884882, "current": true}, {"idx": 1, "lat": 38.9412436, "lon": -92.31878981, "current": false}, {"idx": 2, "lat": 38.94120606, "lon": -92.3187308, "current": false}, {"idx": 3, "lat": 38.94124047, "lon": -92.31867984, "current": false}, {"idx": 4, "lat": 38.94124047, "lon": -92.31856987, "current": false}, {"idx": 5, "lat": 38.94121959, "lon": -92.31852293, "current": false}, {"idx": 6, "lat": 38.94114243, "lon": -92.31852159, "current": false}], "waiting_at_wp": false, "waiting_wp_idx": null, "imu_raw": {"type": "imu_frame", "version": 1, "rot": {"qi": 0.004, "qj": 0.02, "qk": -0.386, "qr": 0.922}, "euler": {"roll": -0.46, "pitch": 2.29, "yaw": 64.13, "north_offset_deg": 109.5526}, "hz": 47.8, "heading": {"raw": 344.947, "deg": 94.5, "dir": "E"}, "ts": 3103428, "game_rot": {"qi": -0.006, "qj": 0.02, "qk": 0.131, "qr": 0.991}, "accel": {"x": -0.87, "y": -0.25, "z": 10.27}, "lin_accel": {"x": -0.41, "y": -0.16, "z": 0.38}, "gravity": {"x": -0.45, "y": -0.09, "z": 9.88}, "gyro": {"x": -0.014, "y": 0.004, "z": 0.076}, "mag": {"x": -18.4, "y": 7.1, "z": 12.8}, "steps": 0, "cal": 0}, "rtk_raw": {"type": "rtk_frame", "version": 1, "lat": 38.941246523333334, "lon": -92.31890007833333, "alt": 236.783, "fix_quality": 4, "num_sats": 17, "hdop": 1.1, "speed_knots": 0.41, "track_deg": 129.17, "rtk_ts": 1777440302.591638, "server_ts": 1777440303.349626, "source": "rtk"}}
{"type": "autonav_status", "version": 1, "state": "running", "current_wp_idx": 0, "total_wp": 7, "heading_deg": 93.691, "target_bearing_deg": 88.2, "bearing_error_deg": -5.5, "dist_to_wp_m": 4.44, "linear": 0.0, "angular": 0.11, "gps_age_s": 0.08, "gps_packet_age_s": 0.08, "gps_fix_quality": 4, "sensor_block_reason": null, "imu_age_s": 0.0, "speed_ratio": 1.0, "manual_speed": 0.4, "calib": {"mark": {"lat": 38.94125036, "lon": -92.31891425166667}, "offset_applied": 109.55262857151743}, "waypoints_window": [{"idx": 0, "lat": 38.94124777, "lon": -92.31884882, "current": true}, {"idx": 1, "lat": 38.9412436, "lon": -92.31878981, "current": false}, {"idx": 2, "lat": 38.94120606, "lon": -92.3187308, "current": false}, {"idx": 3, "lat": 38.94124047, "lon": -92.31867984, "current": false}, {"idx": 4, "lat": 38.94124047, "lon": -92.31856987, "current": false}, {"idx": 5, "lat": 38.94121959, "lon": -92.31852293, "current": false}, {"idx": 6, "lat": 38.94114243, "lon": -92.31852159, "current": false}], "waiting_at_wp": false, "waiting_wp_idx": null, "imu_raw": {"type": "imu_frame", "version": 1, "rot": {"qi": 0.004, "qj": 0.021, "qk": -0.379, "qr": 0.925}, "euler": {"roll": -0.49, "pitch": 2.4, "yaw": 64.99, "north_offset_deg": 109.5526}, "hz": 48.2, "heading": {"raw": 344.139, "deg": 93.691, "dir": "E"}, "ts": 3103629, "game_rot": {"qi": -0.007, "qj": 0.02, "qk": 0.138, "qr": 0.99}, "accel": {"x": -0.41, "y": -0.25, "z": 9.34}, "lin_accel": {"x": 0.06, "y": -0.16, "z": -0.54}, "gravity": {"x": -0.47, "y": -0.09, "z": 9.88}, "gyro": {"x": 0.012, "y": 0.01, "z": 0.057}, "mag": {"x": -16.3, "y": 7.6, "z": 12.8}, "steps": 0, "cal": 0}, "rtk_raw": {"type": "rtk_frame", "version": 1, "lat": 38.941246523333334, "lon": -92.31890007833333, "alt": 236.783, "fix_quality": 4, "num_sats": 17, "hdop": 1.1, "speed_knots": 0.41, "track_deg": 129.17, "rtk_ts": 1777440302.591638, "server_ts": 1777440303.55091, "source": "rtk"}}
{"type": "autonav_status", "version": 1, "state": "running", "current_wp_idx": 0, "total_wp": 7, "heading_deg": 92.994, "target_bearing_deg": 88.6, "bearing_error_deg": -4.4, "dist_to_wp_m": 4.36, "linear": 1.0, "angular": 0.088, "gps_age_s": 0.08, "gps_packet_age_s": 0.08, "gps_fix_quality": 4, "sensor_block_reason": null, "imu_age_s": 0.0, "speed_ratio": 1.0, "manual_speed": 0.4, "calib": {"mark": {"lat": 38.94125036, "lon": -92.31891425166667}, "offset_applied": 109.55262857151743}, "waypoints_window": [{"idx": 0, "lat": 38.94124777, "lon": -92.31884882, "current": true}, {"idx": 1, "lat": 38.9412436, "lon": -92.31878981, "current": false}, {"idx": 2, "lat": 38.94120606, "lon": -92.3187308, "current": false}, {"idx": 3, "lat": 38.94124047, "lon": -92.31867984, "current": false}, {"idx": 4, "lat": 38.94124047, "lon": -92.31856987, "current": false}, {"idx": 5, "lat": 38.94121959, "lon": -92.31852293, "current": false}, {"idx": 6, "lat": 38.94114243, "lon": -92.31852159, "current": false}], "waiting_at_wp": false, "waiting_wp_idx": null, "imu_raw": {"type": "imu_frame", "version": 1, "rot": {"qi": 0.004, "qj": 0.021, "qk": -0.374, "qr": 0.927}, "euler": {"roll": -0.48, "pitch": 2.4, "yaw": 65.61, "north_offset_deg": 109.5526}, "hz": 48.8, "heading": {"raw": 343.441, "deg": 92.994, "dir": "E"}, "ts": 3103829, "game_rot": {"qi": -0.007, "qj": 0.02, "qk": 0.144, "qr": 0.989}, "accel": {"x": -0.33, "y": 0.02, "z": 9.27}, "lin_accel": {"x": 0.15, "y": 0.12, "z": -0.61}, "gravity": {"x": -0.48, "y": -0.1, "z": 9.88}, "gyro": {"x": -0.01, "y": 0.021, "z": 0.064}, "mag": {"x": -16.4, "y": 6.8, "z": 12.3}, "steps": 0, "cal": 0}, "rtk_raw": {"type": "rtk_frame", "version": 1, "lat": 38.941246825, "lon": -92.318899205, "alt": 236.79, "fix_quality": 4, "num_sats": 17, "hdop": 1.1, "speed_knots": 0.15, "track_deg": 129.17, "rtk_ts": 1777440303.5924292, "server_ts": 1777440303.752185, "source": "rtk"}}
{"type": "autonav_status", "version": 1, "state": "running", "current_wp_idx": 0, "total_wp": 7, "heading_deg": 92.313, "target_bearing_deg": 88.6, "bearing_error_deg": -3.7, "dist_to_wp_m": 4.36, "linear": 1.0, "angular": 0.074, "gps_age_s": 0.08, "gps_packet_age_s": 0.08, "gps_fix_quality": 4, "sensor_block_reason": null, "imu_age_s": 0.02, "speed_ratio": 1.0, "manual_speed": 0.4, "calib": {"mark": {"lat": 38.94125036, "lon": -92.31891425166667}, "offset_applied": 109.55262857151743}, "waypoints_window": [{"idx": 0, "lat": 38.94124777, "lon": -92.31884882, "current": true}, {"idx": 1, "lat": 38.9412436, "lon": -92.31878981, "current": false}, {"idx": 2, "lat": 38.94120606, "lon": -92.3187308, "current": false}, {"idx": 3, "lat": 38.94124047, "lon": -92.31867984, "current": false}, {"idx": 4, "lat": 38.94124047, "lon": -92.31856987, "current": false}, {"idx": 5, "lat": 38.94121959, "lon": -92.31852293, "current": false}, {"idx": 6, "lat": 38.94114243, "lon": -92.31852159, "current": false}], "waiting_at_wp": false, "waiting_wp_idx": null, "imu_raw": {"type": "imu_frame", "version": 1, "rot": {"qi": 0.004, "qj": 0.021, "qk": -0.368, "qr": 0.929}, "euler": {"roll": -0.46, "pitch": 2.4, "yaw": 66.37, "north_offset_deg": 109.5526}, "hz": 48.5, "heading": {"raw": 342.761, "deg": 92.313, "dir": "E"}, "ts": 3104019, "game_rot": {"qi": -0.007, "qj": 0.02, "qk": 0.15, "qr": 0.989}, "accel": {"x": -0.21, "y": 0.13, "z": 9.69}, "lin_accel": {"x": 0.28, "y": -0.26, "z": 0.47}, "gravity": {"x": -0.48, "y": -0.1, "z": 9.88}, "gyro": {"x": 0.004, "y": -0.02, "z": 0.055}, "mag": {"x": -15.4, "y": 6.2, "z": 14.7}, "steps": 0, "cal": 0}, "rtk_raw": {"type": "rtk_frame", "version": 1, "lat": 38.941246825, "lon": -92.318899205, "alt": 236.79, "fix_quality": 4, "num_sats": 17, "hdop": 1.1, "speed_knots": 0.15, "track_deg": 129.17, "rtk_ts": 1777440303.5924292, "server_ts": 1777440303.9534578, "source": "rtk"}}
{"type": "autonav_status", "version": 1, "state": "running", "current_wp_idx": 0, "total_wp": 7, "heading_deg": 91.601, "target_bearing_deg": 88.6, "bearing_error_deg": -3.0, "dist_to_wp_m": 4.36, "linear": 1.0, "angular": 0.0, "gps_age_s": 0.08, "gps_packet_age_s": 0.08, "gps_fix_quality": 4, "sensor_block_reason": null, "imu_age_s": 0.01, "speed_ratio": 1.0, "manual_speed": 0.4, "calib": {"mark": {"lat": 38.94125036, "lon": -92.31891425166667}, "offset_applied": 109.55262857151743}, "waypoints_window": [{"idx": 0, "lat": 38.94124777, "lon": -92.31884882, "current": true}, {"idx": 1, "lat": 38.9412436, "lon": -92.31878981, "current": false}, {"idx": 2, "lat": 38.94120606, "lon": -92.3187308, "current": false}, {"idx": 3, "lat": 38.94124047, "lon": -92.31867984, "current": false}, {"idx": 4, "lat": 38.94124047, "lon": -92.31856987, "current": false}, {"idx": 5, "lat": 38.94121959, "lon": -92.31852293, "current": false}, {"idx": 6, "lat": 38.94114243, "lon": -92.31852159, "current": false}], "waiting_at_wp": false, "waiting_wp_idx": null, "imu_raw": {"type": "imu_frame", "version": 1, "rot": {"qi": 0.004, "qj": 0.021, "qk": -0.362, "qr": 0.932}, "euler": {"roll": -0.44, "pitch": 2.41, "yaw": 67.08, "north_offset_deg": 109.5526}, "hz": 48.6, "heading": {"raw": 342.048, "deg": 91.601, "dir": "E"}, "ts": 3104229, "game_rot": {"qi": -0.008, "qj": 0.02, "qk": 0.156, "qr": 0.987}, "accel": {"x": 0.7, "y": 0.05, "z": 10.23}, "lin_accel": {"x": 1.19, "y": 0.16, "z": 0.35}, "gravity": {"x": -0.48, "y": -0.1, "z": 9.88}, "gyro": {"x": -0.045, "y": 0.01, "z": 0.074}, "mag": {"x": -16.4, "y": 6.1, "z": 14.3}, "steps": 0, "cal": 0}, "rtk_raw": {"type": "rtk_frame", "version": 1, "lat": 38.941246825, "lon": -92.318899205, "alt": 236.79, "fix_quality": 4, "num_sats": 17, "hdop": 1.1, "speed_knots": 0.15, "track_deg": 129.17, "rtk_ts": 1777440303.5924292, "server_ts": 1777440304.1548579, "source": "rtk"}}
{"type": "autonav_status", "version": 1, "state": "running", "current_wp_idx": 0, "total_wp": 7, "heading_deg": 90.793, "target_bearing_deg": 88.6, "bearing_error_deg": -2.2, "dist_to_wp_m": 4.36, "linear": 1.0, "angular": 0.0, "gps_age_s": 0.08, "gps_packet_age_s": 0.08, "gps_fix_quality": 4, "sensor_block_reason": null, "imu_age_s": 0.01, "speed_ratio": 1.0, "manual_speed": 0.4, "calib": {"mark": {"lat": 38.94125036, "lon": -92.31891425166667}, "offset_applied": 109.55262857151743}, "waypoints_window": [{"idx": 0, "lat": 38.94124777, "lon": -92.31884882, "current": true}, {"idx": 1, "lat": 38.9412436, "lon": -92.31878981, "current": false}, {"idx": 2, "lat": 38.94120606, "lon": -92.3187308, "current": false}, {"idx": 3, "lat": 38.94124047, "lon": -92.31867984, "current": false}, {"idx": 4, "lat": 38.94124047, "lon": -92.31856987, "current": false}, {"idx": 5, "lat": 38.94121959, "lon": -92.31852293, "current": false}, {"idx": 6, "lat": 38.94114243, "lon": -92.31852159, "current": false}], "waiting_at_wp": false, "waiting_wp_idx": null, "imu_raw": {"type": "imu_frame", "version": 1, "rot": {"qi": 0.003, "qj": 0.022, "qk": -0.356, "qr": 0.934}, "euler": {"roll": -0.58, "pitch": 2.48, "yaw": 67.83, "north_offset_deg": 109.5526}, "hz": 48.9, "heading": {"raw": 341.24, "deg": 90.793, "dir": "E"}, "ts": 3104432, "game_rot": {"qi": -0.009, "qj": 0.021, "qk": 0.163, "qr": 0.986}, "accel": {"x": 0.47, "y": -0.6, "z": 10.57}, "lin_accel": {"x": 0.94, "y": -0.46, "z": 0.7}, "gravity": {"x": -0.47, "y": -0.13, "z": 9.88}, "gyro": {"x": 0.012, "y": -0.012, "z": 0.049}, "mag": {"x": -15.1, "y": 6.9, "z": 14.4}, "steps": 0, "cal": 0}, "rtk_raw": {"type": "rtk_frame", "version": 1, "lat": 38.941246825, "lon": -92.318899205, "alt": 236.79, "fix_quality": 4, "num_sats": 17, "hdop": 1.1, "speed_knots": 0.15, "track_deg": 129.17, "rtk_ts": 1777440303.5924292, "server_ts": 1777440304.355843, "source": "rtk"}}
{"type": "autonav_status", "version": 1, "state": "running", "current_wp_idx": 0, "total_wp": 7, "heading_deg": 89.977, "target_bearing_deg": 88.6, "bearing_error_deg": -1.4, "dist_to_wp_m": 4.36, "linear": 1.0, "angular": 0.0, "gps_age_s": 0.08, "gps_packet_age_s": 0.08, "gps_fix_quality": 4, "sensor_block_reason": null, "imu_age_s": 0.02, "speed_ratio": 1.0, "manual_speed": 0.4, "calib": {"mark": {"lat": 38.94125036, "lon": -92.31891425166667}, "offset_applied": 109.55262857151743}, "waypoints_window": [{"idx": 0, "lat": 38.94124777, "lon": -92.31884882, "current": true}, {"idx": 1, "lat": 38.9412436, "lon": -92.31878981, "current": false}, {"idx": 2, "lat": 38.94120606, "lon": -92.3187308, "current": false}, {"idx": 3, "lat": 38.94124047, "lon": -92.31867984, "current": false}, {"idx": 4, "lat": 38.94124047, "lon": -92.31856987, "current": false}, {"idx": 5, "lat": 38.94121959, "lon": -92.31852293, "current": false}, {"idx": 6, "lat": 38.94114243, "lon": -92.31852159, "current": false}], "waiting_at_wp": false, "waiting_wp_idx": null, "imu_raw": {"type": "imu_frame", "version": 1, "rot": {"qi": 0.005, "qj": 0.022, "qk": -0.349, "qr": 0.937}, "euler": {"roll": -0.34, "pitch": 2.56, "yaw": 68.68, "north_offset_deg": 109.5526}, "hz": 48.5, "heading": {"raw": 340.424, "deg": 89.977, "dir": "E"}, "ts": 3104618, "game_rot": {"qi": -0.007, "qj": 0.022, "qk": 0.17, "qr": 0.985}, "accel": {"x": -0.21, "y": -0.06, "z": 10.45}, "lin_accel": {"x": 0.22, "y": 0.02, "z": 0.59}, "gravity": {"x": -0.44, "y": -0.09, "z": 9.87}, "gyro": {"x": -0.031, "y": 0.01, "z": 0.107}, "mag": {"x": -15.2, "y": 8.5, "z": 14.4}, "steps": 0, "cal": 0}, "rtk_raw": {"type": "rtk_frame", "version": 1, "lat": 38.941246825, "lon": -92.318899205, "alt": 236.79, "fix_quality": 4, "num_sats": 17, "hdop": 1.1, "speed_knots": 0.15, "track_deg": 129.17, "rtk_ts": 1777440303.5924292, "server_ts": 1777440304.557181, "source": "rtk"}}
{"type": "autonav_status", "version": 1, "state": "running", "current_wp_idx": 0, "total_wp": 7, "heading_deg": 88.946, "target_bearing_deg": 89.0, "bearing_error_deg": 0.0, "dist_to_wp_m": 4.22, "linear": 1.0, "angular": 0.0, "gps_age_s": 0.08, "gps_packet_age_s": 0.08, "gps_fix_quality": 4, "sensor_block_reason": null, "imu_age_s": 0.02, "speed_ratio": 1.0, "manual_speed": 0.4, "calib": {"mark": {"lat": 38.94125036, "lon": -92.31891425166667}, "offset_applied": 109.55262857151743}, "waypoints_window": [{"idx": 0, "lat": 38.94124777, "lon": -92.31884882, "current": true}, {"idx": 1, "lat": 38.9412436, "lon": -92.31878981, "current": false}, {"idx": 2, "lat": 38.94120606, "lon": -92.3187308, "current": false}, {"idx": 3, "lat": 38.94124047, "lon": -92.31867984, "current": false}, {"idx": 4, "lat": 38.94124047, "lon": -92.31856987, "current": false}, {"idx": 5, "lat": 38.94121959, "lon": -92.31852293, "current": false}, {"idx": 6, "lat": 38.94114243, "lon": -92.31852159, "current": false}], "waiting_at_wp": false, "waiting_wp_idx": null, "imu_raw": {"type": "imu_frame", "version": 1, "rot": {"qi": 0.003, "qj": 0.023, "qk": -0.341, "qr": 0.94}, "euler": {"roll": -0.58, "pitch": 2.6, "yaw": 69.65, "north_offset_deg": 109.5526}, "hz": 48.3, "heading": {"raw": 339.393, "deg": 88.946, "dir": "E"}, "ts": 3104822, "game_rot": {"qi": -0.009, "qj": 0.022, "qk": 0.179, "qr": 0.984}, "accel": {"x": -0.45, "y": 0.05, "z": 10.73}, "lin_accel": {"x": -0.03, "y": 0.16, "z": 0.86}, "gravity": {"x": -0.41, "y": -0.1, "z": 9.87}, "gyro": {"x": 0.021, "y": 0.027, "z": 0.08}, "mag": {"x": -15.1, "y": 6.6, "z": 14.8}, "steps": 0, "cal": 0}, "rtk_raw": {"type": "rtk_frame", "version": 1, "lat": 38.941247088333334, "lon": -92.31889759666667, "alt": 236.777, "fix_quality": 4, "num_sats": 17, "hdop": 1.1, "speed_knots": 0.91, "track_deg": 129.17, "rtk_ts": 1777440304.591267, "server_ts": 1777440304.758098, "source": "rtk"}}
{"type": "autonav_status", "version": 1, "state": "running", "current_wp_idx": 0, "total_wp": 7, "heading_deg": 87.999, "target_bearing_deg": 89.0, "bearing_error_deg": 1.0, "dist_to_wp_m": 4.22, "linear": 1.0, "angular": 0.0, "gps_age_s": 0.08, "gps_packet_age_s": 0.08, "gps_fix_quality": 4, "sensor_block_reason": null, "imu_age_s": 0.01, "speed_ratio": 1.0, "manual_speed": 0.4, "calib": {"mark": {"lat": 38.94125036, "lon": -92.31891425166667}, "offset_applied": 109.55262857151743}, "waypoints_window": [{"idx": 0, "lat": 38.94124777, "lon": -92.31884882, "current": true}, {"idx": 1, "lat": 38.9412436, "lon": -92.31878981, "current": false}, {"idx": 2, "lat": 38.94120606, "lon": -92.3187308, "current": false}, {"idx": 3, "lat": 38.94124047, "lon": -92.31867984, "current": false}, {"idx": 4, "lat": 38.94124047, "lon": -92.31856987, "current": false}, {"idx": 5, "lat": 38.94121959, "lon": -92.31852293, "current": false}, {"idx": 6, "lat": 38.94114243, "lon": -92.31852159, "current": false}], "waiting_at_wp": false, "waiting_wp_idx": null, "imu_raw": {"type": "imu_frame", "version": 1, "rot": {"qi": 0.004, "qj": 0.023, "qk": -0.333, "qr": 0.943}, "euler": {"roll": -0.45, "pitch": 2.64, "yaw": 70.62, "north_offset_deg": 109.5526}, "hz": 48.4, "heading": {"raw": 338.447, "deg": 87.999, "dir": "E"}, "ts": 3105031, "game_rot": {"qi": -0.008, "qj": 0.022, "qk": 0.187, "qr": 0.982}, "accel": {"x": -0.41, "y": -0.29, "z": 10.04}, "lin_accel": {"x": -0.01, "y": -0.21, "z": 0.17}, "gravity": {"x": -0.4, "y": -0.09, "z": 9.87}, "gyro": {"x": 0.004, "y": 0.01, "z": 0.094}, "mag": {"x": -15.8, "y": 6.2, "z": 14.7}, "steps": 0, "cal": 0}, "rtk_raw": {"type": "rtk_frame", "version": 1, "lat": 38.941247088333334, "lon": -92.31889759666667, "alt": 236.777, "fix_quality": 4, "num_sats": 17, "hdop": 1.1, "speed_knots": 0.91, "track_deg": 129.17, "rtk_ts": 1777440304.591267, "server_ts": 1777440304.958914, "source": "rtk"}}
{"type": "autonav_status", "version": 1, "state": "running", "current_wp_idx": 0, "total_wp": 7, "heading_deg": 87.055, "target_bearing_deg": 89.0, "bearing_error_deg": 1.9, "dist_to_wp_m": 4.22, "linear": 1.0, "angular": 0.0, "gps_age_s": 0.08, "gps_packet_age_s": 0.08, "gps_fix_quality": 4, "sensor_block_reason": null, "imu_age_s": 0.0, "speed_ratio": 1.0, "manual_speed": 0.4, "calib": {"mark": {"lat": 38.94125036, "lon": -92.31891425166667}, "offset_applied": 109.55262857151743}, "waypoints_window": [{"idx": 0, "lat": 38.94124777, "lon": -92.31884882, "current": true}, {"idx": 1, "lat": 38.9412436, "lon": -92.31878981, "current": false}, {"idx": 2, "lat": 38.94120606, "lon": -92.3187308, "current": false}, {"idx": 3, "lat": 38.94124047, "lon": -92.31867984, "current": false}, {"idx": 4, "lat": 38.94124047, "lon": -92.31856987, "current": false}, {"idx": 5, "lat": 38.94121959, "lon": -92.31852293, "current": false}, {"idx": 6, "lat": 38.94114243, "lon": -92.31852159, "current": false}], "waiting_at_wp": false, "waiting_wp_idx": null, "imu_raw": {"type": "imu_frame", "version": 1, "rot": {"qi": 0.004, "qj": 0.023, "qk": -0.324, "qr": 0.946}, "euler": {"roll": -0.42, "pitch": 2.64, "yaw": 71.72, "north_offset_deg": 109.5526}, "hz": 48.5, "heading": {"raw": 337.502, "deg": 87.055, "dir": "E"}, "ts": 3105241, "game_rot": {"qi": -0.008, "qj": 0.022, "qk": 0.195, "qr": 0.98}, "accel": {"x": -0.91, "y": 0.05, "z": 9.65}, "lin_accel": {"x": -0.51, "y": 0.14, "z": -0.21}, "gravity": {"x": -0.4, "y": -0.09, "z": 9.87}, "gyro": {"x": 0.014, "y": -0.006, "z": 0.068}, "mag": {"x": -13.8, "y": 7.1, "z": 16.3}, "steps": 0, "cal": 0}, "rtk_raw": {"type": "rtk_frame", "version": 1, "lat": 38.941247088333334, "lon": -92.31889759666667, "alt": 236.777, "fix_quality": 4, "num_sats": 17, "hdop": 1.1, "speed_knots": 0.91, "track_deg": 129.17, "rtk_ts": 1777440304.591267, "server_ts": 1777440305.1603572, "source": "rtk"}}
{"type": "autonav_status", "version": 1, "state": "running", "current_wp_idx": 0, "total_wp": 7, "heading_deg": 86.245, "target_bearing_deg": 89.0, "bearing_error_deg": 2.7, "dist_to_wp_m": 4.22, "linear": 1.0, "angular": 0.0, "gps_age_s": 0.08, "gps_packet_age_s": 0.08, "gps_fix_quality": 4, "sensor_block_reason": null, "imu_age_s": 0.01, "speed_ratio": 1.0, "manual_speed": 0.4, "calib": {"mark": {"lat": 38.94125036, "lon": -92.31891425166667}, "offset_applied": 109.55262857151743}, "waypoints_window": [{"idx": 0, "lat": 38.94124777, "lon": -92.31884882, "current": true}, {"idx": 1, "lat": 38.9412436, "lon": -92.31878981, "current": false}, {"idx": 2, "lat": 38.94120606, "lon": -92.3187308, "current": false}, {"idx": 3, "lat": 38.94124047, "lon": -92.31867984, "current": false}, {"idx": 4, "lat": 38.94124047, "lon": -92.31856987, "current": false}, {"idx": 5, "lat": 38.94121959, "lon": -92.31852293, "current": false}, {"idx": 6, "lat": 38.94114243, "lon": -92.31852159, "current": false}], "waiting_at_wp": false, "waiting_wp_idx": null, "imu_raw": {"type": "imu_frame", "version": 1, "rot": {"qi": 0.004, "qj": 0.022, "qk": -0.318, "qr": 0.948}, "euler": {"roll": -0.37, "pitch": 2.54, "yaw": 72.45, "north_offset_deg": 109.5526}, "hz": 48.1, "heading": {"raw": 336.692, "deg": 86.245, "dir": "E"}, "ts": 3105431, "game_rot": {"qi": -0.008, "qj": 0.021, "qk": 0.202, "qr": 0.979}, "accel": {"x": -0.45, "y": -0.02, "z": 9.93}, "lin_accel": {"x": -0.05, "y": 0.06, "z": 0.05}, "gravity": {"x": -0.39, "y": -0.09, "z": 9.87}, "gyro": {"x": 0.002, "y": -0.002, "z": 0.076}, "mag": {"x": -14.4, "y": 6.4, "z": 16.7}, "steps": 0, "cal": 0}, "rtk_raw": {"type": "rtk_frame", "version": 1, "lat": 38.941247088333334, "lon": -92.31889759666667, "alt": 236.777, "fix_quality": 4, "num_sats": 17, "hdop": 1.1, "speed_knots": 0.91, "track_deg": 129.17, "rtk_ts": 1777440304.591267, "server_ts": 1777440305.361686, "source": "rtk"}}
