{"type": "autonav_status", "version": 1, "state": "idle", "current_wp_idx": 0, "total_wp": 27, "heading_deg": 1.198, "target_bearing_deg": 1.5, "bearing_error_deg": 0.3, "dist_to_wp_m": 2.15, "linear": 0.0, "angular": 0.0, "gps_age_s": 0.19, "gps_packet_age_s": 0.19, "gps_fix_quality": 5, "sensor_block_reason": null, "imu_age_s": 0.01, "speed_ratio": 1.0, "manual_speed": 0.4, "calib": {"mark": {"lat": 38.942250015, "lon": -92.31809810166666}, "offset_applied": 5.44567531067338}, "waypoints_window": [{"idx": 0, "lat": 38.94227923, "lon": -92.317609418333, "current": true}, {"idx": 1, "lat": 38.9422908988, "lon": -92.317609418333, "current": false}, {"idx": 2, "lat": 38.9423458106, "lon": -92.317609418333, "current": false}, {"idx": 3, "lat": 38.9423574794, "lon": -92.317609418333, "current": false}, {"idx": 4, "lat": 38.942412391, "lon": -92.317609418333, "current": false}, {"idx": 5, "lat": 38.94242406, "lon": -92.317609418333, "current": false}, {"idx": 6, "lat": 38.942478972, "lon": -92.317609418333, "current": false}], "waiting_at_wp": false, "waiting_wp_idx": null, "pause_mode": "type", "imu_raw": {"type": "imu_frame", "version": 1, "rot": {"qi": -0.0, "qj": 0.01, "qk": 0.492, "qr": 0.871}, "euler": {"roll": 0.56, "pitch": 1.0, "yaw": 64.41, "north_offset_deg": 5.4457}, "hz": 48.1, "heading": {"raw": 355.752, "deg": 1.198, "dir": "N"}, "ts": 1396903, "game_rot": {"qi": 0.005, "qj": 0.009, "qk": 0.037, "qr": 0.999}, "accel": {"x": -0.14, "y": 0.09, "z": 9.88}, "lin_accel": {"x": 0.04, "y": -0.0, "z": 0.0}, "gravity": {"x": -0.18, "y": 0.09, "z": 9.88}, "gyro": {"x": 0.0, "y": 0.0, "z": 0.0}, "mag": {"x": -4.3, "y": 0.1, "z": 10.2}, "steps": 0, "cal": 0}, "rtk_raw": {"type": "rtk_frame", "version": 1, "lat": 38.94225989, "lon": -92.31761005166666, "alt": 230.089, "fix_quality": 5, "num_sats": 15, "hdop": 0.9, "speed_knots": 0.08, "track_deg": 179.31, "rtk_ts": 1777770297.663276, "server_ts": 1777770298.448074, "source": "rtk"}}
{"type": "autonav_status", "version": 1, "state": "idle", "current_wp_idx": 0, "total_wp": 27, "heading_deg": 1.198, "target_bearing_deg": 1.6, "bearing_error_deg": 0.4, "dist_to_wp_m": 2.15, "linear": 0.0, "angular": 0.0, "gps_age_s": 0.19, "gps_packet_age_s": 0.19, "gps_fix_quality": 5, "sensor_block_reason": null, "imu_age_s": 0.02, "speed_ratio": 1.0, "manual_speed": 0.4, "calib": {"mark": {"lat": 38.942250015, "lon": -92.31809810166666}, "offset_applied": 5.44567531067338}, "waypoints_window": [{"idx": 0, "lat": 38.94227923, "lon": -92.317609418333, "current": true}, {"idx": 1, "lat": 38.9422908988, "lon": -92.317609418333, "current": false}, {"idx": 2, "lat": 38.9423458106, "lon": -92.317609418333, "current": false}, {"idx": 3, "lat": 38.9423574794, "lon": -92.317609418333, "current": false}, {"idx": 4, "lat": 38.942412391, "lon": -92.317609418333, "current": false}, {"idx": 5, "lat": 38.94242406, "lon": -92.317609418333, "current": false}, {"idx": 6, "lat": 38.942478972, "lon": -92.317609418333, "current": false}], "waiting_at_wp": false, "waiting_wp_idx": null, "pause_mode": "type", "imu_raw": {"type": "imu_frame", "version": 1, "rot": {"qi": -0.0, "qj": 0.01, "qk": 0.492, "qr": 0.871}, "euler": {"roll": 0.56, "pitch": 1.0, "yaw": 64.41, "north_offset_deg": 5.4457}, "hz": 48.1, "heading": {"raw": 355.752, "deg": 1.198, "dir": "N"}, "ts": 1397092, "game_rot": {"qi": 0.005, "qj": 0.009, "qk": 0.037, "qr": 0.999}, "accel": {"x": -0.14, "y": 0.09, "z": 9.93}, "lin_accel": {"x": 0.04, "y": -0.0, "z": 0.04}, "gravity": {"x": -0.18, "y": 0.09, "z": 9.88}, "gyro": {"x": 0.0, "y": 0.0, "z": 0.0}, "mag": {"x": -4.1, "y": -1.0, "z": 9.7}, "steps": 0, "cal": 0}, "rtk_raw": {"type": "rtk_frame", "version": 1, "lat": 38.94225989833333, "lon": -92.31761009166667, "alt": 230.088, "fix_quality": 5, "num_sats": 14, "hdop": 0.9, "speed_knots": 0.07, "track_deg": 179.31, "rtk_ts": 1777770298.624511, "server_ts": 1777770298.6482391, "source": "rtk"}}
{"type": "autonav_status", "version": 1, "state": "idle", "current_wp_idx": 0, "total_wp": 27, "heading_deg": 1.198, "target_bearing_deg": 1.6, "bearing_error_deg": 0.4, "dist_to_wp_m": 2.15, "linear": 0.0, "angular": 0.0, "gps_age_s": 0.19, "gps_packet_age_s": 0.19, "gps_fix_quality": 5, "sensor_block_reason": null, "imu_age_s": 0.01, "speed_ratio": 1.0, "manual_speed": 0.4, "calib": {"mark": {"lat": 38.942250015, "lon": -92.31809810166666}, "offset_applied": 5.44567531067338}, "waypoints_window": [{"idx": 0, "lat": 38.94227923, "lon": -92.317609418333, "current": true}, {"idx": 1, "lat": 38.9422908988, "lon": -92.317609418333, "current": false}, {"idx": 2, "lat": 38.9423458106, "lon": -92.317609418333, "current": false}, {"idx": 3, "lat": 38.9423574794, "lon": -92.317609418333, "current": false}, {"idx": 4, "lat": 38.942412391, "lon": -92.317609418333, "current": false}, {"idx": 5, "lat": 38.94242406, "lon": -92.317609418333, "current": false}, {"idx": 6, "lat": 38.942478972, "lon": -92.317609418333, "current": false}], "waiting_at_wp": false, "waiting_wp_idx": null, "pause_mode": "type", "imu_raw": {"type": "imu_frame", "version": 1, "rot": {"qi": -0.0, "qj": 0.01, "qk": 0.492, "qr": 0.871}, "euler": {"roll": 0.56, "pitch": 1.0, "yaw": 64.41, "north_offset_deg": 5.4457}, "hz": 48.0, "heading": {"raw": 355.752, "deg": 1.198, "dir": "N"}, "ts": 1397302, "game_rot": {"qi": 0.005, "qj": 0.009, "qk": 0.037, "qr": 0.999}, "accel": {"x": -0.18, "y": 0.09, "z": 9.89}, "lin_accel": {"x": 0.0, "y": -0.01, "z": -0.01}, "gravity": {"x": -0.18, "y": 0.1, "z": 9.89}, "gyro": {"x": 0.0, "y": 0.0, "z": 0.0}, "mag": {"x": -3.8, "y": -1.4, "z": 10.1}, "steps": 0, "cal": 0}, "rtk_raw": {"type": "rtk_frame", "version": 1, "lat": 38.94225989833333, "lon": -92.31761009166667, "alt": 230.088, "fix_quality": 5, "num_sats": 14, "hdop": 0.9, "speed_knots": 0.07, "track_deg": 179.31, "rtk_ts": 1777770298.624511, "server_ts": 1777770298.8484402, "source": "rtk"}}
{"type": "autonav_status", "version": 1, "state": "idle", "current_wp_idx": 0, "total_wp": 27, "heading_deg": 1.198, "target_bearing_deg": 1.6, "bearing_error_deg": 0.4, "dist_to_wp_m": 2.15, "linear": 0.0, "angular": 0.0, "gps_age_s": 0.19, "gps_packet_age_s": 0.19, "gps_fix_quality": 5, "sensor_block_reason": null, "imu_age_s": 0.01, "speed_ratio": 1.0, "manual_speed": 0.4, "calib": {"mark": {"lat": 38.942250015, "lon": -92.31809810166666}, "offset_applied": 5.44567531067338}, "waypoints_window": [{"idx": 0, "lat": 38.94227923, "lon": -92.317609418333, "current": true}, {"idx": 1, "lat": 38.9422908988, "lon": -92.317609418333, "current": false}, {"idx": 2, "lat": 38.9423458106, "lon": -92.317609418333, "current": false}, {"idx": 3, "lat": 38.9423574794, "lon": -92.317609418333, "current": false}, {"idx": 4, "lat": 38.942412391, "lon": -92.317609418333, "current": false}, {"idx": 5, "lat": 38.94242406, "lon": -92.317609418333, "current": false}, {"idx": 6, "lat": 38.942478972, "lon": -92.317609418333, "current": false}], "waiting_at_wp": false, "waiting_wp_idx": null, "pause_mode": "type", "imu_raw": {"type": "imu_frame", "version": 1, "rot": {"qi": -0.0, "qj": 0.01, "qk": 0.492, "qr": 0.871}, "euler": {"roll": 0.56, "pitch": 1.0, "yaw": 64.41, "north_offset_deg": 5.4457}, "hz": 48.3, "heading": {"raw": 355.752, "deg": 1.198, "dir": "N"}, "ts": 1397504, "game_rot": {"qi": 0.005, "qj": 0.009, "qk": 0.037, "qr": 0.999}, "accel": {"x": -0.18, "y": 0.09, "z": 9.89}, "lin_accel": {"x": 0.0, "y": -0.01, "z": -0.01}, "gravity": {"x": -0.18, "y": 0.1, "z": 9.89}, "gyro": {"x": 0.0, "y": 0.0, "z": 0.0}, "mag": {"x": -3.4, "y": -1.0, "z": 9.8}, "steps": 0, "cal": 0}, "rtk_raw": {"type": "rtk_frame", "version": 1, "lat": 38.94225989833333, "lon": -92.31761009166667, "alt": 230.088, "fix_quality": 5, "num_sats": 14, "hdop": 0.9, "speed_knots": 0.07, "track_deg": 179.31, "rtk_ts": 1777770298.624511, "server_ts": 1777770299.049525, "source": "rtk"}}
{"type": "autonav_status", "version": 1, "state": "idle", "current_wp_idx": 0, "total_wp": 27, "heading_deg": 1.198, "target_bearing_deg": 1.6, "bearing_error_deg": 0.4, "dist_to_wp_m": 2.15, "linear": 0.0, "angular": 0.0, "gps_age_s": 0.19, "gps_packet_age_s": 0.19, "gps_fix_quality": 5, "sensor_block_reason": null, "imu_age_s": 0.0, "speed_ratio": 1.0, "manual_speed": 0.4, "calib": {"mark": {"lat": 38.942250015, "lon": -92.31809810166666}, "offset_applied": 5.44567531067338}, "waypoints_window": [{"idx": 0, "lat": 38.94227923, "lon": -92.317609418333, "current": true}, {"idx": 1, "lat": 38.9422908988, "lon": -92.317609418333, "current": false}, {"idx": 2, "lat": 38.9423458106, "lon": -92.317609418333, "current": false}, {"idx": 3, "lat": 38.9423574794, "lon": -92.317609418333, "current": false}, {"idx": 4, "lat": 38.942412391, "lon": -92.317609418333, "current": false}, {"idx": 5, "lat": 38.94242406, "lon": -92.317609418333, "current": false}, {"idx": 6, "lat": 38.942478972, "lon": -92.317609418333, "current": false}], "waiting_at_wp": false, "waiting_wp_idx": null, "pause_mode": "type", "imu_raw": {"type": "imu_frame", "version": 1, "rot": {"qi": -0.0, "qj": 0.01, "qk": 0.492, "qr": 0.871}, "euler": {"roll": 0.56, "pitch": 1.0, "yaw": 64.41, "north_offset_deg": 5.4457}, "hz": 48.2, "heading": {"raw": 355.752, "deg": 1.198, "dir": "N"}, "ts": 1397713, "game_rot": {"qi": 0.005, "qj": 0.009, "qk": 0.037, "qr": 0.999}, "accel": {"x": -0.18, "y": 0.09, "z": 9.85}, "lin_accel": {"x": 0.0, "y": -0.01, "z": -0.04}, "gravity": {"x": -0.18, "y": 0.1, "z": 9.88}, "gyro": {"x": 0.0, "y": 0.0, "z": 0.0}, "mag": {"x": -3.1, "y": -1.3, "z": 9.7}, "steps": 0, "cal": 0}, "rtk_raw": {"type": "rtk_frame", "version": 1, "lat": 38.94225989833333, "lon": -92.31761009166667, "alt": 230.088, "fix_quality": 5, "num_sats": 14, "hdop": 0.9, "speed_knots": 0.07, "track_deg": 179.31, "rtk_ts": 1777770298.624511, "server_ts": 1777770299.2496798, "source": "rtk"}}
{"type": "autonav_status", "version": 1, "state": "idle", "current_wp_idx": 0, "total_wp": 27, "heading_deg": 1.198, "target_bearing_deg": 1.6, "bearing_error_deg": 0.4, "dist_to_wp_m": 2.15, "linear": 0.0, "angular": 0.0, "gps_age_s": 0.19, "gps_packet_age_s": 0.19, "gps_fix_quality": 5, "sensor_block_reason": null, "imu_age_s": 0.02, "speed_ratio": 1.0, "manual_speed": 0.4, "calib": {"mark": {"lat": 38.942250015, "lon": -92.31809810166666}, "offset_applied": 5.44567531067338}, "waypoints_window": [{"idx": 0, "lat": 38.94227923, "lon": -92.317609418333, "current": true}, {"idx": 1, "lat": 38.9422908988, "lon": -92.317609418333, "current": false}, {"idx": 2, "lat": 38.9423458106, "lon": -92.317609418333, "current": false}, {"idx": 3, "lat": 38.9423574794, "lon": -92.317609418333, "current": false}, {"idx": 4, "lat": 38.942412391, "lon": -92.317609418333, "current": false}, {"idx": 5, "lat": 38.94242406, "lon": -92.317609418333, "current": false}, {"idx": 6, "lat": 38.942478972, "lon": -92.317609418333, "current": false}], "waiting_at_wp": false, "waiting_wp_idx": null, "pause_mode": "type", "imu_raw": {"type": "imu_frame", "version": 1, "rot": {"qi": -0.0, "qj": 0.01, "qk": 0.492, "qr": 0.871}, "euler": {"roll": 0.56, "pitch": 1.0, "yaw": 64.41, "north_offset_deg": 5.4457}, "hz": 48.3, "heading": {"raw": 355.752, "deg": 1.198, "dir": "N"}, "ts": 1397898, "game_rot": {"qi": 0.005, "qj": 0.009, "qk": 0.037, "qr": 0.999}, "accel": {"x": -0.18, "y": 0.09, "z": 9.89}, "lin_accel": {"x": 0.0, "y": -0.0, "z": 0.0}, "gravity": {"x": -0.18, "y": 0.09, "z": 9.88}, "gyro": {"x": 0.0, "y": 0.0, "z": 0.0}, "mag": {"x": -3.4, "y": -2.1, "z": 9.2}, "steps": 0, "cal": 0}, "rtk_raw": {"type": "rtk_frame", "version": 1, "lat": 38.94225989833333, "lon": -92.31761009166667, "alt": 230.088, "fix_quality": 5, "num_sats": 14, "hdop": 0.9, "speed_knots": 0.07, "track_deg": 179.31, "rtk_ts": 1777770298.624511, "server_ts": 1777770299.450766, "source": "rtk"}}
{"type": "autonav_status", "version": 1, "state": "idle", "current_wp_idx": 0, "total_wp": 27, "heading_deg": 1.198, "target_bearing_deg": 1.6, "bearing_error_deg": 0.4, "dist_to_wp_m": 2.15, "linear": 0.0, "angular": 0.0, "gps_age_s": 0.19, "gps_packet_age_s": 0.19, "gps_fix_quality": 5, "sensor_block_reason": null, "imu_age_s": 0.0, "speed_ratio": 1.0, "manual_speed": 0.4, "calib": {"mark": {"lat": 38.942250015, "lon": -92.31809810166666}, "offset_applied": 5.44567531067338}, "waypoints_window": [{"idx": 0, "lat": 38.94227923, "lon": -92.317609418333, "current": true}, {"idx": 1, "lat": 38.9422908988, "lon": -92.317609418333, "current": false}, {"idx": 2, "lat": 38.9423458106, "lon": -92.317609418333, "current": false}, {"idx": 3, "lat": 38.9423574794, "lon": -92.317609418333, "current": false}, {"idx": 4, "lat": 38.942412391, "lon": -92.317609418333, "current": false}, {"idx": 5, "lat": 38.94242406, "lon": -92.317609418333, "current": false}, {"idx": 6, "lat": 38.942478972, "lon": -92.317609418333, "current": false}], "waiting_at_wp": false, "waiting_wp_idx": null, "pause_mode": "type", "imu_raw": {"type": "imu_frame", "version": 1, "rot": {"qi": -0.0, "qj": 0.01, "qk": 0.492, "qr": 0.871}, "euler": {"roll": 0.56, "pitch": 1.0, "yaw": 64.41, "north_offset_deg": 5.4457}, "hz": 48.0, "heading": {"raw": 355.752, "deg": 1.198, "dir": "N"}, "ts": 1398112, "game_rot": {"qi": 0.005, "qj": 0.009, "qk": 0.037, "qr": 0.999}, "accel": {"x": -0.21, "y": 0.09, "z": 9.88}, "lin_accel": {"x": 0.0, "y": -0.0, "z": 0.0}, "gravity": {"x": -0.18, "y": 0.09, "z": 9.88}, "gyro": {"x": 0.0, "y": 0.0, "z": 0.0}, "mag": {"x": -4.1, "y": -1.0, "z": 10.2}, "steps": 0, "cal": 0}, "rtk_raw": {"type": "rtk_frame", "version": 1, "lat": 38.94225989833333, "lon": -92.31761009166667, "alt": 230.088, "fix_quality": 5, "num_sats": 14, "hdop": 0.9, "speed_knots": 0.07, "track_deg": 179.31, "rtk_ts": 1777770298.624511, "server_ts": 1777770299.65186, "source": "rtk"}}
{"type": "autonav_status", "version": 1, "state": "idle", "current_wp_idx": 0, "total_wp": 27, "heading_deg": 1.198, "target_bearing_deg": 1.6, "bearing_error_deg": 0.4, "dist_to_wp_m": 2.15, "linear": 0.0, "angular": 0.0, "gps_age_s": 0.19, "gps_packet_age_s": 0.19, "gps_fix_quality": 5, "sensor_block_reason": null, "imu_age_s": 0.01, "speed_ratio": 1.0, "manual_speed": 0.4, "calib": {"mark": {"lat": 38.942250015, "lon": -92.31809810166666}, "offset_applied": 5.44567531067338}, "waypoints_window": [{"idx": 0, "lat": 38.94227923, "lon": -92.317609418333, "current": true}, {"idx": 1, "lat": 38.9422908988, "lon": -92.317609418333, "current": false}, {"idx": 2, "lat": 38.9423458106, "lon": -92.317609418333, "current": false}, {"idx": 3, "lat": 38.9423574794, "lon": -92.317609418333, "current": false}, {"idx": 4, "lat": 38.942412391, "lon": -92.317609418333, "current": false}, {"idx": 5, "lat": 38.94242406, "lon": -92.317609418333, "current": false}, {"idx": 6, "lat": 38.942478972, "lon": -92.317609418333, "current": false}], "waiting_at_wp": false, "waiting_wp_idx": null, "pause_mode": "type", "imu_raw": {"type": "imu_frame", "version": 1, "rot": {"qi": -0.0, "qj": 0.01, "qk": 0.492, "qr": 0.871}, "euler": {"roll": 0.56, "pitch": 1.0, "yaw": 64.41, "north_offset_deg": 5.4457}, "hz": 47.9, "heading": {"raw": 355.752, "deg": 1.198, "dir": "N"}, "ts": 1398302, "game_rot": {"qi": 0.005, "qj": 0.009, "qk": 0.037, "qr": 0.999}, "accel": {"x": -0.18, "y": 0.09, "z": 9.89}, "lin_accel": {"x": 0.0, "y": -0.01, "z": 0.0}, "gravity": {"x": -0.18, "y": 0.1, "z": 9.88}, "gyro": {"x": 0.0, "y": 0.0, "z": 0.0}, "mag": {"x": -4.1, "y": -2.1, "z": 10.1}, "steps": 0, "cal": 0}, "rtk_raw": {"type": "rtk_frame", "version": 1, "lat": 38.94225990666666, "lon": -92.31761009333333, "alt": 230.082, "fix_quality": 5, "num_sats": 14, "hdop": 0.9, "speed_knots": 0.02, "track_deg": 179.31, "rtk_ts": 1777770299.664799, "server_ts": 1777770299.852961, "source": "rtk"}}
{"type": "autonav_status", "version": 1, "state": "idle", "current_wp_idx": 0, "total_wp": 27, "heading_deg": 1.198, "target_bearing_deg": 1.6, "bearing_error_deg": 0.4, "dist_to_wp_m": 2.15, "linear": 0.0, "angular": 0.0, "gps_age_s": 0.19, "gps_packet_age_s": 0.19, "gps_fix_quality": 5, "sensor_block_reason": null, "imu_age_s": 0.0, "speed_ratio": 1.0, "manual_speed": 0.4, "calib": {"mark": {"lat": 38.942250015, "lon": -92.31809810166666}, "offset_applied": 5.44567531067338}, "waypoints_window": [{"idx": 0, "lat": 38.94227923, "lon": -92.317609418333, "current": true}, {"idx": 1, "lat": 38.9422908988, "lon": -92.317609418333, "current": false}, {"idx": 2, "lat": 38.9423458106, "lon": -92.317609418333, "current": false}, {"idx": 3, "lat": 38.9423574794, "lon": -92.317609418333, "current": false}, {"idx": 4, "lat": 38.942412391, "lon": -92.317609418333, "current": false}, {"idx": 5, "lat": 38.94242406, "lon": -92.317609418333, "current": false}, {"idx": 6, "lat": 38.942478972, "lon": -92.317609418333, "current": false}], "waiting_at_wp": false, "waiting_wp_idx": null, "pause_mode": "type", "imu_raw": {"type": "imu_frame", "version": 1, "rot": {"qi": -0.0, "qj": 0.01, "qk": 0.492, "qr": 0.871}, "euler": {"roll": 0.56, "pitch": 1.0, "yaw": 64.41, "north_offset_deg": 5.4457}, "hz": 47.4, "heading": {"raw": 355.752, "deg": 1.198, "dir": "N"}, "ts": 1398517, "game_rot": {"qi": 0.005, "qj": 0.009, "qk": 0.037, "qr": 0.999}, "accel": {"x": -0.18, "y": 0.13, "z": 9.85}, "lin_accel": {"x": 0.0, "y": 0.03, "z": -0.04}, "gravity": {"x": -0.18, "y": 0.1, "z": 9.88}, "gyro": {"x": 0.0, "y": 0.0, "z": 0.0}, "mag": {"x": -3.7, "y": -0.9, "z": 10.1}, "steps": 0, "cal": 0}, "rtk_raw": {"type": "rtk_frame", "version": 1, "lat": 38.94225990666666, "lon": -92.31761009333333, "alt": 230.082, "fix_quality": 5, "num_sats": 14, "hdop": 0.9, "speed_knots": 0.02, "track_deg": 179.31, "rtk_ts": 1777770299.664799, "server_ts": 1777770300.054053, "source": "rtk"}}
{"type": "autonav_status", "version": 1, "state": "idle", "current_wp_idx": 0, "total_wp": 27, "heading_deg": 1.198, "target_bearing_deg": 1.6, "bearing_error_deg": 0.4, "dist_to_wp_m": 2.15, "linear": 0.0, "angular": 0.0, "gps_age_s": 0.19, "gps_packet_age_s": 0.19, "gps_fix_quality": 5, "sensor_block_reason": null, "imu_age_s": 0.01, "speed_ratio": 1.0, "manual_speed": 0.4, "calib": {"mark": {"lat": 38.942250015, "lon": -92.31809810166666}, "offset_applied": 5.44567531067338}, "waypoints_window": [{"idx": 0, "lat": 38.94227923, "lon": -92.317609418333, "current": true}, {"idx": 1, "lat": 38.9422908988, "lon": -92.317609418333, "current": false}, {"idx": 2, "lat": 38.9423458106, "lon": -92.317609418333, "current": false}, {"idx": 3, "lat": 38.9423574794, "lon": -92.317609418333, "current": false}, {"idx": 4, "lat": 38.942412391, "lon": -92.317609418333, "current": false}, {"idx": 5, "lat": 38.94242406, "lon": -92.317609418333, "current": false}, {"idx": 6, "lat": 38.942478972, "lon": -92.317609418333, "current": false}], "waiting_at_wp": false, "waiting_wp_idx": null, "pause_mode": "type", "imu_raw": {"type": "imu_frame", "version": 1, "rot": {"qi": -0.0, "qj": 0.01, "qk": 0.492, "qr": 0.871}, "euler": {"roll": 0.56, "pitch": 1.0, "yaw": 64.41, "north_offset_deg": 5.4457}, "hz": 47.1, "heading": {"raw": 355.752, "deg": 1.198, "dir": "N"}, "ts": 1398708, "game_rot": {"qi": 0.005, "qj": 0.009, "qk": 0.037, "qr": 0.999}, "accel": {"x": -0.18, "y": 0.13, "z": 9.89}, "lin_accel": {"x": 0.0, "y": 0.03, "z": 0.0}, "gravity": {"x": -0.18, "y": 0.1, "z": 9.88}, "gyro": {"x": 0.0, "y": 0.0, "z": 0.0}, "mag": {"x": -3.8, "y": -2.1, "z": 10.1}, "steps": 0, "cal": 0}, "rtk_raw": {"type": "rtk_frame", "version": 1, "lat": 38.94225990666666, "lon": -92.31761009333333, "alt": 230.082, "fix_quality": 5, "num_sats": 14, "hdop": 0.9, "speed_knots": 0.02, "track_deg": 179.31, "rtk_ts": 1777770299.664799, "server_ts": 1777770300.255135, "source": "rtk"}}
{"type": "autonav_status", "version": 1, "state": "idle", "current_wp_idx": 0, "total_wp": 27, "heading_deg": 1.198, "target_bearing_deg": 1.6, "bearing_error_deg": 0.4, "dist_to_wp_m": 2.15, "linear": 0.0, "angular": 0.0, "gps_age_s": 0.19, "gps_packet_age_s": 0.19, "gps_fix_quality": 5, "sensor_block_reason": null, "imu_age_s": 0.01, "speed_ratio": 1.0, "manual_speed": 0.4, "calib": {"mark": {"lat": 38.942250015, "lon": -92.31809810166666}, "offset_applied": 5.44567531067338}, "waypoints_window": [{"idx": 0, "lat": 38.94227923, "lon": -92.317609418333, "current": true}, {"idx": 1, "lat": 38.9422908988, "lon": -92.317609418333, "current": false}, {"idx": 2, "lat": 38.9423458106, "lon": -92.317609418333, "current": false}, {"idx": 3, "lat": 38.9423574794, "lon": -92.317609418333, "current": false}, {"idx": 4, "lat": 38.942412391, "lon": -92.317609418333, "current": false}, {"idx": 5, "lat": 38.94242406, "lon": -92.317609418333, "current": false}, {"idx": 6, "lat": 38.942478972, "lon": -92.317609418333, "current": false}], "waiting_at_wp": false, "waiting_wp_idx": null, "pause_mode": "type", "imu_raw": {"type": "imu_frame", "version": 1, "rot": {"qi": -0.0, "qj": 0.01, "qk": 0.492, "qr": 0.871}, "euler": {"roll": 0.56, "pitch": 1.0, "yaw": 64.41, "north_offset_deg": 5.4457}, "hz": 46.8, "heading": {"raw": 355.752, "deg": 1.198, "dir": "N"}, "ts": 1398904, "game_rot": {"qi": 0.005, "qj": 0.009, "qk": 0.037, "qr": 0.999}, "accel": {"x": -0.18, "y": 0.09, "z": 9.85}, "lin_accel": {"x": 0.0, "y": -0.01, "z": 0.04}, "gravity": {"x": -0.18, "y": 0.1, "z": 9.88}, "gyro": {"x": 0.0, "y": 0.0, "z": 0.0}, "mag": {"x": -2.7, "y": -0.5, "z": 10.9}, "steps": 0, "cal": 0}, "rtk_raw": {"type": "rtk_frame", "version": 1, "lat": 38.94225990666666, "lon": -92.31761009333333, "alt": 230.082, "fix_quality": 5, "num_sats": 14, "hdop": 0.9, "speed_knots": 0.02, "track_deg": 179.31, "rtk_ts": 1777770299.664799, "server_ts": 1777770300.4553118, "source": "rtk"}}
{"type": "autonav_status", "version": 1, "state": "idle", "current_wp_idx": 0, "total_wp": 27, "heading_deg": 1.198, "target_bearing_deg": 1.6, "bearing_error_deg": 0.4, "dist_to_wp_m": 2.15, "linear": 0.0, "angular": 0.0, "gps_age_s": 0.19, "gps_packet_age_s": 0.19, "gps_fix_quality": 5, "sensor_block_reason": null, "imu_age_s": 0.01, "speed_ratio": 1.0, "manual_speed": 0.4, "calib": {"mark": {"lat": 38.942250015, "lon": -92.31809810166666}, "offset_applied": 5.44567531067338}, "waypoints_window": [{"idx": 0, "lat": 38.94227923, "lon": -92.317609418333, "current": true}, {"idx": 1, "lat": 38.9422908988, "lon": -92.317609418333, "current": false}, {"idx": 2, "lat": 38.9423458106, "lon": -92.317609418333, "current": false}, {"idx": 3, "lat": 38.9423574794, "lon": -92.317609418333, "current": false}, {"idx": 4, "lat": 38.942412391, "lon": -92.317609418333, "current": false}, {"idx": 5, "lat": 38.94242406, "lon": -92.317609418333, "current": false}, {"idx": 6, "lat": 38.942478972, "lon": -92.317609418333, "current": false}], "waiting_at_wp": false, "waiting_wp_idx": null, "pause_mode": "type", "imu_raw": {"type": "imu_frame", "version": 1, "rot": {"qi": -0.0, "qj": 0.01, "qk": 0.492, "qr": 0.871}, "euler": {"roll": 0.56, "pitch": 1.0, "yaw": 64.41, "north_offset_deg": 5.4457}, "hz": 47.1, "heading": {"raw": 355.752, "deg": 1.198, "dir": "N"}, "ts": 1399107, "game_rot": {"qi": 0.005, "qj": 0.009, "qk": 0.037, "qr": 0.999}, "accel": {"x": -0.18, "y": 0.09, "z": 9.89}, "lin_accel": {"x": 0.0, "y": -0.0, "z": -0.01}, "gravity": {"x": -0.18, "y": 0.09, "z": 9.89}, "gyro": {"x": 0.0, "y": 0.0, "z": 0.0}, "mag": {"x": -3.0, "y": -1.4, "z": 8.1}, "steps": 0, "cal": 0}, "rtk_raw": {"type": "rtk_frame", "version": 1, "lat": 38.942259915, "lon": -92.31761011666667, "alt": 230.083, "fix_quality": 5, "num_sats": 15, "hdop": 0.9, "speed_knots": 0.04, "track_deg": 179.31, "rtk_ts": 1777770300.654997, "server_ts": 1777770300.6554701, "source": "rtk"}}
{"type": "autonav_status", "version": 1, "state": "idle", "current_wp_idx": 0, "total_wp": 27, "heading_deg": 1.198, "target_bearing_deg": 1.6, "bearing_error_deg": 0.4, "dist_to_wp_m": 2.15, "linear": 0.0, "angular": 0.0, "gps_age_s": 0.19, "gps_packet_age_s": 0.19, "gps_fix_quality": 5, "sensor_block_reason": null, "imu_age_s": 0.0, "speed_ratio": 1.0, "manual_speed": 0.4, "calib": {"mark": {"lat": 38.942250015, "lon": -92.31809810166666}, "offset_applied": 5.44567531067338}, "waypoints_window": [{"idx": 0, "lat": 38.94227923, "lon": -92.317609418333, "current": true}, {"idx": 1, "lat": 38.9422908988, "lon": -92.317609418333, "current": false}, {"idx": 2, "lat": 38.9423458106, "lon": -92.317609418333, "current": false}, {"idx": 3, "lat": 38.9423574794, "lon": -92.317609418333, "current": false}, {"idx": 4, "lat": 38.942412391, "lon": -92.317609418333, "current": false}, {"idx": 5, "lat": 38.94242406, "lon": -92.317609418333, "current": false}, {"idx": 6, "lat": 38.942478972, "lon": -92.317609418333, "current": false}], "waiting_at_wp": false, "waiting_wp_idx": null, "pause_mode": "type", "imu_raw": {"type": "imu_frame", "version": 1, "rot": {"qi": -0.0, "qj": 0.01, "qk": 0.492, "qr": 0.871}, "euler": {"roll": 0.56, "pitch": 1.0, "yaw": 64.41, "north_offset_deg": 5.4457}, "hz": 47.2, "heading": {"raw": 355.752, "deg": 1.198, "dir": "N"}, "ts": 1399315, "game_rot": {"qi": 0.005, "qj": 0.009, "qk": 0.037, "qr": 0.999}, "accel": {"x": -0.18, "y": 0.09, "z": 9.89}, "lin_accel": {"x": 0.0, "y": -0.0, "z": 0.0}, "gravity": {"x": -0.18, "y": 0.09, "z": 9.88}, "gyro": {"x": 0.0, "y": 0.0, "z": 0.0}, "mag": {"x": -3.8, "y": -1.8, "z": 9.2}, "steps": 0, "cal": 0}, "rtk_raw": {"type": "rtk_frame", "version": 1, "lat": 38.942259915, "lon": -92.31761011666667, "alt": 230.083, "fix_quality": 5, "num_sats": 15, "hdop": 0.9, "speed_knots": 0.04, "track_deg": 179.31, "rtk_ts": 1777770300.654997, "server_ts": 1777770300.8564868, "source": "rtk"}}
{"type": "autonav_status", "version": 1, "state": "idle", "current_wp_idx": 0, "total_wp": 27, "heading_deg": 1.198, "target_bearing_deg": 1.6, "bearing_error_deg": 0.4, "dist_to_wp_m": 2.15, "linear": 0.0, "angular": 0.0, "gps_age_s": 0.19, "gps_packet_age_s": 0.19, "gps_fix_quality": 5, "sensor_block_reason": null, "imu_age_s": 0.0, "speed_ratio": 1.0, "manual_speed": 0.4, "calib": {"mark": {"lat": 38.942250015, "lon": -92.31809810166666}, "offset_applied": 5.44567531067338}, "waypoints_window": [{"idx": 0, "lat": 38.94227923, "lon": -92.317609418333, "current": true}, {"idx": 1, "lat": 38.9422908988, "lon": -92.317609418333, "current": false}, {"idx": 2, "lat": 38.9423458106, "lon": -92.317609418333, "current": false}, {"idx": 3, "lat": 38.9423574794, "lon": -92.317609418333, "current": false}, {"idx": 4, "lat": 38.942412391, "lon": -92.317609418333, "current": false}, {"idx": 5, "lat": 38.94242406, "lon": -92.317609418333, "current": false}, {"idx": 6, "lat": 38.942478972, "lon": -92.317609418333, "current": false}], "waiting_at_wp": false, "waiting_wp_idx": null, "pause_mode": "type", "imu_raw": {"type": "imu_frame", "version": 1, "rot": {"qi": -0.0, "qj": 0.01, "qk": 0.492, "qr": 0.871}, "euler": {"roll": 0.56, "pitch": 1.0, "yaw": 64.41, "north_offset_deg": 5.4457}, "hz": 48.1, "heading": {"raw": 355.752, "deg": 1.198, "dir": "N"}, "ts": 1399516, "game_rot": {"qi": 0.005, "qj": 0.009, "qk": 0.037, "qr": 0.999}, "accel": {"x": -0.18, "y": 0.09, "z": 9.89}, "lin_accel": {"x": 0.0, "y": -0.0, "z": 0.0}, "gravity": {"x": -0.18, "y": 0.09, "z": 9.88}, "gyro": {"x": 0.0, "y": 0.0, "z": 0.0}, "mag": {"x": -2.7, "y": -0.9, "z": 9.8}, "steps": 0, "cal": 0}, "rtk_raw": {"type": "rtk_frame", "version": 1, "lat": 38.942259915, "lon": -92.31761011666667, "alt": 230.083, "fix_quality": 5, "num_sats": 15, "hdop": 0.9, "speed_knots": 0.04, "track_deg": 179.31, "rtk_ts": 1777770300.654997, "server_ts": 1777770301.057569, "source": "rtk"}}
{"type": "autonav_status", "version": 1, "state": "idle", "current_wp_idx": 0, "total_wp": 27, "heading_deg": 1.198, "target_bearing_deg": 1.6, "bearing_error_deg": 0.4, "dist_to_wp_m": 2.15, "linear": 0.0, "angular": 0.0, "gps_age_s": 0.19, "gps_packet_age_s": 0.19, "gps_fix_quality": 5, "sensor_block_reason": null, "imu_age_s": 0.01, "speed_ratio": 1.0, "manual_speed": 0.4, "calib": {"mark": {"lat": 38.942250015, "lon": -92.31809810166666}, "offset_applied": 5.44567531067338}, "waypoints_window": [{"idx": 0, "lat": 38.94227923, "lon": -92.317609418333, "current": true}, {"idx": 1, "lat": 38.9422908988, "lon": -92.317609418333, "current": false}, {"idx": 2, "lat": 38.9423458106, "lon": -92.317609418333, "current": false}, {"idx": 3, "lat": 38.9423574794, "lon": -92.317609418333, "current": false}, {"idx": 4, "lat": 38.942412391, "lon": -92.317609418333, "current": false}, {"idx": 5, "lat": 38.94242406, "lon": -92.317609418333, "current": false}, {"idx": 6, "lat": 38.942478972, "lon": -92.317609418333, "current": false}], "waiting_at_wp": false, "waiting_wp_idx": null, "pause_mode": "type", "imu_raw": {"type": "imu_frame", "version": 1, "rot": {"qi": -0.0, "qj": 0.01, "qk": 0.492, "qr": 0.871}, "euler": {"roll": 0.56, "pitch": 1.0, "yaw": 64.41, "north_offset_deg": 5.4457}, "hz": 48.1, "heading": {"raw": 355.752, "deg": 1.198, "dir": "N"}, "ts": 1399706, "game_rot": {"qi": 0.005, "qj": 0.009, "qk": 0.037, "qr": 0.999}, "accel": {"x": -0.18, "y": 0.09, "z": 9.92}, "lin_accel": {"x": 0.0, "y": -0.0, "z": 0.04}, "gravity": {"x": -0.18, "y": 0.09, "z": 9.88}, "gyro": {"x": 0.0, "y": 0.0, "z": 0.0}, "mag": {"x": -3.0, "y": -0.9, "z": 9.8}, "steps": 0, "cal": 0}, "rtk_raw": {"type": "rtk_frame", "version": 1, "lat": 38.942259915, "lon": -92.31761011666667, "alt": 230.083, "fix_quality": 5, "num_sats": 15, "hdop": 0.9, "speed_knots": 0.04, "track_deg": 179.31, "rtk_ts": 1777770300.654997, "server_ts": 1777770301.257681, "source": "rtk"}}
{"type": "autonav_status", "version": 1, "state": "idle", "current_wp_idx": 0, "total_wp": 27, "heading_deg": 1.198, "target_bearing_deg": 1.6, "bearing_error_deg": 0.4, "dist_to_wp_m": 2.15, "linear": 0.0, "angular": 0.0, "gps_age_s": 0.19, "gps_packet_age_s": 0.19, "gps_fix_quality": 5, "sensor_block_reason": null, "imu_age_s": 0.0, "speed_ratio": 1.0, "manual_speed": 0.4, "calib": {"mark": {"lat": 38.942250015, "lon": -92.31809810166666}, "offset_applied": 5.44567531067338}, "waypoints_window": [{"idx": 0, "lat": 38.94227923, "lon": -92.317609418333, "current": true}, {"idx": 1, "lat": 38.9422908988, "lon": -92.317609418333, "current": false}, {"idx": 2, "lat": 38.9423458106, "lon": -92.317609418333, "current": false}, {"idx": 3, "lat": 38.9423574794, "lon": -92.317609418333, "current": false}, {"idx": 4, "lat": 38.942412391, "lon": -92.317609418333, "current": false}, {"idx": 5, "lat": 38.94242406, "lon": -92.317609418333, "current": false}, {"idx": 6, "lat": 38.942478972, "lon": -92.317609418333, "current": false}], "waiting_at_wp": false, "waiting_wp_idx": null, "pause_mode": "type", "imu_raw": {"type": "imu_frame", "version": 1, "rot": {"qi": -0.0, "qj": 0.01, "qk": 0.492, "qr": 0.871}, "euler": {"roll": 0.56, "pitch": 1.0, "yaw": 64.41, "north_offset_deg": 5.4457}, "hz": 48.4, "heading": {"raw": 355.752, "deg": 1.198, "dir": "N"}, "ts": 1399916, "game_rot": {"qi": 0.005, "qj": 0.009, "qk": 0.037, "qr": 0.999}, "accel": {"x": -0.18, "y": 0.09, "z": 9.89}, "lin_accel": {"x": 0.0, "y": -0.0, "z": 0.0}, "gravity": {"x": -0.18, "y": 0.09, "z": 9.88}, "gyro": {"x": 0.0, "y": 0.0, "z": 0.0}, "mag": {"x": -3.4, "y": -1.8, "z": 9.2}, "steps": 0, "cal": 0}, "rtk_raw": {"type": "rtk_frame", "version": 1, "lat": 38.942259915, "lon": -92.31761011666667, "alt": 230.083, "fix_quality": 5, "num_sats": 15, "hdop": 0.9, "speed_knots": 0.04, "track_deg": 179.31, "rtk_ts": 1777770300.654997, "server_ts": 1777770301.458774, "source": "rtk"}}
{"type": "autonav_status", "version": 1, "state": "idle", "current_wp_idx": 0, "total_wp": 27, "heading_deg": 1.198, "target_bearing_deg": 1.6, "bearing_error_deg": 0.4, "dist_to_wp_m": 2.15, "linear": 0.0, "angular": 0.0, "gps_age_s": 0.19, "gps_packet_age_s": 0.19, "gps_fix_quality": 5, "sensor_block_reason": null, "imu_age_s": 0.01, "speed_ratio": 1.0, "manual_speed": 0.4, "calib": {"mark": {"lat": 38.942250015, "lon": -92.31809810166666}, "offset_applied": 5.44567531067338}, "waypoints_window": [{"idx": 0, "lat": 38.94227923, "lon": -92.317609418333, "current": true}, {"idx": 1, "lat": 38.9422908988, "lon": -92.317609418333, "current": false}, {"idx": 2, "lat": 38.9423458106, "lon": -92.317609418333, "current": false}, {"idx": 3, "lat": 38.9423574794, "lon": -92.317609418333, "current": false}, {"idx": 4, "lat": 38.942412391, "lon": -92.317609418333, "current": false}, {"idx": 5, "lat": 38.94242406, "lon": -92.317609418333, "current": false}, {"idx": 6, "lat": 38.942478972, "lon": -92.317609418333, "current": false}], "waiting_at_wp": false, "waiting_wp_idx": null, "pause_mode": "type", "imu_raw": {"type": "imu_frame", "version": 1, "rot": {"qi": -0.0, "qj": 0.01, "qk": 0.492, "qr": 0.871}, "euler": {"roll": 0.56, "pitch": 1.0, "yaw": 64.41, "north_offset_deg": 5.4457}, "hz": 48.1, "heading": {"raw": 355.752, "deg": 1.198, "dir": "N"}, "ts": 1400106, "game_rot": {"qi": 0.005, "qj": 0.009, "qk": 0.037, "qr": 0.999}, "accel": {"x": -0.18, "y": 0.09, "z": 9.89}, "lin_accel": {"x": 0.0, "y": -0.0, "z": -0.01}, "gravity": {"x": -0.18, "y": 0.09, "z": 9.89}, "gyro": {"x": 0.0, "y": 0.0, "z": 0.0}, "mag": {"x": -2.6, "y": -0.2, "z": 9.3}, "steps": 0, "cal": 0}, "rtk_raw": {"type": "rtk_frame", "version": 1, "lat": 38.94225991166667, "lon": -92.31761010833333, "alt": 230.08, "fix_quality": 5, "num_sats": 14, "hdop": 1.0, "speed_knots": 0.05, "track_deg": 179.31, "rtk_ts": 1777770301.6422899, "server_ts": 1777770301.6589599, "source": "rtk"}}
{"type": "autonav_status", "version": 1, "state": "idle", "current_wp_idx": 0, "total_wp": 27, "heading_deg": 1.198, "target_bearing_deg": 1.6, "bearing_error_deg": 0.4, "dist_to_wp_m": 2.15, "linear": 0.0, "angular": 0.0, "gps_age_s": 0.19, "gps_packet_age_s": 0.19, "gps_fix_quality": 5, "sensor_block_reason": null, "imu_age_s": 0.01, "speed_ratio": 1.0, "manual_speed": 0.4, "calib": {"mark": {"lat": 38.942250015, "lon": -92.31809810166666}, "offset_applied": 5.44567531067338}, "waypoints_window": [{"idx": 0, "lat": 38.94227923, "lon": -92.317609418333, "current": true}, {"idx": 1, "lat": 38.9422908988, "lon": -92.317609418333, "current": false}, {"idx": 2, "lat": 38.9423458106, "lon": -92.317609418333, "current": false}, {"idx": 3, "lat": 38.9423574794, "lon": -92.317609418333, "current": false}, {"idx": 4, "lat": 38.942412391, "lon": -92.317609418333, "current": false}, {"idx": 5, "lat": 38.94242406, "lon": -92.317609418333, "current": false}, {"idx": 6, "lat": 38.942478972, "lon": -92.317609418333, "current": false}], "waiting_at_wp": false, "waiting_wp_idx": null, "pause_mode": "type", "imu_raw": {"type": "imu_frame", "version": 1, "rot": {"qi": -0.0, "qj": 0.01, "qk": 0.492, "qr": 0.871}, "euler": {"roll": 0.56, "pitch": 1.0, "yaw": 64.41, "north_offset_deg": 5.4457}, "hz": 48.2, "heading": {"raw": 355.752, "deg": 1.198, "dir": "N"}, "ts": 1400311, "game_rot": {"qi": 0.005, "qj": 0.009, "qk": 0.037, "qr": 0.999}, "accel": {"x": -0.18, "y": 0.09, "z": 9.89}, "lin_accel": {"x": 0.0, "y": -0.0, "z": 0.0}, "gravity": {"x": -0.18, "y": 0.09, "z": 9.88}, "gyro": {"x": 0.0, "y": 0.0, "z": 0.0}, "mag": {"x": -2.1, "y": -2.1, "z": 10.1}, "steps": 0, "cal": 0}, "rtk_raw": {"type": "rtk_frame", "version": 1, "lat": 38.94225991166667, "lon": -92.31761010833333, "alt": 230.08, "fix_quality": 5, "num_sats": 14, "hdop": 1.0, "speed_knots": 0.05, "track_deg": 179.31, "rtk_ts": 1777770301.6422899, "server_ts": 1777770301.859125, "source": "rtk"}}
{"type": "autonav_status", "version": 1, "state": "idle", "current_wp_idx": 0, "total_wp": 27, "heading_deg": 1.198, "target_bearing_deg": 1.6, "bearing_error_deg": 0.4, "dist_to_wp_m": 2.15, "linear": 0.0, "angular": 0.0, "gps_age_s": 0.19, "gps_packet_age_s": 0.19, "gps_fix_quality": 5, "sensor_block_reason": null, "imu_age_s": 0.0, "speed_ratio": 1.0, "manual_speed": 0.4, "calib": {"mark": {"lat": 38.942250015, "lon": -92.31809810166666}, "offset_applied": 5.44567531067338}, "waypoints_window": [{"idx": 0, "lat": 38.94227923, "lon": -92.317609418333, "current": true}, {"idx": 1, "lat": 38.9422908988, "lon": -92.317609418333, "current": false}, {"idx": 2, "lat": 38.9423458106, "lon": -92.317609418333, "current": false}, {"idx": 3, "lat": 38.9423574794, "lon": -92.317609418333, "current": false}, {"idx": 4, "lat": 38.942412391, "lon": -92.317609418333, "current": false}, {"idx": 5, "lat": 38.94242406, "lon": -92.317609418333, "current": false}, {"idx": 6, "lat": 38.942478972, "lon": -92.317609418333, "current": false}], "waiting_at_wp": false, "waiting_wp_idx": null, "pause_mode": "type", "imu_raw": {"type": "imu_frame", "version": 1, "rot": {"qi": -0.0, "qj": 0.01, "qk": 0.492, "qr": 0.871}, "euler": {"roll": 0.56, "pitch": 1.0, "yaw": 64.41, "north_offset_deg": 5.4457}, "hz": 47.9, "heading": {"raw": 355.752, "deg": 1.198, "dir": "N"}, "ts": 1400520, "game_rot": {"qi": 0.005, "qj": 0.009, "qk": 0.037, "qr": 0.999}, "accel": {"x": -0.18, "y": 0.09, "z": 9.85}, "lin_accel": {"x": 0.0, "y": -0.0, "z": -0.04}, "gravity": {"x": -0.18, "y": 0.09, "z": 9.88}, "gyro": {"x": 0.0, "y": 0.0, "z": 0.0}, "mag": {"x": -2.1, "y": -1.7, "z": 9.7}, "steps": 0, "cal": 0}, "rtk_raw": {"type": "rtk_frame", "version": 1, "lat": 38.94225991166667, "lon": -92.31761010833333, "alt": 230.08, "fix_quality": 5, "num_sats": 14, "hdop": 1.0, "speed_knots": 0.05, "track_deg": 179.31, "rtk_ts": 1777770301.6422899, "server_ts": 1777770302.060213, "source": "rtk"}}
{"type": "autonav_status", "version": 1, "state": "idle", "current_wp_idx": 0, "total_wp": 27, "heading_deg": 1.198, "target_bearing_deg": 1.6, "bearing_error_deg": 0.4, "dist_to_wp_m": 2.15, "linear": 0.0, "angular": 0.0, "gps_age_s": 0.19, "gps_packet_age_s": 0.19, "gps_fix_quality": 5, "sensor_block_reason": null, "imu_age_s": 0.02, "speed_ratio": 1.0, "manual_speed": 0.4, "calib": {"mark": {"lat": 38.942250015, "lon": -92.31809810166666}, "offset_applied": 5.44567531067338}, "waypoints_window": [{"idx": 0, "lat": 38.94227923, "lon": -92.317609418333, "current": true}, {"idx": 1, "lat": 38.9422908988, "lon": -92.317609418333, "current": false}, {"idx": 2, "lat": 38.9423458106, "lon": -92.317609418333, "current": false}, {"idx": 3, "lat": 38.9423574794, "lon": -92.317609418333, "current": false}, {"idx": 4, "lat": 38.942412391, "lon": -92.317609418333, "current": false}, {"idx": 5, "lat": 38.94242406, "lon": -92.317609418333, "current": false}, {"idx": 6, "lat": 38.942478972, "lon": -92.317609418333, "current": false}], "waiting_at_wp": false, "waiting_wp_idx": null, "pause_mode": "type", "imu_raw": {"type": "imu_frame", "version": 1, "rot": {"qi": -0.0, "qj": 0.01, "qk": 0.492, "qr": 0.871}, "euler": {"roll": 0.56, "pitch": 1.0, "yaw": 64.41, "north_offset_deg": 5.4457}, "hz": 47.9, "heading": {"raw": 355.752, "deg": 1.198, "dir": "N"}, "ts": 1400708, "game_rot": {"qi": 0.005, "qj": 0.009, "qk": 0.037, "qr": 0.999}, "accel": {"x": -0.18, "y": 0.09, "z": 9.85}, "lin_accel": {"x": 0.0, "y": -0.01, "z": 0.0}, "gravity": {"x": -0.18, "y": 0.1, "z": 9.88}, "gyro": {"x": 0.0, "y": 0.0, "z": 0.0}, "mag": {"x": -3.1, "y": -1.3, "z": 10.1}, "steps": 0, "cal": 0}, "rtk_raw": {"type": "rtk_frame", "version": 1, "lat": 38.94225991166667, "lon": -92.31761010833333, "alt": 230.08, "fix_quality": 5, "num_sats": 14, "hdop": 1.0, "speed_knots": 0.05, "track_deg": 179.31, "rtk_ts": 1777770301.6422899, "server_ts": 1777770302.261308, "source": "rtk"}}
{"type": "autonav_status", "version": 1, "state": "idle", "current_wp_idx": 0, "total_wp": 27, "heading_deg": 1.198, "target_bearing_deg": 1.6, "bearing_error_deg": 0.4, "dist_to_wp_m": 2.15, "linear": 0.0, "angular": 0.0, "gps_age_s": 0.19, "gps_packet_age_s": 0.19, "gps_fix_quality": 5, "sensor_block_reason": null, "imu_age_s": 0.01, "speed_ratio": 1.0, "manual_speed": 0.4, "calib": {"mark": {"lat": 38.942250015, "lon": -92.31809810166666}, "offset_applied": 5.44567531067338}, "waypoints_window": [{"idx": 0, "lat": 38.94227923, "lon": -92.317609418333, "current": true}, {"idx": 1, "lat": 38.9422908988, "lon": -92.317609418333, "current": false}, {"idx": 2, "lat": 38.9423458106, "lon": -92.317609418333, "current": false}, {"idx": 3, "lat": 38.9423574794, "lon": -92.317609418333, "current": false}, {"idx": 4, "lat": 38.942412391, "lon": -92.317609418333, "current": false}, {"idx": 5, "lat": 38.94242406, "lon": -92.317609418333, "current": false}, {"idx": 6, "lat": 38.942478972, "lon": -92.317609418333, "current": false}], "waiting_at_wp": false, "waiting_wp_idx": null, "pause_mode": "type", "imu_raw": {"type": "imu_frame", "version": 1, "rot": {"qi": -0.0, "qj": 0.01, "qk": 0.492, "qr": 0.871}, "euler": {"roll": 0.56, "pitch": 1.0, "yaw": 64.41, "north_offset_deg": 5.4457}, "hz": 48.3, "heading": {"raw": 355.752, "deg": 1.198, "dir": "N"}, "ts": 1400911, "game_rot": {"qi": 0.005, "qj": 0.009, "qk": 0.037, "qr": 0.999}, "accel": {"x": -0.18, "y": 0.09, "z": 9.89}, "lin_accel": {"x": 0.0, "y": -0.0, "z": 0.0}, "gravity": {"x": -0.18, "y": 0.09, "z": 9.88}, "gyro": {"x": 0.0, "y": 0.0, "z": 0.0}, "mag": {"x": -2.7, "y": -1.8, "z": 9.2}, "steps": 0, "cal": 0}, "rtk_raw": {"type": "rtk_frame", "version": 1, "lat": 38.94225991166667, "lon": -92.31761010833333, "alt": 230.08, "fix_quality": 5, "num_sats": 14, "hdop": 1.0, "speed_knots": 0.05, "track_deg": 179.31, "rtk_ts": 1777770301.6422899, "server_ts": 1777770302.461447, "source": "rtk"}}
{"type": "autonav_status", "version": 1, "state": "idle", "current_wp_idx": 0, "total_wp": 27, "heading_deg": 1.198, "target_bearing_deg": 1.6, "bearing_error_deg": 0.5, "dist_to_wp_m": 2.15, "linear": 0.0, "angular": 0.0, "gps_age_s": 0.19, "gps_packet_age_s": 0.19, "gps_fix_quality": 5, "sensor_block_reason": null, "imu_age_s": 0.0, "speed_ratio": 1.0, "manual_speed": 0.4, "calib": {"mark": {"lat": 38.942250015, "lon": -92.31809810166666}, "offset_applied": 5.44567531067338}, "waypoints_window": [{"idx": 0, "lat": 38.94227923, "lon": -92.317609418333, "current": true}, {"idx": 1, "lat": 38.9422908988, "lon": -92.317609418333, "current": false}, {"idx": 2, "lat": 38.9423458106, "lon": -92.317609418333, "current": false}, {"idx": 3, "lat": 38.9423574794, "lon": -92.317609418333, "current": false}, {"idx": 4, "lat": 38.942412391, "lon": -92.317609418333, "current": false}, {"idx": 5, "lat": 38.94242406, "lon": -92.317609418333, "current": false}, {"idx": 6, "lat": 38.942478972, "lon": -92.317609418333, "current": false}], "waiting_at_wp": false, "waiting_wp_idx": null, "pause_mode": "type", "imu_raw": {"type": "imu_frame", "version": 1, "rot": {"qi": -0.0, "qj": 0.01, "qk": 0.492, "qr": 0.871}, "euler": {"roll": 0.56, "pitch": 1.0, "yaw": 64.41, "north_offset_deg": 5.4457}, "hz": 48.3, "heading": {"raw": 355.752, "deg": 1.198, "dir": "N"}, "ts": 1401121, "game_rot": {"qi": 0.005, "qj": 0.009, "qk": 0.037, "qr": 0.999}, "accel": {"x": -0.18, "y": 0.09, "z": 9.89}, "lin_accel": {"x": 0.0, "y": -0.0, "z": 0.0}, "gravity": {"x": -0.18, "y": 0.09, "z": 9.88}, "gyro": {"x": 0.0, "y": 0.0, "z": 0.0}, "mag": {"x": -3.0, "y": -0.2, "z": 9.8}, "steps": 0, "cal": 0}, "rtk_raw": {"type": "rtk_frame", "version": 1, "lat": 38.94225991166667, "lon": -92.31761013333333, "alt": 230.08, "fix_quality": 5, "num_sats": 15, "hdop": 1.0, "speed_knots": 0.01, "track_deg": 179.31, "rtk_ts": 1777770302.6330812, "server_ts": 1777770302.661626, "source": "rtk"}}
{"type": "autonav_status", "version": 1, "state": "idle", "current_wp_idx": 0, "total_wp": 27, "heading_deg": 1.198, "target_bearing_deg": 1.6, "bearing_error_deg": 0.5, "dist_to_wp_m": 2.15, "linear": 0.0, "angular": 0.0, "gps_age_s": 0.19, "gps_packet_age_s": 0.19, "gps_fix_quality": 5, "sensor_block_reason": null, "imu_age_s": 0.01, "speed_ratio": 1.0, "manual_speed": 0.4, "calib": {"mark": {"lat": 38.942250015, "lon": -92.31809810166666}, "offset_applied": 5.44567531067338}, "waypoints_window": [{"idx": 0, "lat": 38.94227923, "lon": -92.317609418333, "current": true}, {"idx": 1, "lat": 38.9422908988, "lon": -92.317609418333, "current": false}, {"idx": 2, "lat": 38.9423458106, "lon": -92.317609418333, "current": false}, {"idx": 3, "lat": 38.9423574794, "lon": -92.317609418333, "current": false}, {"idx": 4, "lat": 38.942412391, "lon": -92.317609418333, "current": false}, {"idx": 5, "lat": 38.94242406, "lon": -92.317609418333, "current": false}, {"idx": 6, "lat": 38.942478972, "lon": -92.317609418333, "current": false}], "waiting_at_wp": false, "waiting_wp_idx": null, "pause_mode": "type", "imu_raw": {"type": "imu_frame", "version": 1, "rot": {"qi": -0.0, "qj": 0.01, "qk": 0.492, "qr": 0.871}, "euler": {"roll": 0.56, "pitch": 1.0, "yaw": 64.41, "north_offset_deg": 5.4457}, "hz": 47.6, "heading": {"raw": 355.752, "deg": 1.198, "dir": "N"}, "ts": 1401319, "game_rot": {"qi": 0.005, "qj": 0.009, "qk": 0.037, "qr": 0.999}, "accel": {"x": -0.18, "y": 0.09, "z": 9.89}, "lin_accel": {"x": 0.0, "y": -0.0, "z": 0.0}, "gravity": {"x": -0.18, "y": 0.09, "z": 9.88}, "gyro": {"x": -0.004, "y": 0.0, "z": -0.002}, "mag": {"x": -2.7, "y": -0.9, "z": 9.2}, "steps": 0, "cal": 0}, "rtk_raw": {"type": "rtk_frame", "version": 1, "lat": 38.94225991166667, "lon": -92.31761013333333, "alt": 230.08, "fix_quality": 5, "num_sats": 15, "hdop": 1.0, "speed_knots": 0.01, "track_deg": 179.31, "rtk_ts": 1777770302.6330812, "server_ts": 1777770302.861778, "source": "rtk"}}
{"type": "autonav_status", "version": 1, "state": "idle", "current_wp_idx": 0, "total_wp": 27, "heading_deg": 1.198, "target_bearing_deg": 1.6, "bearing_error_deg": 0.5, "dist_to_wp_m": 2.15, "linear": 0.0, "angular": 0.0, "gps_age_s": 0.19, "gps_packet_age_s": 0.19, "gps_fix_quality": 5, "sensor_block_reason": null, "imu_age_s": 0.03, "speed_ratio": 1.0, "manual_speed": 0.4, "calib": {"mark": {"lat": 38.942250015, "lon": -92.31809810166666}, "offset_applied": 5.44567531067338}, "waypoints_window": [{"idx": 0, "lat": 38.94227923, "lon": -92.317609418333, "current": true}, {"idx": 1, "lat": 38.9422908988, "lon": -92.317609418333, "current": false}, {"idx": 2, "lat": 38.9423458106, "lon": -92.317609418333, "current": false}, {"idx": 3, "lat": 38.9423574794, "lon": -92.317609418333, "current": false}, {"idx": 4, "lat": 38.942412391, "lon": -92.317609418333, "current": false}, {"idx": 5, "lat": 38.94242406, "lon": -92.317609418333, "current": false}, {"idx": 6, "lat": 38.942478972, "lon": -92.317609418333, "current": false}], "waiting_at_wp": false, "waiting_wp_idx": null, "pause_mode": "type", "imu_raw": {"type": "imu_frame", "version": 1, "rot": {"qi": -0.0, "qj": 0.01, "qk": 0.492, "qr": 0.871}, "euler": {"roll": 0.56, "pitch": 1.0, "yaw": 64.41, "north_offset_deg": 5.4457}, "hz": 48.0, "heading": {"raw": 355.752, "deg": 1.198, "dir": "N"}, "ts": 1401501, "game_rot": {"qi": 0.005, "qj": 0.009, "qk": 0.037, "qr": 0.999}, "accel": {"x": -0.14, "y": 0.09, "z": 9.93}, "lin_accel": {"x": 0.04, "y": -0.01, "z": 0.04}, "gravity": {"x": -0.18, "y": 0.1, "z": 9.88}, "gyro": {"x": 0.0, "y": 0.002, "z": 0.004}, "mag": {"x": -3.1, "y": -2.6, "z": 8.8}, "steps": 0, "cal": 0}, "rtk_raw": {"type": "rtk_frame", "version": 1, "lat": 38.94225991166667, "lon": -92.31761013333333, "alt": 230.08, "fix_quality": 5, "num_sats": 15, "hdop": 1.0, "speed_knots": 0.01, "track_deg": 179.31, "rtk_ts": 1777770302.6330812, "server_ts": 1777770303.061964, "source": "rtk"}}
{"type": "autonav_status", "version": 1, "state": "idle", "current_wp_idx": 0, "total_wp": 27, "heading_deg": 1.198, "target_bearing_deg": 1.6, "bearing_error_deg": 0.5, "dist_to_wp_m": 2.15, "linear": 0.0, "angular": 0.0, "gps_age_s": 0.19, "gps_packet_age_s": 0.19, "gps_fix_quality": 5, "sensor_block_reason": null, "imu_age_s": 0.01, "speed_ratio": 1.0, "manual_speed": 0.4, "calib": {"mark": {"lat": 38.942250015, "lon": -92.31809810166666}, "offset_applied": 5.44567531067338}, "waypoints_window": [{"idx": 0, "lat": 38.94227923, "lon": -92.317609418333, "current": true}, {"idx": 1, "lat": 38.9422908988, "lon": -92.317609418333, "current": false}, {"idx": 2, "lat": 38.9423458106, "lon": -92.317609418333, "current": false}, {"idx": 3, "lat": 38.9423574794, "lon": -92.317609418333, "current": false}, {"idx": 4, "lat": 38.942412391, "lon": -92.317609418333, "current": false}, {"idx": 5, "lat": 38.94242406, "lon": -92.317609418333, "current": false}, {"idx": 6, "lat": 38.942478972, "lon": -92.317609418333, "current": false}], "waiting_at_wp": false, "waiting_wp_idx": null, "pause_mode": "type", "imu_raw": {"type": "imu_frame", "version": 1, "rot": {"qi": -0.0, "qj": 0.01, "qk": 0.491, "qr": 0.871}, "euler": {"roll": 0.56, "pitch": 1.0, "yaw": 64.26, "north_offset_deg": 5.4457}, "hz": 47.6, "heading": {"raw": 355.752, "deg": 1.198, "dir": "N"}, "ts": 1401717, "game_rot": {"qi": 0.005, "qj": 0.009, "qk": 0.037, "qr": 0.999}, "accel": {"x": -0.18, "y": 0.09, "z": 9.89}, "lin_accel": {"x": 0.0, "y": -0.01, "z": 0.0}, "gravity": {"x": -0.18, "y": 0.1, "z": 9.88}, "gyro": {"x": 0.0, "y": 0.0, "z": 0.002}, "mag": {"x": -3.4, "y": -1.8, "z": 8.8}, "steps": 0, "cal": 0}, "rtk_raw": {"type": "rtk_frame", "version": 1, "lat": 38.94225991166667, "lon": -92.31761013333333, "alt": 230.08, "fix_quality": 5, "num_sats": 15, "hdop": 1.0, "speed_knots": 0.01, "track_deg": 179.31, "rtk_ts": 1777770302.6330812, "server_ts": 1777770303.263135, "source": "rtk"}}
{"type": "autonav_status", "version": 1, "state": "idle", "current_wp_idx": 0, "total_wp": 27, "heading_deg": 1.198, "target_bearing_deg": 1.6, "bearing_error_deg": 0.5, "dist_to_wp_m": 2.15, "linear": 0.0, "angular": 0.0, "gps_age_s": 0.19, "gps_packet_age_s": 0.19, "gps_fix_quality": 5, "sensor_block_reason": null, "imu_age_s": 0.02, "speed_ratio": 1.0, "manual_speed": 0.4, "calib": {"mark": {"lat": 38.942250015, "lon": -92.31809810166666}, "offset_applied": 5.44567531067338}, "waypoints_window": [{"idx": 0, "lat": 38.94227923, "lon": -92.317609418333, "current": true}, {"idx": 1, "lat": 38.9422908988, "lon": -92.317609418333, "current": false}, {"idx": 2, "lat": 38.9423458106, "lon": -92.317609418333, "current": false}, {"idx": 3, "lat": 38.9423574794, "lon": -92.317609418333, "current": false}, {"idx": 4, "lat": 38.942412391, "lon": -92.317609418333, "current": false}, {"idx": 5, "lat": 38.94242406, "lon": -92.317609418333, "current": false}, {"idx": 6, "lat": 38.942478972, "lon": -92.317609418333, "current": false}], "waiting_at_wp": false, "waiting_wp_idx": null, "pause_mode": "type", "imu_raw": {"type": "imu_frame", "version": 1, "rot": {"qi": -0.0, "qj": 0.01, "qk": 0.491, "qr": 0.871}, "euler": {"roll": 0.56, "pitch": 1.0, "yaw": 64.26, "north_offset_deg": 5.4457}, "hz": 47.3, "heading": {"raw": 355.752, "deg": 1.198, "dir": "N"}, "ts": 1401906, "game_rot": {"qi": 0.005, "qj": 0.009, "qk": 0.037, "qr": 0.999}, "accel": {"x": -0.18, "y": 0.09, "z": 9.89}, "lin_accel": {"x": 0.0, "y": -0.01, "z": 0.0}, "gravity": {"x": -0.18, "y": 0.1, "z": 9.88}, "gyro": {"x": 0.0, "y": 0.002, "z": 0.0}, "mag": {"x": -2.7, "y": -1.2, "z": 10.5}, "steps": 0, "cal": 0}, "rtk_raw": {"type": "rtk_frame", "version": 1, "lat": 38.94225991166667, "lon": -92.31761013333333, "alt": 230.08, "fix_quality": 5, "num_sats": 15, "hdop": 1.0, "speed_knots": 0.01, "track_deg": 179.31, "rtk_ts": 1777770302.6330812, "server_ts": 1777770303.463684, "source": "rtk"}}
{"type": "autonav_status", "version": 1, "state": "idle", "current_wp_idx": 0, "total_wp": 27, "heading_deg": 1.198, "target_bearing_deg": 1.6, "bearing_error_deg": 0.4, "dist_to_wp_m": 2.15, "linear": 0.0, "angular": 0.0, "gps_age_s": 0.19, "gps_packet_age_s": 0.19, "gps_fix_quality": 5, "sensor_block_reason": null, "imu_age_s": 0.01, "speed_ratio": 1.0, "manual_speed": 0.4, "calib": {"mark": {"lat": 38.942250015, "lon": -92.31809810166666}, "offset_applied": 5.44567531067338}, "waypoints_window": [{"idx": 0, "lat": 38.94227923, "lon": -92.317609418333, "current": true}, {"idx": 1, "lat": 38.9422908988, "lon": -92.317609418333, "current": false}, {"idx": 2, "lat": 38.9423458106, "lon": -92.317609418333, "current": false}, {"idx": 3, "lat": 38.9423574794, "lon": -92.317609418333, "current": false}, {"idx": 4, "lat": 38.942412391, "lon": -92.317609418333, "current": false}, {"idx": 5, "lat": 38.94242406, "lon": -92.317609418333, "current": false}, {"idx": 6, "lat": 38.942478972, "lon": -92.317609418333, "current": false}], "waiting_at_wp": false, "waiting_wp_idx": null, "pause_mode": "type", "imu_raw": {"type": "imu_frame", "version": 1, "rot": {"qi": -0.0, "qj": 0.01, "qk": 0.491, "qr": 0.871}, "euler": {"roll": 0.56, "pitch": 1.0, "yaw": 64.26, "north_offset_deg": 5.4457}, "hz": 47.1, "heading": {"raw": 355.752, "deg": 1.198, "dir": "N"}, "ts": 1402119, "game_rot": {"qi": 0.005, "qj": 0.009, "qk": 0.037, "qr": 0.999}, "accel": {"x": -0.18, "y": 0.09, "z": 9.89}, "lin_accel": {"x": 0.0, "y": -0.01, "z": 0.0}, "gravity": {"x": -0.18, "y": 0.1, "z": 9.88}, "gyro": {"x": 0.0, "y": -0.002, "z": 0.0}, "mag": {"x": -2.4, "y": -1.3, "z": 10.1}, "steps": 0, "cal": 0}, "rtk_raw": {"type": "rtk_frame", "version": 1, "lat": 38.94225990666666, "lon": -92.31761012666666, "alt": 230.083, "fix_quality": 5, "num_sats": 14, "hdop": 1.0, "speed_knots": 0.02, "track_deg": 179.31, "rtk_ts": 1777770303.65721, "server_ts": 1777770303.664771, "source": "rtk"}}
{"type": "autonav_status", "version": 1, "state": "idle", "current_wp_idx": 0, "total_wp": 27, "heading_deg": 1.198, "target_bearing_deg": 1.6, "bearing_error_deg": 0.4, "dist_to_wp_m": 2.15, "linear": 0.0, "angular": 0.0, "gps_age_s": 0.19, "gps_packet_age_s": 0.19, "gps_fix_quality": 5, "sensor_block_reason": null, "imu_age_s": 0.0, "speed_ratio": 1.0, "manual_speed": 0.4, "calib": {"mark": {"lat": 38.942250015, "lon": -92.31809810166666}, "offset_applied": 5.44567531067338}, "waypoints_window": [{"idx": 0, "lat": 38.94227923, "lon": -92.317609418333, "current": true}, {"idx": 1, "lat": 38.9422908988, "lon": -92.317609418333, "current": false}, {"idx": 2, "lat": 38.9423458106, "lon": -92.317609418333, "current": false}, {"idx": 3, "lat": 38.9423574794, "lon": -92.317609418333, "current": false}, {"idx": 4, "lat": 38.942412391, "lon": -92.317609418333, "current": false}, {"idx": 5, "lat": 38.94242406, "lon": -92.317609418333, "current": false}, {"idx": 6, "lat": 38.942478972, "lon": -92.317609418333, "current": false}], "waiting_at_wp": false, "waiting_wp_idx": null, "pause_mode": "type", "imu_raw": {"type": "imu_frame", "version": 1, "rot": {"qi": -0.0, "qj": 0.01, "qk": 0.491, "qr": 0.871}, "euler": {"roll": 0.56, "pitch": 1.0, "yaw": 64.26, "north_offset_deg": 5.4457}, "hz": 47.6, "heading": {"raw": 355.752, "deg": 1.198, "dir": "N"}, "ts": 1402327, "game_rot": {"qi": 0.005, "qj": 0.009, "qk": 0.037, "qr": 0.999}, "accel": {"x": -0.18, "y": 0.09, "z": 9.89}, "lin_accel": {"x": 0.0, "y": -0.0, "z": 0.0}, "gravity": {"x": -0.18, "y": 0.09, "z": 9.88}, "gyro": {"x": 0.0, "y": 0.0, "z": 0.0}, "mag": {"x": -3.8, "y": -1.4, "z": 10.1}, "steps": 0, "cal": 0}, "rtk_raw": {"type": "rtk_frame", "version": 1, "lat": 38.94225990666666, "lon": -92.31761012666666, "alt": 230.083, "fix_quality": 5, "num_sats": 14, "hdop": 1.0, "speed_knots": 0.02, "track_deg": 179.31, "rtk_ts": 1777770303.65721, "server_ts": 1777770303.865605, "source": "rtk"}}
{"type": "autonav_status", "version": 1, "state": "idle", "current_wp_idx": 0, "total_wp": 27, "heading_deg": 1.198, "target_bearing_deg": 1.6, "bearing_error_deg": 0.4, "dist_to_wp_m": 2.15, "linear": 0.0, "angular": 0.0, "gps_age_s": 0.19, "gps_packet_age_s": 0.19, "gps_fix_quality": 5, "sensor_block_reason": null, "imu_age_s": 0.02, "speed_ratio": 1.0, "manual_speed": 0.4, "calib": {"mark": {"lat": 38.942250015, "lon": -92.31809810166666}, "offset_applied": 5.44567531067338}, "waypoints_window": [{"idx": 0, "lat": 38.94227923, "lon": -92.317609418333, "current": true}, {"idx": 1, "lat": 38.9422908988, "lon": -92.317609418333, "current": false}, {"idx": 2, "lat": 38.9423458106, "lon": -92.317609418333, "current": false}, {"idx": 3, "lat": 38.9423574794, "lon": -92.317609418333, "current": false}, {"idx": 4, "lat": 38.942412391, "lon": -92.317609418333, "current": false}, {"idx": 5, "lat": 38.94242406, "lon": -92.317609418333, "current": false}, {"idx": 6, "lat": 38.942478972, "lon": -92.317609418333, "current": false}], "waiting_at_wp": false, "waiting_wp_idx": null, "pause_mode": "type", "imu_raw": {"type": "imu_frame", "version": 1, "rot": {"qi": -0.0, "qj": 0.01, "qk": 0.491, "qr": 0.871}, "euler": {"roll": 0.56, "pitch": 1.0, "yaw": 64.26, "north_offset_deg": 5.4457}, "hz": 47.5, "heading": {"raw": 355.752, "deg": 1.198, "dir": "N"}, "ts": 1402513, "game_rot": {"qi": 0.005, "qj": 0.009, "qk": 0.037, "qr": 0.999}, "accel": {"x": -0.21, "y": 0.09, "z": 9.88}, "lin_accel": {"x": 0.0, "y": -0.0, "z": 0.0}, "gravity": {"x": -0.18, "y": 0.09, "z": 9.88}, "gyro": {"x": 0.0, "y": 0.0, "z": 0.0}, "mag": {"x": -3.3, "y": -0.6, "z": 9.7}, "steps": 0, "cal": 0}, "rtk_raw": {"type": "rtk_frame", "version": 1, "lat": 38.94225990666666, "lon": -92.31761012666666, "alt": 230.083, "fix_quality": 5, "num_sats": 14, "hdop": 1.0, "speed_knots": 0.02, "track_deg": 179.31, "rtk_ts": 1777770303.65721, "server_ts": 1777770304.066696, "source": "rtk"}}
{"type": "autonav_status", "version": 1, "state": "idle", "current_wp_idx": 0, "total_wp": 27, "heading_deg": 1.198, "target_bearing_deg": 1.6, "bearing_error_deg": 0.4, "dist_to_wp_m": 2.15, "linear": 0.0, "angular": 0.0, "gps_age_s": 0.19, "gps_packet_age_s": 0.19, "gps_fix_quality": 5, "sensor_block_reason": null, "imu_age_s": 0.01, "speed_ratio": 1.0, "manual_speed": 0.4, "calib": {"mark": {"lat": 38.942250015, "lon": -92.31809810166666}, "offset_applied": 5.44567531067338}, "waypoints_window": [{"idx": 0, "lat": 38.94227923, "lon": -92.317609418333, "current": true}, {"idx": 1, "lat": 38.9422908988, "lon": -92.317609418333, "current": false}, {"idx": 2, "lat": 38.9423458106, "lon": -92.317609418333, "current": false}, {"idx": 3, "lat": 38.9423574794, "lon": -92.317609418333, "current": false}, {"idx": 4, "lat": 38.942412391, "lon": -92.317609418333, "current": false}, {"idx": 5, "lat": 38.94242406, "lon": -92.317609418333, "current": false}, {"idx": 6, "lat": 38.942478972, "lon": -92.317609418333, "current": false}], "waiting_at_wp": false, "waiting_wp_idx": null, "pause_mode": "type", "imu_raw": {"type": "imu_frame", "version": 1, "rot": {"qi": -0.0, "qj": 0.01, "qk": 0.491, "qr": 0.871}, "euler": {"roll": 0.56, "pitch": 1.0, "yaw": 64.26, "north_offset_deg": 5.4457}, "hz": 47.6, "heading": {"raw": 355.752, "deg": 1.198, "dir": "N"}, "ts": 1402723, "game_rot": {"qi": 0.005, "qj": 0.009, "qk": 0.037, "qr": 0.999}, "accel": {"x": -0.18, "y": 0.09, "z": 9.85}, "lin_accel": {"x": 0.0, "y": -0.0, "z": -0.04}, "gravity": {"x": -0.18, "y": 0.09, "z": 9.88}, "gyro": {"x": 0.0, "y": 0.0, "z": 0.0}, "mag": {"x": -3.1, "y": -1.8, "z": 9.2}, "steps": 0, "cal": 0}, "rtk_raw": {"type": "rtk_frame", "version": 1, "lat": 38.94225990666666, "lon": -92.31761012666666, "alt": 230.083, "fix_quality": 5, "num_sats": 14, "hdop": 1.0, "speed_knots": 0.02, "track_deg": 179.31, "rtk_ts": 1777770303.65721, "server_ts": 1777770304.266877, "source": "rtk"}}
