{"type": "autonav_status", "version": 1, "state": "idle", "current_wp_idx": 0, "total_wp": 7, "heading_deg": 159.054, "target_bearing_deg": 112.1, "bearing_error_deg": -46.9, "dist_to_wp_m": 9.55, "linear": 0.0, "angular": 0.0, "gps_age_s": 0.16, "gps_packet_age_s": 0.16, "gps_fix_quality": 4, "sensor_block_reason": null, "imu_age_s": 0.02, "speed_ratio": 1.0, "manual_speed": 0.4, "calib": {"mark": {"lat": 38.94126383, "lon": -92.31894309833334}, "offset_applied": 108.32644748105147}, "waypoints_window": [{"idx": 0, "lat": 38.94124777, "lon": -92.31884882, "current": true}, {"idx": 1, "lat": 38.9412436, "lon": -92.31878981, "current": false}, {"idx": 2, "lat": 38.94120606, "lon": -92.3187308, "current": false}, {"idx": 3, "lat": 38.94124047, "lon": -92.31867984, "current": false}, {"idx": 4, "lat": 38.94124047, "lon": -92.31856987, "current": false}, {"idx": 5, "lat": 38.94121959, "lon": -92.31852293, "current": false}, {"idx": 6, "lat": 38.94114243, "lon": -92.31852159, "current": false}], "waiting_at_wp": false, "waiting_wp_idx": null, "imu_raw": {"type": "imu_frame", "version": 1, "rot": {"qi": 0.022, "qj": 0.018, "qk": -0.827, "qr": 0.561}, "euler": {"roll": -0.29, "pitch": 3.24, "yaw": 356.65, "north_offset_deg": 108.3264}, "hz": 48.0, "heading": {"raw": 50.728, "deg": 159.054, "dir": "SSE"}, "ts": 1597218, "game_rot": {"qi": 0.01, "qj": 0.027, "qk": -0.428, "qr": 0.903}, "accel": {"x": -0.56, "y": -0.06, "z": 9.84}, "lin_accel": {"x": 0.01, "y": -0.02, "z": -0.04}, "gravity": {"x": -0.57, "y": -0.05, "z": 9.88}, "gyro": {"x": 0.0, "y": 0.0, "z": 0.0}, "mag": {"x": -24.0, "y": -0.2, "z": 1.9}, "steps": 0, "cal": 0}, "rtk_raw": {"type": "rtk_frame", "version": 1, "lat": 38.941280076666665, "lon": -92.31895104666667, "alt": 236.809, "fix_quality": 4, "num_sats": 15, "hdop": 1.2, "speed_knots": 0.04, "track_deg": 335.57, "rtk_ts": 1777438796.610443, "server_ts": 1777438797.1219609, "source": "rtk"}}
{"type": "autonav_status", "version": 1, "state": "idle", "current_wp_idx": 0, "total_wp": 7, "heading_deg": 159.054, "target_bearing_deg": 112.1, "bearing_error_deg": -46.9, "dist_to_wp_m": 9.55, "linear": 0.0, "angular": 0.0, "gps_age_s": 0.16, "gps_packet_age_s": 0.16, "gps_fix_quality": 4, "sensor_block_reason": null, "imu_age_s": 0.01, "speed_ratio": 1.0, "manual_speed": 0.4, "calib": {"mark": {"lat": 38.94126383, "lon": -92.31894309833334}, "offset_applied": 108.32644748105147}, "waypoints_window": [{"idx": 0, "lat": 38.94124777, "lon": -92.31884882, "current": true}, {"idx": 1, "lat": 38.9412436, "lon": -92.31878981, "current": false}, {"idx": 2, "lat": 38.94120606, "lon": -92.3187308, "current": false}, {"idx": 3, "lat": 38.94124047, "lon": -92.31867984, "current": false}, {"idx": 4, "lat": 38.94124047, "lon": -92.31856987, "current": false}, {"idx": 5, "lat": 38.94121959, "lon": -92.31852293, "current": false}, {"idx": 6, "lat": 38.94114243, "lon": -92.31852159, "current": false}], "waiting_at_wp": false, "waiting_wp_idx": null, "imu_raw": {"type": "imu_frame", "version": 1, "rot": {"qi": 0.022, "qj": 0.018, "qk": -0.827, "qr": 0.561}, "euler": {"roll": -0.29, "pitch": 3.24, "yaw": 356.65, "north_offset_deg": 108.3264}, "hz": 48.1, "heading": {"raw": 50.728, "deg": 159.054, "dir": "SSE"}, "ts": 1597426, "game_rot": {"qi": 0.01, "qj": 0.027, "qk": -0.428, "qr": 0.903}, "accel": {"x": -0.56, "y": -0.06, "z": 9.88}, "lin_accel": {"x": 0.01, "y": -0.01, "z": 0.01}, "gravity": {"x": -0.57, "y": -0.05, "z": 9.88}, "gyro": {"x": 0.0, "y": 0.0, "z": 0.0}, "mag": {"x": -25.0, "y": 0.6, "z": 2.3}, "steps": 0, "cal": 0}, "rtk_raw": {"type": "rtk_frame", "version": 1, "lat": 38.941280076666665, "lon": -92.31895104666667, "alt": 236.809, "fix_quality": 4, "num_sats": 15, "hdop": 1.2, "speed_knots": 0.04, "track_deg": 335.57, "rtk_ts": 1777438796.610443, "server_ts": 1777438797.3232121, "source": "rtk"}}
{"type": "autonav_status", "version": 1, "state": "idle", "current_wp_idx": 0, "total_wp": 7, "heading_deg": 159.054, "target_bearing_deg": 112.1, "bearing_error_deg": -46.9, "dist_to_wp_m": 9.55, "linear": 0.0, "angular": 0.0, "gps_age_s": 0.16, "gps_packet_age_s": 0.16, "gps_fix_quality": 4, "sensor_block_reason": null, "imu_age_s": 0.0, "speed_ratio": 1.0, "manual_speed": 0.4, "calib": {"mark": {"lat": 38.94126383, "lon": -92.31894309833334}, "offset_applied": 108.32644748105147}, "waypoints_window": [{"idx": 0, "lat": 38.94124777, "lon": -92.31884882, "current": true}, {"idx": 1, "lat": 38.9412436, "lon": -92.31878981, "current": false}, {"idx": 2, "lat": 38.94120606, "lon": -92.3187308, "current": false}, {"idx": 3, "lat": 38.94124047, "lon": -92.31867984, "current": false}, {"idx": 4, "lat": 38.94124047, "lon": -92.31856987, "current": false}, {"idx": 5, "lat": 38.94121959, "lon": -92.31852293, "current": false}, {"idx": 6, "lat": 38.94114243, "lon": -92.31852159, "current": false}], "waiting_at_wp": false, "waiting_wp_idx": null, "imu_raw": {"type": "imu_frame", "version": 1, "rot": {"qi": 0.022, "qj": 0.018, "qk": -0.827, "qr": 0.561}, "euler": {"roll": -0.29, "pitch": 3.24, "yaw": 356.65, "north_offset_deg": 108.3264}, "hz": 48.0, "heading": {"raw": 50.728, "deg": 159.054, "dir": "SSE"}, "ts": 1597637, "game_rot": {"qi": 0.01, "qj": 0.027, "qk": -0.428, "qr": 0.903}, "accel": {"x": -0.56, "y": -0.06, "z": 9.84}, "lin_accel": {"x": 0.01, "y": -0.01, "z": 0.0}, "gravity": {"x": -0.57, "y": -0.05, "z": 9.88}, "gyro": {"x": 0.0, "y": 0.0, "z": 0.0}, "mag": {"x": -23.9, "y": 1.1, "z": 3.1}, "steps": 0, "cal": 0}, "rtk_raw": {"type": "rtk_frame", "version": 1, "lat": 38.941280076666665, "lon": -92.31895104666667, "alt": 236.809, "fix_quality": 4, "num_sats": 15, "hdop": 1.2, "speed_knots": 0.04, "track_deg": 335.57, "rtk_ts": 1777438796.610443, "server_ts": 1777438797.5244632, "source": "rtk"}}
{"type": "autonav_status", "version": 1, "state": "idle", "current_wp_idx": 0, "total_wp": 7, "heading_deg": 159.054, "target_bearing_deg": 112.1, "bearing_error_deg": -46.9, "dist_to_wp_m": 9.55, "linear": 0.0, "angular": 0.0, "gps_age_s": 0.16, "gps_packet_age_s": 0.16, "gps_fix_quality": 4, "sensor_block_reason": null, "imu_age_s": 0.01, "speed_ratio": 1.0, "manual_speed": 0.4, "calib": {"mark": {"lat": 38.94126383, "lon": -92.31894309833334}, "offset_applied": 108.32644748105147}, "waypoints_window": [{"idx": 0, "lat": 38.94124777, "lon": -92.31884882, "current": true}, {"idx": 1, "lat": 38.9412436, "lon": -92.31878981, "current": false}, {"idx": 2, "lat": 38.94120606, "lon": -92.3187308, "current": false}, {"idx": 3, "lat": 38.94124047, "lon": -92.31867984, "current": false}, {"idx": 4, "lat": 38.94124047, "lon": -92.31856987, "current": false}, {"idx": 5, "lat": 38.94121959, "lon": -92.31852293, "current": false}, {"idx": 6, "lat": 38.94114243, "lon": -92.31852159, "current": false}], "waiting_at_wp": false, "waiting_wp_idx": null, "imu_raw": {"type": "imu_frame", "version": 1, "rot": {"qi": 0.022, "qj": 0.018, "qk": -0.827, "qr": 0.561}, "euler": {"roll": -0.29, "pitch": 3.24, "yaw": 356.65, "north_offset_deg": 108.3264}, "hz": 47.9, "heading": {"raw": 50.728, "deg": 159.054, "dir": "SSE"}, "ts": 1597827, "game_rot": {"qi": 0.01, "qj": 0.027, "qk": -0.428, "qr": 0.903}, "accel": {"x": -0.6, "y": -0.06, "z": 9.89}, "lin_accel": {"x": -0.04, "y": 0.0, "z": 0.01}, "gravity": {"x": -0.57, "y": -0.05, "z": 9.88}, "gyro": {"x": 0.0, "y": 0.0, "z": 0.0}, "mag": {"x": -24.0, "y": -0.1, "z": 2.7}, "steps": 0, "cal": 0}, "rtk_raw": {"type": "rtk_frame", "version": 1, "lat": 38.941280078333335, "lon": -92.31895103666666, "alt": 236.814, "fix_quality": 4, "num_sats": 15, "hdop": 1.2, "speed_knots": 0.08, "track_deg": 335.57, "rtk_ts": 1777438797.6144671, "server_ts": 1777438797.725724, "source": "rtk"}}
{"type": "autonav_status", "version": 1, "state": "idle", "current_wp_idx": 0, "total_wp": 7, "heading_deg": 159.054, "target_bearing_deg": 112.1, "bearing_error_deg": -46.9, "dist_to_wp_m": 9.55, "linear": 0.0, "angular": 0.0, "gps_age_s": 0.16, "gps_packet_age_s": 0.16, "gps_fix_quality": 4, "sensor_block_reason": null, "imu_age_s": 0.01, "speed_ratio": 1.0, "manual_speed": 0.4, "calib": {"mark": {"lat": 38.94126383, "lon": -92.31894309833334}, "offset_applied": 108.32644748105147}, "waypoints_window": [{"idx": 0, "lat": 38.94124777, "lon": -92.31884882, "current": true}, {"idx": 1, "lat": 38.9412436, "lon": -92.31878981, "current": false}, {"idx": 2, "lat": 38.94120606, "lon": -92.3187308, "current": false}, {"idx": 3, "lat": 38.94124047, "lon": -92.31867984, "current": false}, {"idx": 4, "lat": 38.94124047, "lon": -92.31856987, "current": false}, {"idx": 5, "lat": 38.94121959, "lon": -92.31852293, "current": false}, {"idx": 6, "lat": 38.94114243, "lon": -92.31852159, "current": false}], "waiting_at_wp": false, "waiting_wp_idx": null, "imu_raw": {"type": "imu_frame", "version": 1, "rot": {"qi": 0.022, "qj": 0.018, "qk": -0.827, "qr": 0.561}, "euler": {"roll": -0.29, "pitch": 3.24, "yaw": 356.65, "north_offset_deg": 108.3264}, "hz": 48.0, "heading": {"raw": 50.728, "deg": 159.054, "dir": "SSE"}, "ts": 1598029, "game_rot": {"qi": 0.01, "qj": 0.027, "qk": -0.428, "qr": 0.903}, "accel": {"x": -0.56, "y": -0.06, "z": 9.84}, "lin_accel": {"x": 0.01, "y": -0.01, "z": -0.03}, "gravity": {"x": -0.57, "y": -0.05, "z": 9.88}, "gyro": {"x": 0.0, "y": 0.0, "z": 0.0}, "mag": {"x": -23.3, "y": 0.7, "z": 2.8}, "steps": 0, "cal": 0}, "rtk_raw": {"type": "rtk_frame", "version": 1, "lat": 38.941280078333335, "lon": -92.31895103666666, "alt": 236.814, "fix_quality": 4, "num_sats": 15, "hdop": 1.2, "speed_knots": 0.08, "track_deg": 335.57, "rtk_ts": 1777438797.6144671, "server_ts": 1777438797.926959, "source": "rtk"}}
{"type": "autonav_status", "version": 1, "state": "idle", "current_wp_idx": 0, "total_wp": 7, "heading_deg": 159.054, "target_bearing_deg": 112.1, "bearing_error_deg": -46.9, "dist_to_wp_m": 9.55, "linear": 0.0, "angular": 0.0, "gps_age_s": 0.16, "gps_packet_age_s": 0.16, "gps_fix_quality": 4, "sensor_block_reason": null, "imu_age_s": 0.02, "speed_ratio": 1.0, "manual_speed": 0.4, "calib": {"mark": {"lat": 38.94126383, "lon": -92.31894309833334}, "offset_applied": 108.32644748105147}, "waypoints_window": [{"idx": 0, "lat": 38.94124777, "lon": -92.31884882, "current": true}, {"idx": 1, "lat": 38.9412436, "lon": -92.31878981, "current": false}, {"idx": 2, "lat": 38.94120606, "lon": -92.3187308, "current": false}, {"idx": 3, "lat": 38.94124047, "lon": -92.31867984, "current": false}, {"idx": 4, "lat": 38.94124047, "lon": -92.31856987, "current": false}, {"idx": 5, "lat": 38.94121959, "lon": -92.31852293, "current": false}, {"idx": 6, "lat": 38.94114243, "lon": -92.31852159, "current": false}], "waiting_at_wp": false, "waiting_wp_idx": null, "imu_raw": {"type": "imu_frame", "version": 1, "rot": {"qi": 0.022, "qj": 0.018, "qk": -0.827, "qr": 0.561}, "euler": {"roll": -0.29, "pitch": 3.24, "yaw": 356.65, "north_offset_deg": 108.3264}, "hz": 47.7, "heading": {"raw": 50.728, "deg": 159.054, "dir": "SSE"}, "ts": 1598226, "game_rot": {"qi": 0.01, "qj": 0.027, "qk": -0.428, "qr": 0.903}, "accel": {"x": -0.6, "y": -0.06, "z": 9.85}, "lin_accel": {"x": -0.03, "y": -0.01, "z": -0.03}, "gravity": {"x": -0.57, "y": -0.05, "z": 9.88}, "gyro": {"x": 0.0, "y": 0.0, "z": 0.0}, "mag": {"x": -23.9, "y": 0.6, "z": 2.8}, "steps": 0, "cal": 0}, "rtk_raw": {"type": "rtk_frame", "version": 1, "lat": 38.941280078333335, "lon": -92.31895103666666, "alt": 236.814, "fix_quality": 4, "num_sats": 15, "hdop": 1.2, "speed_knots": 0.08, "track_deg": 335.57, "rtk_ts": 1777438797.6144671, "server_ts": 1777438798.1281888, "source": "rtk"}}
{"type": "autonav_status", "version": 1, "state": "idle", "current_wp_idx": 0, "total_wp": 7, "heading_deg": 159.054, "target_bearing_deg": 112.1, "bearing_error_deg": -46.9, "dist_to_wp_m": 9.55, "linear": 0.0, "angular": 0.0, "gps_age_s": 0.16, "gps_packet_age_s": 0.16, "gps_fix_quality": 4, "sensor_block_reason": null, "imu_age_s": 0.02, "speed_ratio": 1.0, "manual_speed": 0.4, "calib": {"mark": {"lat": 38.94126383, "lon": -92.31894309833334}, "offset_applied": 108.32644748105147}, "waypoints_window": [{"idx": 0, "lat": 38.94124777, "lon": -92.31884882, "current": true}, {"idx": 1, "lat": 38.9412436, "lon": -92.31878981, "current": false}, {"idx": 2, "lat": 38.94120606, "lon": -92.3187308, "current": false}, {"idx": 3, "lat": 38.94124047, "lon": -92.31867984, "current": false}, {"idx": 4, "lat": 38.94124047, "lon": -92.31856987, "current": false}, {"idx": 5, "lat": 38.94121959, "lon": -92.31852293, "current": false}, {"idx": 6, "lat": 38.94114243, "lon": -92.31852159, "current": false}], "waiting_at_wp": false, "waiting_wp_idx": null, "imu_raw": {"type": "imu_frame", "version": 1, "rot": {"qi": 0.022, "qj": 0.018, "qk": -0.827, "qr": 0.561}, "euler": {"roll": -0.29, "pitch": 3.24, "yaw": 356.65, "north_offset_deg": 108.3264}, "hz": 47.8, "heading": {"raw": 50.728, "deg": 159.054, "dir": "SSE"}, "ts": 1598430, "game_rot": {"qi": 0.01, "qj": 0.027, "qk": -0.428, "qr": 0.903}, "accel": {"x": -0.56, "y": -0.06, "z": 9.88}, "lin_accel": {"x": 0.01, "y": -0.01, "z": 0.01}, "gravity": {"x": -0.57, "y": -0.05, "z": 9.88}, "gyro": {"x": 0.0, "y": 0.0, "z": 0.0}, "mag": {"x": -23.9, "y": 0.7, "z": 3.1}, "steps": 0, "cal": 0}, "rtk_raw": {"type": "rtk_frame", "version": 1, "lat": 38.941280078333335, "lon": -92.31895103666666, "alt": 236.814, "fix_quality": 4, "num_sats": 15, "hdop": 1.2, "speed_knots": 0.08, "track_deg": 335.57, "rtk_ts": 1777438797.6144671, "server_ts": 1777438798.329382, "source": "rtk"}}
{"type": "autonav_status", "version": 1, "state": "idle", "current_wp_idx": 0, "total_wp": 7, "heading_deg": 159.054, "target_bearing_deg": 112.1, "bearing_error_deg": -46.9, "dist_to_wp_m": 9.55, "linear": 0.0, "angular": 0.0, "gps_age_s": 0.16, "gps_packet_age_s": 0.16, "gps_fix_quality": 4, "sensor_block_reason": null, "imu_age_s": 0.01, "speed_ratio": 1.0, "manual_speed": 0.4, "calib": {"mark": {"lat": 38.94126383, "lon": -92.31894309833334}, "offset_applied": 108.32644748105147}, "waypoints_window": [{"idx": 0, "lat": 38.94124777, "lon": -92.31884882, "current": true}, {"idx": 1, "lat": 38.9412436, "lon": -92.31878981, "current": false}, {"idx": 2, "lat": 38.94120606, "lon": -92.3187308, "current": false}, {"idx": 3, "lat": 38.94124047, "lon": -92.31867984, "current": false}, {"idx": 4, "lat": 38.94124047, "lon": -92.31856987, "current": false}, {"idx": 5, "lat": 38.94121959, "lon": -92.31852293, "current": false}, {"idx": 6, "lat": 38.94114243, "lon": -92.31852159, "current": false}], "waiting_at_wp": false, "waiting_wp_idx": null, "imu_raw": {"type": "imu_frame", "version": 1, "rot": {"qi": 0.022, "qj": 0.018, "qk": -0.827, "qr": 0.561}, "euler": {"roll": -0.29, "pitch": 3.24, "yaw": 356.65, "north_offset_deg": 108.3264}, "hz": 48.0, "heading": {"raw": 50.728, "deg": 159.054, "dir": "SSE"}, "ts": 1598639, "game_rot": {"qi": 0.01, "qj": 0.027, "qk": -0.428, "qr": 0.903}, "accel": {"x": -0.56, "y": -0.06, "z": 9.88}, "lin_accel": {"x": 0.01, "y": -0.01, "z": 0.0}, "gravity": {"x": -0.57, "y": -0.05, "z": 9.88}, "gyro": {"x": 0.0, "y": 0.0, "z": 0.0}, "mag": {"x": -23.9, "y": 0.6, "z": 2.7}, "steps": 0, "cal": 0}, "rtk_raw": {"type": "rtk_frame", "version": 1, "lat": 38.941280078333335, "lon": -92.31895103666666, "alt": 236.814, "fix_quality": 4, "num_sats": 15, "hdop": 1.2, "speed_knots": 0.08, "track_deg": 335.57, "rtk_ts": 1777438797.6144671, "server_ts": 1777438798.5298848, "source": "rtk"}}
{"type": "autonav_status", "version": 1, "state": "idle", "current_wp_idx": 0, "total_wp": 7, "heading_deg": 159.054, "target_bearing_deg": 112.1, "bearing_error_deg": -46.9, "dist_to_wp_m": 9.55, "linear": 0.0, "angular": 0.0, "gps_age_s": 0.16, "gps_packet_age_s": 0.16, "gps_fix_quality": 4, "sensor_block_reason": null, "imu_age_s": 0.0, "speed_ratio": 1.0, "manual_speed": 0.4, "calib": {"mark": {"lat": 38.94126383, "lon": -92.31894309833334}, "offset_applied": 108.32644748105147}, "waypoints_window": [{"idx": 0, "lat": 38.94124777, "lon": -92.31884882, "current": true}, {"idx": 1, "lat": 38.9412436, "lon": -92.31878981, "current": false}, {"idx": 2, "lat": 38.94120606, "lon": -92.3187308, "current": false}, {"idx": 3, "lat": 38.94124047, "lon": -92.31867984, "current": false}, {"idx": 4, "lat": 38.94124047, "lon": -92.31856987, "current": false}, {"idx": 5, "lat": 38.94121959, "lon": -92.31852293, "current": false}, {"idx": 6, "lat": 38.94114243, "lon": -92.31852159, "current": false}], "waiting_at_wp": false, "waiting_wp_idx": null, "imu_raw": {"type": "imu_frame", "version": 1, "rot": {"qi": 0.022, "qj": 0.018, "qk": -0.827, "qr": 0.561}, "euler": {"roll": -0.29, "pitch": 3.24, "yaw": 356.65, "north_offset_deg": 108.3264}, "hz": 48.2, "heading": {"raw": 50.728, "deg": 159.054, "dir": "SSE"}, "ts": 1598845, "game_rot": {"qi": 0.01, "qj": 0.027, "qk": -0.428, "qr": 0.903}, "accel": {"x": -0.56, "y": -0.06, "z": 9.88}, "lin_accel": {"x": 0.01, "y": -0.01, "z": 0.0}, "gravity": {"x": -0.57, "y": -0.05, "z": 9.88}, "gyro": {"x": 0.0, "y": 0.0, "z": 0.0}, "mag": {"x": -23.2, "y": 0.6, "z": 1.4}, "steps": 0, "cal": 0}, "rtk_raw": {"type": "rtk_frame", "version": 1, "lat": 38.941280078333335, "lon": -92.31895105166667, "alt": 236.814, "fix_quality": 4, "num_sats": 15, "hdop": 1.2, "speed_knots": 0.02, "track_deg": 335.57, "rtk_ts": 1777438798.612437, "server_ts": 1777438798.731164, "source": "rtk"}}
{"type": "autonav_status", "version": 1, "state": "idle", "current_wp_idx": 0, "total_wp": 7, "heading_deg": 159.054, "target_bearing_deg": 112.1, "bearing_error_deg": -46.9, "dist_to_wp_m": 9.55, "linear": 0.0, "angular": 0.0, "gps_age_s": 0.16, "gps_packet_age_s": 0.16, "gps_fix_quality": 4, "sensor_block_reason": null, "imu_age_s": 0.02, "speed_ratio": 1.0, "manual_speed": 0.4, "calib": {"mark": {"lat": 38.94126383, "lon": -92.31894309833334}, "offset_applied": 108.32644748105147}, "waypoints_window": [{"idx": 0, "lat": 38.94124777, "lon": -92.31884882, "current": true}, {"idx": 1, "lat": 38.9412436, "lon": -92.31878981, "current": false}, {"idx": 2, "lat": 38.94120606, "lon": -92.3187308, "current": false}, {"idx": 3, "lat": 38.94124047, "lon": -92.31867984, "current": false}, {"idx": 4, "lat": 38.94124047, "lon": -92.31856987, "current": false}, {"idx": 5, "lat": 38.94121959, "lon": -92.31852293, "current": false}, {"idx": 6, "lat": 38.94114243, "lon": -92.31852159, "current": false}], "waiting_at_wp": false, "waiting_wp_idx": null, "imu_raw": {"type": "imu_frame", "version": 1, "rot": {"qi": 0.022, "qj": 0.018, "qk": -0.827, "qr": 0.561}, "euler": {"roll": -0.29, "pitch": 3.24, "yaw": 356.65, "north_offset_deg": 108.3264}, "hz": 48.0, "heading": {"raw": 50.728, "deg": 159.054, "dir": "SSE"}, "ts": 1599030, "game_rot": {"qi": 0.01, "qj": 0.027, "qk": -0.428, "qr": 0.903}, "accel": {"x": -0.56, "y": -0.06, "z": 9.84}, "lin_accel": {"x": 0.01, "y": -0.01, "z": -0.04}, "gravity": {"x": -0.57, "y": -0.05, "z": 9.88}, "gyro": {"x": 0.0, "y": 0.0, "z": 0.0}, "mag": {"x": -23.2, "y": 0.6, "z": 2.2}, "steps": 0, "cal": 0}, "rtk_raw": {"type": "rtk_frame", "version": 1, "lat": 38.941280078333335, "lon": -92.31895105166667, "alt": 236.814, "fix_quality": 4, "num_sats": 15, "hdop": 1.2, "speed_knots": 0.02, "track_deg": 335.57, "rtk_ts": 1777438798.612437, "server_ts": 1777438798.93242, "source": "rtk"}}
{"type": "autonav_status", "version": 1, "state": "idle", "current_wp_idx": 0, "total_wp": 7, "heading_deg": 159.054, "target_bearing_deg": 112.1, "bearing_error_deg": -46.9, "dist_to_wp_m": 9.55, "linear": 0.0, "angular": 0.0, "gps_age_s": 0.16, "gps_packet_age_s": 0.16, "gps_fix_quality": 4, "sensor_block_reason": null, "imu_age_s": 0.02, "speed_ratio": 1.0, "manual_speed": 0.4, "calib": {"mark": {"lat": 38.94126383, "lon": -92.31894309833334}, "offset_applied": 108.32644748105147}, "waypoints_window": [{"idx": 0, "lat": 38.94124777, "lon": -92.31884882, "current": true}, {"idx": 1, "lat": 38.9412436, "lon": -92.31878981, "current": false}, {"idx": 2, "lat": 38.94120606, "lon": -92.3187308, "current": false}, {"idx": 3, "lat": 38.94124047, "lon": -92.31867984, "current": false}, {"idx": 4, "lat": 38.94124047, "lon": -92.31856987, "current": false}, {"idx": 5, "lat": 38.94121959, "lon": -92.31852293, "current": false}, {"idx": 6, "lat": 38.94114243, "lon": -92.31852159, "current": false}], "waiting_at_wp": false, "waiting_wp_idx": null, "imu_raw": {"type": "imu_frame", "version": 1, "rot": {"qi": 0.022, "qj": 0.018, "qk": -0.827, "qr": 0.561}, "euler": {"roll": -0.29, "pitch": 3.24, "yaw": 356.65, "north_offset_deg": 108.3264}, "hz": 48.8, "heading": {"raw": 50.728, "deg": 159.054, "dir": "SSE"}, "ts": 1599231, "game_rot": {"qi": 0.01, "qj": 0.027, "qk": -0.428, "qr": 0.903}, "accel": {"x": -0.56, "y": -0.06, "z": 9.84}, "lin_accel": {"x": -0.03, "y": 0.03, "z": 0.0}, "gravity": {"x": -0.57, "y": -0.05, "z": 9.88}, "gyro": {"x": 0.0, "y": 0.0, "z": 0.0}, "mag": {"x": -24.2, "y": 1.3, "z": 1.9}, "steps": 0, "cal": 0}, "rtk_raw": {"type": "rtk_frame", "version": 1, "lat": 38.941280078333335, "lon": -92.31895105166667, "alt": 236.814, "fix_quality": 4, "num_sats": 15, "hdop": 1.2, "speed_knots": 0.02, "track_deg": 335.57, "rtk_ts": 1777438798.612437, "server_ts": 1777438799.1336598, "source": "rtk"}}
{"type": "autonav_status", "version": 1, "state": "idle", "current_wp_idx": 0, "total_wp": 7, "heading_deg": 159.054, "target_bearing_deg": 112.1, "bearing_error_deg": -46.9, "dist_to_wp_m": 9.55, "linear": 0.0, "angular": 0.0, "gps_age_s": 0.16, "gps_packet_age_s": 0.16, "gps_fix_quality": 4, "sensor_block_reason": null, "imu_age_s": 0.01, "speed_ratio": 1.0, "manual_speed": 0.4, "calib": {"mark": {"lat": 38.94126383, "lon": -92.31894309833334}, "offset_applied": 108.32644748105147}, "waypoints_window": [{"idx": 0, "lat": 38.94124777, "lon": -92.31884882, "current": true}, {"idx": 1, "lat": 38.9412436, "lon": -92.31878981, "current": false}, {"idx": 2, "lat": 38.94120606, "lon": -92.3187308, "current": false}, {"idx": 3, "lat": 38.94124047, "lon": -92.31867984, "current": false}, {"idx": 4, "lat": 38.94124047, "lon": -92.31856987, "current": false}, {"idx": 5, "lat": 38.94121959, "lon": -92.31852293, "current": false}, {"idx": 6, "lat": 38.94114243, "lon": -92.31852159, "current": false}], "waiting_at_wp": false, "waiting_wp_idx": null, "imu_raw": {"type": "imu_frame", "version": 1, "rot": {"qi": 0.022, "qj": 0.018, "qk": -0.827, "qr": 0.561}, "euler": {"roll": -0.29, "pitch": 3.24, "yaw": 356.65, "north_offset_deg": 108.3264}, "hz": 48.4, "heading": {"raw": 50.728, "deg": 159.054, "dir": "SSE"}, "ts": 1599441, "game_rot": {"qi": 0.01, "qj": 0.027, "qk": -0.428, "qr": 0.903}, "accel": {"x": -0.56, "y": -0.06, "z": 9.88}, "lin_accel": {"x": 0.01, "y": -0.01, "z": 0.01}, "gravity": {"x": -0.57, "y": -0.05, "z": 9.88}, "gyro": {"x": 0.0, "y": 0.0, "z": 0.0}, "mag": {"x": -24.3, "y": 0.2, "z": 1.9}, "steps": 0, "cal": 0}, "rtk_raw": {"type": "rtk_frame", "version": 1, "lat": 38.941280078333335, "lon": -92.31895105166667, "alt": 236.814, "fix_quality": 4, "num_sats": 15, "hdop": 1.2, "speed_knots": 0.02, "track_deg": 335.57, "rtk_ts": 1777438798.612437, "server_ts": 1777438799.334877, "source": "rtk"}}
{"type": "autonav_status", "version": 1, "state": "idle", "current_wp_idx": 0, "total_wp": 7, "heading_deg": 159.054, "target_bearing_deg": 112.1, "bearing_error_deg": -46.9, "dist_to_wp_m": 9.55, "linear": 0.0, "angular": 0.0, "gps_age_s": 0.16, "gps_packet_age_s": 0.16, "gps_fix_quality": 4, "sensor_block_reason": null, "imu_age_s": 0.0, "speed_ratio": 1.0, "manual_speed": 0.4, "calib": {"mark": {"lat": 38.94126383, "lon": -92.31894309833334}, "offset_applied": 108.32644748105147}, "waypoints_window": [{"idx": 0, "lat": 38.94124777, "lon": -92.31884882, "current": true}, {"idx": 1, "lat": 38.9412436, "lon": -92.31878981, "current": false}, {"idx": 2, "lat": 38.94120606, "lon": -92.3187308, "current": false}, {"idx": 3, "lat": 38.94124047, "lon": -92.31867984, "current": false}, {"idx": 4, "lat": 38.94124047, "lon": -92.31856987, "current": false}, {"idx": 5, "lat": 38.94121959, "lon": -92.31852293, "current": false}, {"idx": 6, "lat": 38.94114243, "lon": -92.31852159, "current": false}], "waiting_at_wp": false, "waiting_wp_idx": null, "imu_raw": {"type": "imu_frame", "version": 1, "rot": {"qi": 0.022, "qj": 0.018, "qk": -0.827, "qr": 0.561}, "euler": {"roll": -0.29, "pitch": 3.24, "yaw": 356.65, "north_offset_deg": 108.3264}, "hz": 48.3, "heading": {"raw": 50.728, "deg": 159.054, "dir": "SSE"}, "ts": 1599653, "game_rot": {"qi": 0.01, "qj": 0.027, "qk": -0.428, "qr": 0.903}, "accel": {"x": -0.56, "y": -0.06, "z": 9.88}, "lin_accel": {"x": 0.01, "y": -0.01, "z": 0.01}, "gravity": {"x": -0.57, "y": -0.05, "z": 9.88}, "gyro": {"x": 0.0, "y": 0.0, "z": 0.0}, "mag": {"x": -22.2, "y": 1.1, "z": 3.1}, "steps": 0, "cal": 0}, "rtk_raw": {"type": "rtk_frame", "version": 1, "lat": 38.941280078333335, "lon": -92.31895105166667, "alt": 236.814, "fix_quality": 4, "num_sats": 15, "hdop": 1.2, "speed_knots": 0.02, "track_deg": 335.57, "rtk_ts": 1777438798.612437, "server_ts": 1777438799.536064, "source": "rtk"}}
{"type": "autonav_status", "version": 1, "state": "idle", "current_wp_idx": 0, "total_wp": 7, "heading_deg": 159.054, "target_bearing_deg": 112.1, "bearing_error_deg": -47.0, "dist_to_wp_m": 9.55, "linear": 0.0, "angular": 0.0, "gps_age_s": 0.16, "gps_packet_age_s": 0.16, "gps_fix_quality": 4, "sensor_block_reason": null, "imu_age_s": 0.0, "speed_ratio": 1.0, "manual_speed": 0.4, "calib": {"mark": {"lat": 38.94126383, "lon": -92.31894309833334}, "offset_applied": 108.32644748105147}, "waypoints_window": [{"idx": 0, "lat": 38.94124777, "lon": -92.31884882, "current": true}, {"idx": 1, "lat": 38.9412436, "lon": -92.31878981, "current": false}, {"idx": 2, "lat": 38.94120606, "lon": -92.3187308, "current": false}, {"idx": 3, "lat": 38.94124047, "lon": -92.31867984, "current": false}, {"idx": 4, "lat": 38.94124047, "lon": -92.31856987, "current": false}, {"idx": 5, "lat": 38.94121959, "lon": -92.31852293, "current": false}, {"idx": 6, "lat": 38.94114243, "lon": -92.31852159, "current": false}], "waiting_at_wp": false, "waiting_wp_idx": null, "imu_raw": {"type": "imu_frame", "version": 1, "rot": {"qi": 0.022, "qj": 0.018, "qk": -0.827, "qr": 0.561}, "euler": {"roll": -0.29, "pitch": 3.24, "yaw": 356.65, "north_offset_deg": 108.3264}, "hz": 48.3, "heading": {"raw": 50.728, "deg": 159.054, "dir": "SSE"}, "ts": 1599849, "game_rot": {"qi": 0.01, "qj": 0.027, "qk": -0.428, "qr": 0.903}, "accel": {"x": -0.56, "y": -0.02, "z": 9.89}, "lin_accel": {"x": 0.01, "y": 0.03, "z": 0.01}, "gravity": {"x": -0.57, "y": -0.05, "z": 9.88}, "gyro": {"x": 0.0, "y": 0.0, "z": 0.0}, "mag": {"x": -22.9, "y": 0.2, "z": 1.1}, "steps": 0, "cal": 0}, "rtk_raw": {"type": "rtk_frame", "version": 1, "lat": 38.941280058333334, "lon": -92.31895103666666, "alt": 236.818, "fix_quality": 4, "num_sats": 15, "hdop": 1.2, "speed_knots": 0.05, "track_deg": 335.57, "rtk_ts": 1777438799.60889, "server_ts": 1777438799.737256, "source": "rtk"}}
{"type": "autonav_status", "version": 1, "state": "running", "current_wp_idx": 0, "total_wp": 7, "heading_deg": 159.054, "target_bearing_deg": 112.1, "bearing_error_deg": -47.0, "dist_to_wp_m": 9.55, "linear": 0.0, "angular": 0.939, "gps_age_s": 0.16, "gps_packet_age_s": 0.16, "gps_fix_quality": 4, "sensor_block_reason": null, "imu_age_s": 0.0, "speed_ratio": 1.0, "manual_speed": 0.4, "calib": {"mark": {"lat": 38.94126383, "lon": -92.31894309833334}, "offset_applied": 108.32644748105147}, "waypoints_window": [{"idx": 0, "lat": 38.94124777, "lon": -92.31884882, "current": true}, {"idx": 1, "lat": 38.9412436, "lon": -92.31878981, "current": false}, {"idx": 2, "lat": 38.94120606, "lon": -92.3187308, "current": false}, {"idx": 3, "lat": 38.94124047, "lon": -92.31867984, "current": false}, {"idx": 4, "lat": 38.94124047, "lon": -92.31856987, "current": false}, {"idx": 5, "lat": 38.94121959, "lon": -92.31852293, "current": false}, {"idx": 6, "lat": 38.94114243, "lon": -92.31852159, "current": false}], "waiting_at_wp": false, "waiting_wp_idx": null, "imu_raw": {"type": "imu_frame", "version": 1, "rot": {"qi": 0.022, "qj": 0.018, "qk": -0.827, "qr": 0.561}, "euler": {"roll": -0.29, "pitch": 3.24, "yaw": 356.65, "north_offset_deg": 108.3264}, "hz": 47.9, "heading": {"raw": 50.728, "deg": 159.054, "dir": "SSE"}, "ts": 1600051, "game_rot": {"qi": 0.01, "qj": 0.027, "qk": -0.428, "qr": 0.903}, "accel": {"x": -0.56, "y": -0.06, "z": 9.88}, "lin_accel": {"x": 0.01, "y": -0.01, "z": 0.0}, "gravity": {"x": -0.57, "y": -0.05, "z": 9.88}, "gyro": {"x": 0.0, "y": 0.0, "z": 0.0}, "mag": {"x": -24.0, "y": -0.1, "z": 2.7}, "steps": 0, "cal": 0}, "rtk_raw": {"type": "rtk_frame", "version": 1, "lat": 38.941280058333334, "lon": -92.31895103666666, "alt": 236.818, "fix_quality": 4, "num_sats": 15, "hdop": 1.2, "speed_knots": 0.05, "track_deg": 335.57, "rtk_ts": 1777438799.60889, "server_ts": 1777438799.938483, "source": "rtk"}}
{"type": "autonav_status", "version": 1, "state": "running", "current_wp_idx": 0, "total_wp": 7, "heading_deg": 159.054, "target_bearing_deg": 112.1, "bearing_error_deg": -47.0, "dist_to_wp_m": 9.55, "linear": 0.0, "angular": 0.939, "gps_age_s": 0.16, "gps_packet_age_s": 0.16, "gps_fix_quality": 4, "sensor_block_reason": null, "imu_age_s": 0.02, "speed_ratio": 1.0, "manual_speed": 0.4, "calib": {"mark": {"lat": 38.94126383, "lon": -92.31894309833334}, "offset_applied": 108.32644748105147}, "waypoints_window": [{"idx": 0, "lat": 38.94124777, "lon": -92.31884882, "current": true}, {"idx": 1, "lat": 38.9412436, "lon": -92.31878981, "current": false}, {"idx": 2, "lat": 38.94120606, "lon": -92.3187308, "current": false}, {"idx": 3, "lat": 38.94124047, "lon": -92.31867984, "current": false}, {"idx": 4, "lat": 38.94124047, "lon": -92.31856987, "current": false}, {"idx": 5, "lat": 38.94121959, "lon": -92.31852293, "current": false}, {"idx": 6, "lat": 38.94114243, "lon": -92.31852159, "current": false}], "waiting_at_wp": false, "waiting_wp_idx": null, "imu_raw": {"type": "imu_frame", "version": 1, "rot": {"qi": 0.022, "qj": 0.018, "qk": -0.827, "qr": 0.561}, "euler": {"roll": -0.29, "pitch": 3.24, "yaw": 356.65, "north_offset_deg": 108.3264}, "hz": 47.8, "heading": {"raw": 50.728, "deg": 159.054, "dir": "SSE"}, "ts": 1600240, "game_rot": {"qi": 0.01, "qj": 0.027, "qk": -0.428, "qr": 0.903}, "accel": {"x": -0.56, "y": -0.06, "z": 9.88}, "lin_accel": {"x": 0.01, "y": -0.01, "z": 0.0}, "gravity": {"x": -0.57, "y": -0.05, "z": 9.88}, "gyro": {"x": 0.0, "y": 0.0, "z": 0.0}, "mag": {"x": -23.6, "y": 0.6, "z": 1.9}, "steps": 0, "cal": 0}, "rtk_raw": {"type": "rtk_frame", "version": 1, "lat": 38.941280058333334, "lon": -92.31895103666666, "alt": 236.818, "fix_quality": 4, "num_sats": 15, "hdop": 1.2, "speed_knots": 0.05, "track_deg": 335.57, "rtk_ts": 1777438799.60889, "server_ts": 1777438800.139064, "source": "rtk"}}
{"type": "autonav_status", "version": 1, "state": "running", "current_wp_idx": 0, "total_wp": 7, "heading_deg": 159.054, "target_bearing_deg": 112.1, "bearing_error_deg": -47.0, "dist_to_wp_m": 9.55, "linear": 0.0, "angular": 0.939, "gps_age_s": 0.16, "gps_packet_age_s": 0.16, "gps_fix_quality": 4, "sensor_block_reason": null, "imu_age_s": 0.01, "speed_ratio": 1.0, "manual_speed": 0.4, "calib": {"mark": {"lat": 38.94126383, "lon": -92.31894309833334}, "offset_applied": 108.32644748105147}, "waypoints_window": [{"idx": 0, "lat": 38.94124777, "lon": -92.31884882, "current": true}, {"idx": 1, "lat": 38.9412436, "lon": -92.31878981, "current": false}, {"idx": 2, "lat": 38.94120606, "lon": -92.3187308, "current": false}, {"idx": 3, "lat": 38.94124047, "lon": -92.31867984, "current": false}, {"idx": 4, "lat": 38.94124047, "lon": -92.31856987, "current": false}, {"idx": 5, "lat": 38.94121959, "lon": -92.31852293, "current": false}, {"idx": 6, "lat": 38.94114243, "lon": -92.31852159, "current": false}], "waiting_at_wp": false, "waiting_wp_idx": null, "imu_raw": {"type": "imu_frame", "version": 1, "rot": {"qi": 0.022, "qj": 0.018, "qk": -0.827, "qr": 0.561}, "euler": {"roll": -0.29, "pitch": 3.24, "yaw": 356.65, "north_offset_deg": 108.3264}, "hz": 47.6, "heading": {"raw": 50.728, "deg": 159.054, "dir": "SSE"}, "ts": 1600451, "game_rot": {"qi": 0.01, "qj": 0.027, "qk": -0.428, "qr": 0.903}, "accel": {"x": -0.56, "y": -0.06, "z": 9.88}, "lin_accel": {"x": 0.01, "y": -0.01, "z": 0.0}, "gravity": {"x": -0.57, "y": -0.05, "z": 9.88}, "gyro": {"x": 0.0, "y": 0.0, "z": 0.0}, "mag": {"x": -23.6, "y": 1.0, "z": 1.9}, "steps": 0, "cal": 0}, "rtk_raw": {"type": "rtk_frame", "version": 1, "lat": 38.941280058333334, "lon": -92.31895103666666, "alt": 236.818, "fix_quality": 4, "num_sats": 15, "hdop": 1.2, "speed_knots": 0.05, "track_deg": 335.57, "rtk_ts": 1777438799.60889, "server_ts": 1777438800.3402472, "source": "rtk"}}
{"type": "autonav_status", "version": 1, "state": "running", "current_wp_idx": 0, "total_wp": 7, "heading_deg": 159.054, "target_bearing_deg": 112.1, "bearing_error_deg": -47.0, "dist_to_wp_m": 9.55, "linear": 0.0, "angular": 0.939, "gps_age_s": 0.16, "gps_packet_age_s": 0.16, "gps_fix_quality": 4, "sensor_block_reason": null, "imu_age_s": 0.02, "speed_ratio": 1.0, "manual_speed": 0.4, "calib": {"mark": {"lat": 38.94126383, "lon": -92.31894309833334}, "offset_applied": 108.32644748105147}, "waypoints_window": [{"idx": 0, "lat": 38.94124777, "lon": -92.31884882, "current": true}, {"idx": 1, "lat": 38.9412436, "lon": -92.31878981, "current": false}, {"idx": 2, "lat": 38.94120606, "lon": -92.3187308, "current": false}, {"idx": 3, "lat": 38.94124047, "lon": -92.31867984, "current": false}, {"idx": 4, "lat": 38.94124047, "lon": -92.31856987, "current": false}, {"idx": 5, "lat": 38.94121959, "lon": -92.31852293, "current": false}, {"idx": 6, "lat": 38.94114243, "lon": -92.31852159, "current": false}], "waiting_at_wp": false, "waiting_wp_idx": null, "imu_raw": {"type": "imu_frame", "version": 1, "rot": {"qi": 0.022, "qj": 0.018, "qk": -0.827, "qr": 0.561}, "euler": {"roll": -0.29, "pitch": 3.24, "yaw": 356.65, "north_offset_deg": 108.3264}, "hz": 47.6, "heading": {"raw": 50.728, "deg": 159.054, "dir": "SSE"}, "ts": 1600640, "game_rot": {"qi": 0.01, "qj": 0.027, "qk": -0.428, "qr": 0.903}, "accel": {"x": -0.56, "y": -0.06, "z": 9.84}, "lin_accel": {"x": 0.01, "y": -0.01, "z": 0.0}, "gravity": {"x": -0.56, "y": -0.05, "z": 9.88}, "gyro": {"x": 0.0, "y": 0.0, "z": 0.0}, "mag": {"x": -22.9, "y": 1.4, "z": 1.9}, "steps": 0, "cal": 0}, "rtk_raw": {"type": "rtk_frame", "version": 1, "lat": 38.941280058333334, "lon": -92.31895103666666, "alt": 236.818, "fix_quality": 4, "num_sats": 15, "hdop": 1.2, "speed_knots": 0.05, "track_deg": 335.57, "rtk_ts": 1777438799.60889, "server_ts": 1777438800.541439, "source": "rtk"}}
{"type": "autonav_status", "version": 1, "state": "running", "current_wp_idx": 0, "total_wp": 7, "heading_deg": 159.054, "target_bearing_deg": 112.1, "bearing_error_deg": -46.9, "dist_to_wp_m": 9.56, "linear": 0.0, "angular": 0.939, "gps_age_s": 0.16, "gps_packet_age_s": 0.16, "gps_fix_quality": 4, "sensor_block_reason": null, "imu_age_s": 0.02, "speed_ratio": 1.0, "manual_speed": 0.4, "calib": {"mark": {"lat": 38.94126383, "lon": -92.31894309833334}, "offset_applied": 108.32644748105147}, "waypoints_window": [{"idx": 0, "lat": 38.94124777, "lon": -92.31884882, "current": true}, {"idx": 1, "lat": 38.9412436, "lon": -92.31878981, "current": false}, {"idx": 2, "lat": 38.94120606, "lon": -92.3187308, "current": false}, {"idx": 3, "lat": 38.94124047, "lon": -92.31867984, "current": false}, {"idx": 4, "lat": 38.94124047, "lon": -92.31856987, "current": false}, {"idx": 5, "lat": 38.94121959, "lon": -92.31852293, "current": false}, {"idx": 6, "lat": 38.94114243, "lon": -92.31852159, "current": false}], "waiting_at_wp": false, "waiting_wp_idx": null, "imu_raw": {"type": "imu_frame", "version": 1, "rot": {"qi": 0.022, "qj": 0.018, "qk": -0.827, "qr": 0.561}, "euler": {"roll": -0.29, "pitch": 3.24, "yaw": 356.65, "north_offset_deg": 108.3264}, "hz": 48.4, "heading": {"raw": 50.728, "deg": 159.054, "dir": "SSE"}, "ts": 1600840, "game_rot": {"qi": 0.01, "qj": 0.027, "qk": -0.428, "qr": 0.903}, "accel": {"x": -0.56, "y": -0.02, "z": 9.85}, "lin_accel": {"x": 0.0, "y": -0.02, "z": -0.03}, "gravity": {"x": -0.56, "y": -0.05, "z": 9.88}, "gyro": {"x": 0.0, "y": 0.0, "z": 0.0}, "mag": {"x": -23.2, "y": 2.2, "z": 2.3}, "steps": 0, "cal": 0}, "rtk_raw": {"type": "rtk_frame", "version": 1, "lat": 38.94128008, "lon": -92.31895106833333, "alt": 236.809, "fix_quality": 4, "num_sats": 15, "hdop": 1.2, "speed_knots": 0.01, "track_deg": 335.57, "rtk_ts": 1777438800.591487, "server_ts": 1777438800.7427342, "source": "rtk"}}
{"type": "autonav_status", "version": 1, "state": "running", "current_wp_idx": 0, "total_wp": 7, "heading_deg": 159.054, "target_bearing_deg": 112.1, "bearing_error_deg": -46.9, "dist_to_wp_m": 9.56, "linear": 0.0, "angular": 0.939, "gps_age_s": 0.16, "gps_packet_age_s": 0.16, "gps_fix_quality": 4, "sensor_block_reason": null, "imu_age_s": 0.0, "speed_ratio": 1.0, "manual_speed": 0.4, "calib": {"mark": {"lat": 38.94126383, "lon": -92.31894309833334}, "offset_applied": 108.32644748105147}, "waypoints_window": [{"idx": 0, "lat": 38.94124777, "lon": -92.31884882, "current": true}, {"idx": 1, "lat": 38.9412436, "lon": -92.31878981, "current": false}, {"idx": 2, "lat": 38.94120606, "lon": -92.3187308, "current": false}, {"idx": 3, "lat": 38.94124047, "lon": -92.31867984, "current": false}, {"idx": 4, "lat": 38.94124047, "lon": -92.31856987, "current": false}, {"idx": 5, "lat": 38.94121959, "lon": -92.31852293, "current": false}, {"idx": 6, "lat": 38.94114243, "lon": -92.31852159, "current": false}], "waiting_at_wp": false, "waiting_wp_idx": null, "imu_raw": {"type": "imu_frame", "version": 1, "rot": {"qi": 0.022, "qj": 0.018, "qk": -0.827, "qr": 0.561}, "euler": {"roll": -0.29, "pitch": 3.24, "yaw": 356.65, "north_offset_deg": 108.3264}, "hz": 48.6, "heading": {"raw": 50.728, "deg": 159.054, "dir": "SSE"}, "ts": 1601060, "game_rot": {"qi": 0.01, "qj": 0.027, "qk": -0.428, "qr": 0.903}, "accel": {"x": -0.56, "y": -0.06, "z": 9.88}, "lin_accel": {"x": 0.01, "y": -0.01, "z": 0.0}, "gravity": {"x": -0.57, "y": -0.05, "z": 9.88}, "gyro": {"x": 0.0, "y": 0.0, "z": 0.0}, "mag": {"x": -22.6, "y": 0.7, "z": 2.2}, "steps": 0, "cal": 0}, "rtk_raw": {"type": "rtk_frame", "version": 1, "lat": 38.94128008, "lon": -92.31895106833333, "alt": 236.809, "fix_quality": 4, "num_sats": 15, "hdop": 1.2, "speed_knots": 0.01, "track_deg": 335.57, "rtk_ts": 1777438800.591487, "server_ts": 1777438800.94385, "source": "rtk"}}
{"type": "autonav_status", "version": 1, "state": "running", "current_wp_idx": 0, "total_wp": 7, "heading_deg": 159.054, "target_bearing_deg": 112.1, "bearing_error_deg": -46.9, "dist_to_wp_m": 9.56, "linear": 0.0, "angular": 0.939, "gps_age_s": 0.16, "gps_packet_age_s": 0.16, "gps_fix_quality": 4, "sensor_block_reason": null, "imu_age_s": 0.01, "speed_ratio": 1.0, "manual_speed": 0.4, "calib": {"mark": {"lat": 38.94126383, "lon": -92.31894309833334}, "offset_applied": 108.32644748105147}, "waypoints_window": [{"idx": 0, "lat": 38.94124777, "lon": -92.31884882, "current": true}, {"idx": 1, "lat": 38.9412436, "lon": -92.31878981, "current": false}, {"idx": 2, "lat": 38.94120606, "lon": -92.3187308, "current": false}, {"idx": 3, "lat": 38.94124047, "lon": -92.31867984, "current": false}, {"idx": 4, "lat": 38.94124047, "lon": -92.31856987, "current": false}, {"idx": 5, "lat": 38.94121959, "lon": -92.31852293, "current": false}, {"idx": 6, "lat": 38.94114243, "lon": -92.31852159, "current": false}], "waiting_at_wp": false, "waiting_wp_idx": null, "imu_raw": {"type": "imu_frame", "version": 1, "rot": {"qi": 0.022, "qj": 0.018, "qk": -0.827, "qr": 0.561}, "euler": {"roll": -0.29, "pitch": 3.24, "yaw": 356.65, "north_offset_deg": 108.3264}, "hz": 48.5, "heading": {"raw": 50.728, "deg": 159.054, "dir": "SSE"}, "ts": 1601248, "game_rot": {"qi": 0.01, "qj": 0.027, "qk": -0.428, "qr": 0.903}, "accel": {"x": -0.56, "y": -0.02, "z": 9.85}, "lin_accel": {"x": 0.0, "y": 0.02, "z": -0.03}, "gravity": {"x": -0.56, "y": -0.05, "z": 9.88}, "gyro": {"x": 0.0, "y": 0.0, "z": 0.0}, "mag": {"x": -23.3, "y": -0.5, "z": 2.7}, "steps": 0, "cal": 0}, "rtk_raw": {"type": "rtk_frame", "version": 1, "lat": 38.94128008, "lon": -92.31895106833333, "alt": 236.809, "fix_quality": 4, "num_sats": 15, "hdop": 1.2, "speed_knots": 0.01, "track_deg": 335.57, "rtk_ts": 1777438800.591487, "server_ts": 1777438801.145142, "source": "rtk"}}
{"type": "autonav_status", "version": 1, "state": "running", "current_wp_idx": 0, "total_wp": 7, "heading_deg": 159.054, "target_bearing_deg": 112.1, "bearing_error_deg": -46.9, "dist_to_wp_m": 9.56, "linear": 0.0, "angular": 0.939, "gps_age_s": 0.16, "gps_packet_age_s": 0.16, "gps_fix_quality": 4, "sensor_block_reason": null, "imu_age_s": 0.01, "speed_ratio": 1.0, "manual_speed": 0.4, "calib": {"mark": {"lat": 38.94126383, "lon": -92.31894309833334}, "offset_applied": 108.32644748105147}, "waypoints_window": [{"idx": 0, "lat": 38.94124777, "lon": -92.31884882, "current": true}, {"idx": 1, "lat": 38.9412436, "lon": -92.31878981, "current": false}, {"idx": 2, "lat": 38.94120606, "lon": -92.3187308, "current": false}, {"idx": 3, "lat": 38.94124047, "lon": -92.31867984, "current": false}, {"idx": 4, "lat": 38.94124047, "lon": -92.31856987, "current": false}, {"idx": 5, "lat": 38.94121959, "lon": -92.31852293, "current": false}, {"idx": 6, "lat": 38.94114243, "lon": -92.31852159, "current": false}], "waiting_at_wp": false, "waiting_wp_idx": null, "imu_raw": {"type": "imu_frame", "version": 1, "rot": {"qi": 0.022, "qj": 0.018, "qk": -0.827, "qr": 0.561}, "euler": {"roll": -0.29, "pitch": 3.24, "yaw": 356.65, "north_offset_deg": 108.3264}, "hz": 48.9, "heading": {"raw": 50.728, "deg": 159.054, "dir": "SSE"}, "ts": 1601451, "game_rot": {"qi": 0.01, "qj": 0.027, "qk": -0.428, "qr": 0.903}, "accel": {"x": -0.56, "y": -0.06, "z": 9.84}, "lin_accel": {"x": 0.0, "y": -0.02, "z": 0.01}, "gravity": {"x": -0.56, "y": -0.05, "z": 9.88}, "gyro": {"x": 0.0, "y": 0.0, "z": 0.0}, "mag": {"x": -24.9, "y": 0.5, "z": 1.6}, "steps": 0, "cal": 0}, "rtk_raw": {"type": "rtk_frame", "version": 1, "lat": 38.94128008, "lon": -92.31895106833333, "alt": 236.809, "fix_quality": 4, "num_sats": 15, "hdop": 1.2, "speed_knots": 0.01, "track_deg": 335.57, "rtk_ts": 1777438800.591487, "server_ts": 1777438801.346452, "source": "rtk"}}
{"type": "autonav_status", "version": 1, "state": "running", "current_wp_idx": 0, "total_wp": 7, "heading_deg": 159.054, "target_bearing_deg": 112.1, "bearing_error_deg": -46.9, "dist_to_wp_m": 9.56, "linear": 0.0, "angular": 0.939, "gps_age_s": 0.16, "gps_packet_age_s": 0.16, "gps_fix_quality": 4, "sensor_block_reason": null, "imu_age_s": 0.01, "speed_ratio": 1.0, "manual_speed": 0.4, "calib": {"mark": {"lat": 38.94126383, "lon": -92.31894309833334}, "offset_applied": 108.32644748105147}, "waypoints_window": [{"idx": 0, "lat": 38.94124777, "lon": -92.31884882, "current": true}, {"idx": 1, "lat": 38.9412436, "lon": -92.31878981, "current": false}, {"idx": 2, "lat": 38.94120606, "lon": -92.3187308, "current": false}, {"idx": 3, "lat": 38.94124047, "lon": -92.31867984, "current": false}, {"idx": 4, "lat": 38.94124047, "lon": -92.31856987, "current": false}, {"idx": 5, "lat": 38.94121959, "lon": -92.31852293, "current": false}, {"idx": 6, "lat": 38.94114243, "lon": -92.31852159, "current": false}], "waiting_at_wp": false, "waiting_wp_idx": null, "imu_raw": {"type": "imu_frame", "version": 1, "rot": {"qi": 0.022, "qj": 0.018, "qk": -0.827, "qr": 0.561}, "euler": {"roll": -0.29, "pitch": 3.24, "yaw": 356.65, "north_offset_deg": 108.3264}, "hz": 49.4, "heading": {"raw": 50.728, "deg": 159.054, "dir": "SSE"}, "ts": 1601653, "game_rot": {"qi": 0.01, "qj": 0.027, "qk": -0.428, "qr": 0.903}, "accel": {"x": -0.56, "y": -0.06, "z": 9.88}, "lin_accel": {"x": 0.0, "y": -0.02, "z": 0.0}, "gravity": {"x": -0.56, "y": -0.05, "z": 9.88}, "gyro": {"x": 0.0, "y": 0.0, "z": 0.0}, "mag": {"x": -24.6, "y": 1.8, "z": 2.4}, "steps": 0, "cal": 0}, "rtk_raw": {"type": "rtk_frame", "version": 1, "lat": 38.94128008, "lon": -92.31895106833333, "alt": 236.809, "fix_quality": 4, "num_sats": 15, "hdop": 1.2, "speed_knots": 0.01, "track_deg": 335.57, "rtk_ts": 1777438800.591487, "server_ts": 1777438801.547668, "source": "rtk"}}
{"type": "autonav_status", "version": 1, "state": "running", "current_wp_idx": 0, "total_wp": 7, "heading_deg": 159.054, "target_bearing_deg": 112.1, "bearing_error_deg": -46.9, "dist_to_wp_m": 9.56, "linear": 0.0, "angular": 0.939, "gps_age_s": 0.16, "gps_packet_age_s": 0.16, "gps_fix_quality": 4, "sensor_block_reason": null, "imu_age_s": 0.0, "speed_ratio": 1.0, "manual_speed": 0.4, "calib": {"mark": {"lat": 38.94126383, "lon": -92.31894309833334}, "offset_applied": 108.32644748105147}, "waypoints_window": [{"idx": 0, "lat": 38.94124777, "lon": -92.31884882, "current": true}, {"idx": 1, "lat": 38.9412436, "lon": -92.31878981, "current": false}, {"idx": 2, "lat": 38.94120606, "lon": -92.3187308, "current": false}, {"idx": 3, "lat": 38.94124047, "lon": -92.31867984, "current": false}, {"idx": 4, "lat": 38.94124047, "lon": -92.31856987, "current": false}, {"idx": 5, "lat": 38.94121959, "lon": -92.31852293, "current": false}, {"idx": 6, "lat": 38.94114243, "lon": -92.31852159, "current": false}], "waiting_at_wp": false, "waiting_wp_idx": null, "imu_raw": {"type": "imu_frame", "version": 1, "rot": {"qi": 0.022, "qj": 0.018, "qk": -0.827, "qr": 0.561}, "euler": {"roll": -0.29, "pitch": 3.24, "yaw": 356.65, "north_offset_deg": 108.3264}, "hz": 48.9, "heading": {"raw": 50.728, "deg": 159.054, "dir": "SSE"}, "ts": 1601863, "game_rot": {"qi": 0.01, "qj": 0.027, "qk": -0.428, "qr": 0.903}, "accel": {"x": -0.56, "y": -0.06, "z": 9.84}, "lin_accel": {"x": -0.04, "y": -0.02, "z": 0.01}, "gravity": {"x": -0.56, "y": -0.05, "z": 9.88}, "gyro": {"x": 0.0, "y": 0.0, "z": 0.0}, "mag": {"x": -23.2, "y": 0.6, "z": 1.9}, "steps": 0, "cal": 0}, "rtk_raw": {"type": "rtk_frame", "version": 1, "lat": 38.94128009333333, "lon": -92.31895109333334, "alt": 236.812, "fix_quality": 4, "num_sats": 15, "hdop": 1.2, "speed_knots": 0.01, "track_deg": 335.57, "rtk_ts": 1777438801.614783, "server_ts": 1777438801.7489111, "source": "rtk"}}
{"type": "autonav_status", "version": 1, "state": "running", "current_wp_idx": 0, "total_wp": 7, "heading_deg": 159.054, "target_bearing_deg": 112.1, "bearing_error_deg": -46.9, "dist_to_wp_m": 9.56, "linear": 0.0, "angular": 0.939, "gps_age_s": 0.16, "gps_packet_age_s": 0.16, "gps_fix_quality": 4, "sensor_block_reason": null, "imu_age_s": 0.02, "speed_ratio": 1.0, "manual_speed": 0.4, "calib": {"mark": {"lat": 38.94126383, "lon": -92.31894309833334}, "offset_applied": 108.32644748105147}, "waypoints_window": [{"idx": 0, "lat": 38.94124777, "lon": -92.31884882, "current": true}, {"idx": 1, "lat": 38.9412436, "lon": -92.31878981, "current": false}, {"idx": 2, "lat": 38.94120606, "lon": -92.3187308, "current": false}, {"idx": 3, "lat": 38.94124047, "lon": -92.31867984, "current": false}, {"idx": 4, "lat": 38.94124047, "lon": -92.31856987, "current": false}, {"idx": 5, "lat": 38.94121959, "lon": -92.31852293, "current": false}, {"idx": 6, "lat": 38.94114243, "lon": -92.31852159, "current": false}], "waiting_at_wp": false, "waiting_wp_idx": null, "imu_raw": {"type": "imu_frame", "version": 1, "rot": {"qi": 0.022, "qj": 0.018, "qk": -0.827, "qr": 0.561}, "euler": {"roll": -0.29, "pitch": 3.24, "yaw": 356.65, "north_offset_deg": 108.3264}, "hz": 48.4, "heading": {"raw": 50.728, "deg": 159.054, "dir": "SSE"}, "ts": 1602052, "game_rot": {"qi": 0.01, "qj": 0.027, "qk": -0.428, "qr": 0.903}, "accel": {"x": -0.56, "y": -0.06, "z": 9.88}, "lin_accel": {"x": 0.01, "y": -0.01, "z": 0.0}, "gravity": {"x": -0.57, "y": -0.05, "z": 9.88}, "gyro": {"x": 0.0, "y": 0.0, "z": 0.0}, "mag": {"x": -23.9, "y": 0.2, "z": 1.4}, "steps": 0, "cal": 0}, "rtk_raw": {"type": "rtk_frame", "version": 1, "lat": 38.94128009333333, "lon": -92.31895109333334, "alt": 236.812, "fix_quality": 4, "num_sats": 15, "hdop": 1.2, "speed_knots": 0.01, "track_deg": 335.57, "rtk_ts": 1777438801.614783, "server_ts": 1777438801.950128, "source": "rtk"}}
{"type": "autonav_status", "version": 1, "state": "running", "current_wp_idx": 0, "total_wp": 7, "heading_deg": 159.054, "target_bearing_deg": 112.1, "bearing_error_deg": -46.9, "dist_to_wp_m": 9.56, "linear": 0.0, "angular": 0.939, "gps_age_s": 0.16, "gps_packet_age_s": 0.16, "gps_fix_quality": 4, "sensor_block_reason": null, "imu_age_s": 0.01, "speed_ratio": 1.0, "manual_speed": 0.4, "calib": {"mark": {"lat": 38.94126383, "lon": -92.31894309833334}, "offset_applied": 108.32644748105147}, "waypoints_window": [{"idx": 0, "lat": 38.94124777, "lon": -92.31884882, "current": true}, {"idx": 1, "lat": 38.9412436, "lon": -92.31878981, "current": false}, {"idx": 2, "lat": 38.94120606, "lon": -92.3187308, "current": false}, {"idx": 3, "lat": 38.94124047, "lon": -92.31867984, "current": false}, {"idx": 4, "lat": 38.94124047, "lon": -92.31856987, "current": false}, {"idx": 5, "lat": 38.94121959, "lon": -92.31852293, "current": false}, {"idx": 6, "lat": 38.94114243, "lon": -92.31852159, "current": false}], "waiting_at_wp": false, "waiting_wp_idx": null, "imu_raw": {"type": "imu_frame", "version": 1, "rot": {"qi": 0.022, "qj": 0.018, "qk": -0.827, "qr": 0.561}, "euler": {"roll": -0.29, "pitch": 3.24, "yaw": 356.65, "north_offset_deg": 108.3264}, "hz": 48.5, "heading": {"raw": 50.728, "deg": 159.054, "dir": "SSE"}, "ts": 1602258, "game_rot": {"qi": 0.01, "qj": 0.027, "qk": -0.428, "qr": 0.903}, "accel": {"x": -0.56, "y": -0.06, "z": 9.88}, "lin_accel": {"x": 0.01, "y": -0.01, "z": 0.0}, "gravity": {"x": -0.57, "y": -0.05, "z": 9.88}, "gyro": {"x": 0.0, "y": 0.0, "z": 0.0}, "mag": {"x": -23.9, "y": 0.9, "z": 1.1}, "steps": 0, "cal": 0}, "rtk_raw": {"type": "rtk_frame", "version": 1, "lat": 38.94128009333333, "lon": -92.31895109333334, "alt": 236.812, "fix_quality": 4, "num_sats": 15, "hdop": 1.2, "speed_knots": 0.01, "track_deg": 335.57, "rtk_ts": 1777438801.614783, "server_ts": 1777438802.150978, "source": "rtk"}}
{"type": "autonav_status", "version": 1, "state": "running", "current_wp_idx": 0, "total_wp": 7, "heading_deg": 159.054, "target_bearing_deg": 112.1, "bearing_error_deg": -46.9, "dist_to_wp_m": 9.56, "linear": 0.0, "angular": 0.939, "gps_age_s": 0.17, "gps_packet_age_s": 0.17, "gps_fix_quality": 4, "sensor_block_reason": null, "imu_age_s": 0.01, "speed_ratio": 1.0, "manual_speed": 0.4, "calib": {"mark": {"lat": 38.94126383, "lon": -92.31894309833334}, "offset_applied": 108.32644748105147}, "waypoints_window": [{"idx": 0, "lat": 38.94124777, "lon": -92.31884882, "current": true}, {"idx": 1, "lat": 38.9412436, "lon": -92.31878981, "current": false}, {"idx": 2, "lat": 38.94120606, "lon": -92.3187308, "current": false}, {"idx": 3, "lat": 38.94124047, "lon": -92.31867984, "current": false}, {"idx": 4, "lat": 38.94124047, "lon": -92.31856987, "current": false}, {"idx": 5, "lat": 38.94121959, "lon": -92.31852293, "current": false}, {"idx": 6, "lat": 38.94114243, "lon": -92.31852159, "current": false}], "waiting_at_wp": false, "waiting_wp_idx": null, "imu_raw": {"type": "imu_frame", "version": 1, "rot": {"qi": 0.022, "qj": 0.018, "qk": -0.827, "qr": 0.561}, "euler": {"roll": -0.29, "pitch": 3.24, "yaw": 356.65, "north_offset_deg": 108.3264}, "hz": 48.5, "heading": {"raw": 50.728, "deg": 159.054, "dir": "SSE"}, "ts": 1602462, "game_rot": {"qi": 0.01, "qj": 0.027, "qk": -0.428, "qr": 0.903}, "accel": {"x": -0.56, "y": -0.06, "z": 9.88}, "lin_accel": {"x": 0.01, "y": 0.03, "z": 0.0}, "gravity": {"x": -0.56, "y": -0.05, "z": 9.88}, "gyro": {"x": 0.0, "y": 0.0, "z": 0.0}, "mag": {"x": -24.2, "y": 1.4, "z": 3.1}, "steps": 0, "cal": 0}, "rtk_raw": {"type": "rtk_frame", "version": 1, "lat": 38.94128009333333, "lon": -92.31895109333334, "alt": 236.812, "fix_quality": 4, "num_sats": 15, "hdop": 1.2, "speed_knots": 0.01, "track_deg": 335.57, "rtk_ts": 1777438801.614783, "server_ts": 1777438802.352245, "source": "rtk"}}
{"type": "autonav_status", "version": 1, "state": "running", "current_wp_idx": 0, "total_wp": 7, "heading_deg": 159.054, "target_bearing_deg": 112.1, "bearing_error_deg": -46.9, "dist_to_wp_m": 9.56, "linear": 0.0, "angular": 0.939, "gps_age_s": 0.16, "gps_packet_age_s": 0.16, "gps_fix_quality": 4, "sensor_block_reason": null, "imu_age_s": 0.0, "speed_ratio": 1.0, "manual_speed": 0.4, "calib": {"mark": {"lat": 38.94126383, "lon": -92.31894309833334}, "offset_applied": 108.32644748105147}, "waypoints_window": [{"idx": 0, "lat": 38.94124777, "lon": -92.31884882, "current": true}, {"idx": 1, "lat": 38.9412436, "lon": -92.31878981, "current": false}, {"idx": 2, "lat": 38.94120606, "lon": -92.3187308, "current": false}, {"idx": 3, "lat": 38.94124047, "lon": -92.31867984, "current": false}, {"idx": 4, "lat": 38.94124047, "lon": -92.31856987, "current": false}, {"idx": 5, "lat": 38.94121959, "lon": -92.31852293, "current": false}, {"idx": 6, "lat": 38.94114243, "lon": -92.31852159, "current": false}], "waiting_at_wp": false, "waiting_wp_idx": null, "imu_raw": {"type": "imu_frame", "version": 1, "rot": {"qi": 0.022, "qj": 0.018, "qk": -0.827, "qr": 0.561}, "euler": {"roll": -0.29, "pitch": 3.24, "yaw": 356.65, "north_offset_deg": 108.3264}, "hz": 48.1, "heading": {"raw": 50.728, "deg": 159.054, "dir": "SSE"}, "ts": 1602672, "game_rot": {"qi": 0.01, "qj": 0.027, "qk": -0.428, "qr": 0.903}, "accel": {"x": -0.56, "y": -0.06, "z": 9.88}, "lin_accel": {"x": 0.0, "y": -0.02, "z": 0.0}, "gravity": {"x": -0.56, "y": -0.05, "z": 9.88}, "gyro": {"x": 0.0, "y": 0.0, "z": 0.0}, "mag": {"x": -23.6, "y": 1.1, "z": 3.1}, "steps": 0, "cal": 0}, "rtk_raw": {"type": "rtk_frame", "version": 1, "lat": 38.94128009333333, "lon": -92.31895109333334, "alt": 236.812, "fix_quality": 4, "num_sats": 15, "hdop": 1.2, "speed_knots": 0.01, "track_deg": 335.57, "rtk_ts": 1777438801.614783, "server_ts": 1777438802.5530958, "source": "rtk"}}
{"type": "autonav_status", "version": 1, "state": "running", "current_wp_idx": 0, "total_wp": 7, "heading_deg": 159.054, "target_bearing_deg": 112.1, "bearing_error_deg": -47.0, "dist_to_wp_m": 9.56, "linear": 0.0, "angular": 0.939, "gps_age_s": 0.17, "gps_packet_age_s": 0.17, "gps_fix_quality": 4, "sensor_block_reason": null, "imu_age_s": 0.02, "speed_ratio": 1.0, "manual_speed": 0.4, "calib": {"mark": {"lat": 38.94126383, "lon": -92.31894309833334}, "offset_applied": 108.32644748105147}, "waypoints_window": [{"idx": 0, "lat": 38.94124777, "lon": -92.31884882, "current": true}, {"idx": 1, "lat": 38.9412436, "lon": -92.31878981, "current": false}, {"idx": 2, "lat": 38.94120606, "lon": -92.3187308, "current": false}, {"idx": 3, "lat": 38.94124047, "lon": -92.31867984, "current": false}, {"idx": 4, "lat": 38.94124047, "lon": -92.31856987, "current": false}, {"idx": 5, "lat": 38.94121959, "lon": -92.31852293, "current": false}, {"idx": 6, "lat": 38.94114243, "lon": -92.31852159, "current": false}], "waiting_at_wp": false, "waiting_wp_idx": null, "imu_raw": {"type": "imu_frame", "version": 1, "rot": {"qi": 0.022, "qj": 0.018, "qk": -0.827, "qr": 0.561}, "euler": {"roll": -0.29, "pitch": 3.24, "yaw": 356.65, "north_offset_deg": 108.3264}, "hz": 48.3, "heading": {"raw": 50.728, "deg": 159.054, "dir": "SSE"}, "ts": 1602856, "game_rot": {"qi": 0.01, "qj": 0.027, "qk": -0.428, "qr": 0.903}, "accel": {"x": -0.56, "y": -0.06, "z": 9.84}, "lin_accel": {"x": 0.0, "y": 0.02, "z": 0.0}, "gravity": {"x": -0.56, "y": -0.05, "z": 9.88}, "gyro": {"x": 0.0, "y": 0.0, "z": 0.0}, "mag": {"x": -23.9, "y": 0.6, "z": 2.8}, "steps": 0, "cal": 0}, "rtk_raw": {"type": "rtk_frame", "version": 1, "lat": 38.94128007, "lon": -92.31895112, "alt": 236.805, "fix_quality": 4, "num_sats": 15, "hdop": 1.2, "speed_knots": 0.03, "track_deg": 335.57, "rtk_ts": 1777438802.5950332, "server_ts": 1777438802.753661, "source": "rtk"}}
{"type": "autonav_status", "version": 1, "state": "running", "current_wp_idx": 0, "total_wp": 7, "heading_deg": 159.054, "target_bearing_deg": 112.1, "bearing_error_deg": -47.0, "dist_to_wp_m": 9.56, "linear": 0.0, "angular": 0.939, "gps_age_s": 0.19, "gps_packet_age_s": 0.19, "gps_fix_quality": 4, "sensor_block_reason": null, "imu_age_s": 0.02, "speed_ratio": 1.0, "manual_speed": 0.4, "calib": {"mark": {"lat": 38.94126383, "lon": -92.31894309833334}, "offset_applied": 108.32644748105147}, "waypoints_window": [{"idx": 0, "lat": 38.94124777, "lon": -92.31884882, "current": true}, {"idx": 1, "lat": 38.9412436, "lon": -92.31878981, "current": false}, {"idx": 2, "lat": 38.94120606, "lon": -92.3187308, "current": false}, {"idx": 3, "lat": 38.94124047, "lon": -92.31867984, "current": false}, {"idx": 4, "lat": 38.94124047, "lon": -92.31856987, "current": false}, {"idx": 5, "lat": 38.94121959, "lon": -92.31852293, "current": false}, {"idx": 6, "lat": 38.94114243, "lon": -92.31852159, "current": false}], "waiting_at_wp": false, "waiting_wp_idx": null, "imu_raw": {"type": "imu_frame", "version": 1, "rot": {"qi": 0.022, "qj": 0.018, "qk": -0.827, "qr": 0.561}, "euler": {"roll": -0.29, "pitch": 3.24, "yaw": 356.65, "north_offset_deg": 108.3264}, "hz": 48.1, "heading": {"raw": 50.728, "deg": 159.054, "dir": "SSE"}, "ts": 1603065, "game_rot": {"qi": 0.01, "qj": 0.027, "qk": -0.428, "qr": 0.903}, "accel": {"x": -0.6, "y": -0.06, "z": 9.89}, "lin_accel": {"x": -0.03, "y": -0.01, "z": 0.0}, "gravity": {"x": -0.57, "y": -0.05, "z": 9.88}, "gyro": {"x": 0.0, "y": 0.0, "z": 0.0}, "mag": {"x": -24.0, "y": -0.1, "z": 3.0}, "steps": 0, "cal": 0}, "rtk_raw": {"type": "rtk_frame", "version": 1, "lat": 38.94128007, "lon": -92.31895112, "alt": 236.805, "fix_quality": 4, "num_sats": 15, "hdop": 1.2, "speed_knots": 0.03, "track_deg": 335.57, "rtk_ts": 1777438802.5950332, "server_ts": 1777438802.9550998, "source": "rtk"}}
{"type": "autonav_status", "version": 1, "state": "running", "current_wp_idx": 0, "total_wp": 7, "heading_deg": 159.054, "target_bearing_deg": 112.1, "bearing_error_deg": -47.0, "dist_to_wp_m": 9.56, "linear": 0.0, "angular": 0.939, "gps_age_s": 0.19, "gps_packet_age_s": 0.19, "gps_fix_quality": 4, "sensor_block_reason": null, "imu_age_s": 0.0, "speed_ratio": 1.0, "manual_speed": 0.4, "calib": {"mark": {"lat": 38.94126383, "lon": -92.31894309833334}, "offset_applied": 108.32644748105147}, "waypoints_window": [{"idx": 0, "lat": 38.94124777, "lon": -92.31884882, "current": true}, {"idx": 1, "lat": 38.9412436, "lon": -92.31878981, "current": false}, {"idx": 2, "lat": 38.94120606, "lon": -92.3187308, "current": false}, {"idx": 3, "lat": 38.94124047, "lon": -92.31867984, "current": false}, {"idx": 4, "lat": 38.94124047, "lon": -92.31856987, "current": false}, {"idx": 5, "lat": 38.94121959, "lon": -92.31852293, "current": false}, {"idx": 6, "lat": 38.94114243, "lon": -92.31852159, "current": false}], "waiting_at_wp": false, "waiting_wp_idx": null, "imu_raw": {"type": "imu_frame", "version": 1, "rot": {"qi": 0.022, "qj": 0.018, "qk": -0.827, "qr": 0.561}, "euler": {"roll": -0.29, "pitch": 3.24, "yaw": 356.65, "north_offset_deg": 108.3264}, "hz": 48.2, "heading": {"raw": 50.728, "deg": 159.054, "dir": "SSE"}, "ts": 1603296, "game_rot": {"qi": 0.01, "qj": 0.027, "qk": -0.428, "qr": 0.903}, "accel": {"x": -0.56, "y": -0.06, "z": 9.88}, "lin_accel": {"x": 0.01, "y": -0.01, "z": -0.04}, "gravity": {"x": -0.57, "y": -0.05, "z": 9.88}, "gyro": {"x": 0.0, "y": 0.0, "z": 0.0}, "mag": {"x": -25.3, "y": 0.9, "z": 1.5}, "steps": 0, "cal": 0}, "rtk_raw": {"type": "rtk_frame", "version": 1, "lat": 38.94128007, "lon": -92.31895112, "alt": 236.805, "fix_quality": 4, "num_sats": 15, "hdop": 1.2, "speed_knots": 0.03, "track_deg": 335.57, "rtk_ts": 1777438802.5950332, "server_ts": 1777438803.155599, "source": "rtk"}}
