{"type": "autonav_status", "version": 1, "state": "idle", "current_wp_idx": 0, "total_wp": 7, "heading_deg": 106.215, "target_bearing_deg": 103.8, "bearing_error_deg": -2.4, "dist_to_wp_m": 6.44, "linear": 0.0, "angular": 0.0, "gps_age_s": 0.15, "gps_packet_age_s": 0.15, "gps_fix_quality": 4, "sensor_block_reason": null, "imu_age_s": 0.01, "speed_ratio": 1.0, "manual_speed": 0.4, "calib": {"mark": {"lat": 38.9412569, "lon": -92.318900255}, "offset_applied": 110.55367668931876}, "waypoints_window": [{"idx": 0, "lat": 38.94124777, "lon": -92.31884882, "current": true}, {"idx": 1, "lat": 38.9412436, "lon": -92.31878981, "current": false}, {"idx": 2, "lat": 38.94120606, "lon": -92.3187308, "current": false}, {"idx": 3, "lat": 38.94124047, "lon": -92.31867984, "current": false}, {"idx": 4, "lat": 38.94124047, "lon": -92.31856987, "current": false}, {"idx": 5, "lat": 38.94121959, "lon": -92.31852293, "current": false}, {"idx": 6, "lat": 38.94114243, "lon": -92.31852159, "current": false}], "waiting_at_wp": false, "waiting_wp_idx": null, "imu_raw": {"type": "imu_frame", "version": 1, "rot": {"qi": 0.007, "qj": 0.026, "qk": -0.469, "qr": 0.883}, "euler": {"roll": -0.69, "pitch": 3.01, "yaw": 54.57, "north_offset_deg": 110.5537}, "hz": 47.6, "heading": {"raw": 355.661, "deg": 106.215, "dir": "ESE"}, "ts": 3716627, "game_rot": {"qi": -0.007, "qj": 0.026, "qk": 0.038, "qr": 0.999}, "accel": {"x": -0.52, "y": -0.14, "z": 9.84}, "lin_accel": {"x": 0.0, "y": 0.02, "z": 0.02}, "gravity": {"x": -0.52, "y": -0.12, "z": 9.87}, "gyro": {"x": 0.0, "y": 0.0, "z": 0.0}, "mag": {"x": -15.6, "y": 8.7, "z": 13.1}, "steps": 0, "cal": 0}, "rtk_raw": {"type": "rtk_frame", "version": 1, "lat": 38.94126162, "lon": -92.31892108166667, "alt": 236.814, "fix_quality": 4, "num_sats": 18, "hdop": 1.2, "speed_knots": 0.04, "track_deg": 287.26, "rtk_ts": 1777440915.553495, "server_ts": 1777440916.469899, "source": "rtk"}}
{"type": "autonav_status", "version": 1, "state": "idle", "current_wp_idx": 0, "total_wp": 7, "heading_deg": 106.215, "target_bearing_deg": 103.8, "bearing_error_deg": -2.4, "dist_to_wp_m": 6.45, "linear": 0.0, "angular": 0.0, "gps_age_s": 0.15, "gps_packet_age_s": 0.15, "gps_fix_quality": 4, "sensor_block_reason": null, "imu_age_s": 0.0, "speed_ratio": 1.0, "manual_speed": 0.4, "calib": {"mark": {"lat": 38.9412569, "lon": -92.318900255}, "offset_applied": 110.55367668931876}, "waypoints_window": [{"idx": 0, "lat": 38.94124777, "lon": -92.31884882, "current": true}, {"idx": 1, "lat": 38.9412436, "lon": -92.31878981, "current": false}, {"idx": 2, "lat": 38.94120606, "lon": -92.3187308, "current": false}, {"idx": 3, "lat": 38.94124047, "lon": -92.31867984, "current": false}, {"idx": 4, "lat": 38.94124047, "lon": -92.31856987, "current": false}, {"idx": 5, "lat": 38.94121959, "lon": -92.31852293, "current": false}, {"idx": 6, "lat": 38.94114243, "lon": -92.31852159, "current": false}], "waiting_at_wp": false, "waiting_wp_idx": null, "imu_raw": {"type": "imu_frame", "version": 1, "rot": {"qi": 0.007, "qj": 0.026, "qk": -0.469, "qr": 0.883}, "euler": {"roll": -0.69, "pitch": 3.01, "yaw": 54.57, "north_offset_deg": 110.5537}, "hz": 47.4, "heading": {"raw": 355.661, "deg": 106.215, "dir": "ESE"}, "ts": 3716836, "game_rot": {"qi": -0.007, "qj": 0.026, "qk": 0.038, "qr": 0.999}, "accel": {"x": -0.52, "y": -0.14, "z": 9.88}, "lin_accel": {"x": 0.0, "y": -0.02, "z": 0.02}, "gravity": {"x": -0.52, "y": -0.12, "z": 9.87}, "gyro": {"x": 0.0, "y": 0.0, "z": 0.0}, "mag": {"x": -15.6, "y": 8.4, "z": 14.2}, "steps": 0, "cal": 0}, "rtk_raw": {"type": "rtk_frame", "version": 1, "lat": 38.941261625, "lon": -92.31892111666667, "alt": 236.808, "fix_quality": 4, "num_sats": 18, "hdop": 1.2, "speed_knots": 0.05, "track_deg": 287.26, "rtk_ts": 1777440916.575922, "server_ts": 1777440916.671177, "source": "rtk"}}
{"type": "autonav_status", "version": 1, "state": "idle", "current_wp_idx": 0, "total_wp": 7, "heading_deg": 106.215, "target_bearing_deg": 103.8, "bearing_error_deg": -2.4, "dist_to_wp_m": 6.45, "linear": 0.0, "angular": 0.0, "gps_age_s": 0.15, "gps_packet_age_s": 0.15, "gps_fix_quality": 4, "sensor_block_reason": null, "imu_age_s": 0.02, "speed_ratio": 1.0, "manual_speed": 0.4, "calib": {"mark": {"lat": 38.9412569, "lon": -92.318900255}, "offset_applied": 110.55367668931876}, "waypoints_window": [{"idx": 0, "lat": 38.94124777, "lon": -92.31884882, "current": true}, {"idx": 1, "lat": 38.9412436, "lon": -92.31878981, "current": false}, {"idx": 2, "lat": 38.94120606, "lon": -92.3187308, "current": false}, {"idx": 3, "lat": 38.94124047, "lon": -92.31867984, "current": false}, {"idx": 4, "lat": 38.94124047, "lon": -92.31856987, "current": false}, {"idx": 5, "lat": 38.94121959, "lon": -92.31852293, "current": false}, {"idx": 6, "lat": 38.94114243, "lon": -92.31852159, "current": false}], "waiting_at_wp": false, "waiting_wp_idx": null, "imu_raw": {"type": "imu_frame", "version": 1, "rot": {"qi": 0.007, "qj": 0.026, "qk": -0.469, "qr": 0.883}, "euler": {"roll": -0.69, "pitch": 3.01, "yaw": 54.57, "north_offset_deg": 110.5537}, "hz": 47.6, "heading": {"raw": 355.661, "deg": 106.215, "dir": "ESE"}, "ts": 3717023, "game_rot": {"qi": -0.007, "qj": 0.026, "qk": 0.038, "qr": 0.999}, "accel": {"x": -0.52, "y": -0.1, "z": 9.84}, "lin_accel": {"x": 0.0, "y": 0.02, "z": -0.02}, "gravity": {"x": -0.52, "y": -0.12, "z": 9.87}, "gyro": {"x": 0.0, "y": 0.0, "z": 0.0}, "mag": {"x": -14.6, "y": 8.0, "z": 13.4}, "steps": 0, "cal": 0}, "rtk_raw": {"type": "rtk_frame", "version": 1, "lat": 38.941261625, "lon": -92.31892111666667, "alt": 236.808, "fix_quality": 4, "num_sats": 18, "hdop": 1.2, "speed_knots": 0.05, "track_deg": 287.26, "rtk_ts": 1777440916.575922, "server_ts": 1777440916.872409, "source": "rtk"}}
{"type": "autonav_status", "version": 1, "state": "idle", "current_wp_idx": 0, "total_wp": 7, "heading_deg": 106.215, "target_bearing_deg": 103.8, "bearing_error_deg": -2.4, "dist_to_wp_m": 6.45, "linear": 0.0, "angular": 0.0, "gps_age_s": 0.15, "gps_packet_age_s": 0.15, "gps_fix_quality": 4, "sensor_block_reason": null, "imu_age_s": 0.01, "speed_ratio": 1.0, "manual_speed": 0.4, "calib": {"mark": {"lat": 38.9412569, "lon": -92.318900255}, "offset_applied": 110.55367668931876}, "waypoints_window": [{"idx": 0, "lat": 38.94124777, "lon": -92.31884882, "current": true}, {"idx": 1, "lat": 38.9412436, "lon": -92.31878981, "current": false}, {"idx": 2, "lat": 38.94120606, "lon": -92.3187308, "current": false}, {"idx": 3, "lat": 38.94124047, "lon": -92.31867984, "current": false}, {"idx": 4, "lat": 38.94124047, "lon": -92.31856987, "current": false}, {"idx": 5, "lat": 38.94121959, "lon": -92.31852293, "current": false}, {"idx": 6, "lat": 38.94114243, "lon": -92.31852159, "current": false}], "waiting_at_wp": false, "waiting_wp_idx": null, "imu_raw": {"type": "imu_frame", "version": 1, "rot": {"qi": 0.007, "qj": 0.026, "qk": -0.469, "qr": 0.883}, "euler": {"roll": -0.69, "pitch": 3.01, "yaw": 54.57, "north_offset_deg": 110.5537}, "hz": 47.8, "heading": {"raw": 355.661, "deg": 106.215, "dir": "ESE"}, "ts": 3717232, "game_rot": {"qi": -0.007, "qj": 0.026, "qk": 0.038, "qr": 0.999}, "accel": {"x": -0.52, "y": -0.1, "z": 9.88}, "lin_accel": {"x": 0.0, "y": 0.02, "z": 0.02}, "gravity": {"x": -0.52, "y": -0.12, "z": 9.87}, "gyro": {"x": 0.0, "y": 0.0, "z": 0.0}, "mag": {"x": -15.2, "y": 8.8, "z": 13.8}, "steps": 0, "cal": 0}, "rtk_raw": {"type": "rtk_frame", "version": 1, "lat": 38.941261625, "lon": -92.31892111666667, "alt": 236.808, "fix_quality": 4, "num_sats": 18, "hdop": 1.2, "speed_knots": 0.05, "track_deg": 287.26, "rtk_ts": 1777440916.575922, "server_ts": 1777440917.073584, "source": "rtk"}}
{"type": "autonav_status", "version": 1, "state": "idle", "current_wp_idx": 0, "total_wp": 7, "heading_deg": 106.215, "target_bearing_deg": 103.8, "bearing_error_deg": -2.4, "dist_to_wp_m": 6.45, "linear": 0.0, "angular": 0.0, "gps_age_s": 0.15, "gps_packet_age_s": 0.15, "gps_fix_quality": 4, "sensor_block_reason": null, "imu_age_s": 0.02, "speed_ratio": 1.0, "manual_speed": 0.4, "calib": {"mark": {"lat": 38.9412569, "lon": -92.318900255}, "offset_applied": 110.55367668931876}, "waypoints_window": [{"idx": 0, "lat": 38.94124777, "lon": -92.31884882, "current": true}, {"idx": 1, "lat": 38.9412436, "lon": -92.31878981, "current": false}, {"idx": 2, "lat": 38.94120606, "lon": -92.3187308, "current": false}, {"idx": 3, "lat": 38.94124047, "lon": -92.31867984, "current": false}, {"idx": 4, "lat": 38.94124047, "lon": -92.31856987, "current": false}, {"idx": 5, "lat": 38.94121959, "lon": -92.31852293, "current": false}, {"idx": 6, "lat": 38.94114243, "lon": -92.31852159, "current": false}], "waiting_at_wp": false, "waiting_wp_idx": null, "imu_raw": {"type": "imu_frame", "version": 1, "rot": {"qi": 0.007, "qj": 0.026, "qk": -0.469, "qr": 0.883}, "euler": {"roll": -0.69, "pitch": 3.01, "yaw": 54.57, "north_offset_deg": 110.5537}, "hz": 47.7, "heading": {"raw": 355.661, "deg": 106.215, "dir": "ESE"}, "ts": 3717423, "game_rot": {"qi": -0.007, "qj": 0.026, "qk": 0.038, "qr": 0.999}, "accel": {"x": -0.52, "y": -0.1, "z": 9.84}, "lin_accel": {"x": 0.0, "y": 0.02, "z": -0.02}, "gravity": {"x": -0.52, "y": -0.12, "z": 9.87}, "gyro": {"x": 0.0, "y": 0.0, "z": 0.0}, "mag": {"x": -14.6, "y": 8.8, "z": 13.4}, "steps": 0, "cal": 0}, "rtk_raw": {"type": "rtk_frame", "version": 1, "lat": 38.941261625, "lon": -92.31892111666667, "alt": 236.808, "fix_quality": 4, "num_sats": 18, "hdop": 1.2, "speed_knots": 0.05, "track_deg": 287.26, "rtk_ts": 1777440916.575922, "server_ts": 1777440917.274826, "source": "rtk"}}
{"type": "autonav_status", "version": 1, "state": "idle", "current_wp_idx": 0, "total_wp": 7, "heading_deg": 106.215, "target_bearing_deg": 103.8, "bearing_error_deg": -2.4, "dist_to_wp_m": 6.45, "linear": 0.0, "angular": 0.0, "gps_age_s": 0.15, "gps_packet_age_s": 0.15, "gps_fix_quality": 4, "sensor_block_reason": null, "imu_age_s": 0.0, "speed_ratio": 1.0, "manual_speed": 0.4, "calib": {"mark": {"lat": 38.9412569, "lon": -92.318900255}, "offset_applied": 110.55367668931876}, "waypoints_window": [{"idx": 0, "lat": 38.94124777, "lon": -92.31884882, "current": true}, {"idx": 1, "lat": 38.9412436, "lon": -92.31878981, "current": false}, {"idx": 2, "lat": 38.94120606, "lon": -92.3187308, "current": false}, {"idx": 3, "lat": 38.94124047, "lon": -92.31867984, "current": false}, {"idx": 4, "lat": 38.94124047, "lon": -92.31856987, "current": false}, {"idx": 5, "lat": 38.94121959, "lon": -92.31852293, "current": false}, {"idx": 6, "lat": 38.94114243, "lon": -92.31852159, "current": false}], "waiting_at_wp": false, "waiting_wp_idx": null, "imu_raw": {"type": "imu_frame", "version": 1, "rot": {"qi": 0.007, "qj": 0.026, "qk": -0.469, "qr": 0.883}, "euler": {"roll": -0.69, "pitch": 3.01, "yaw": 54.57, "north_offset_deg": 110.5537}, "hz": 47.2, "heading": {"raw": 355.661, "deg": 106.215, "dir": "ESE"}, "ts": 3717643, "game_rot": {"qi": -0.007, "qj": 0.026, "qk": 0.038, "qr": 0.999}, "accel": {"x": -0.52, "y": -0.1, "z": 9.88}, "lin_accel": {"x": 0.0, "y": 0.02, "z": -0.03}, "gravity": {"x": -0.52, "y": -0.12, "z": 9.88}, "gyro": {"x": 0.0, "y": 0.0, "z": 0.0}, "mag": {"x": -14.6, "y": 8.8, "z": 13.0}, "steps": 0, "cal": 0}, "rtk_raw": {"type": "rtk_frame", "version": 1, "lat": 38.941261625, "lon": -92.31892111666667, "alt": 236.808, "fix_quality": 4, "num_sats": 18, "hdop": 1.2, "speed_knots": 0.05, "track_deg": 287.26, "rtk_ts": 1777440916.575922, "server_ts": 1777440917.4761338, "source": "rtk"}}
{"type": "autonav_status", "version": 1, "state": "idle", "current_wp_idx": 0, "total_wp": 7, "heading_deg": 106.215, "target_bearing_deg": 103.8, "bearing_error_deg": -2.4, "dist_to_wp_m": 6.45, "linear": 0.0, "angular": 0.0, "gps_age_s": 0.15, "gps_packet_age_s": 0.15, "gps_fix_quality": 4, "sensor_block_reason": null, "imu_age_s": 0.01, "speed_ratio": 1.0, "manual_speed": 0.4, "calib": {"mark": {"lat": 38.9412569, "lon": -92.318900255}, "offset_applied": 110.55367668931876}, "waypoints_window": [{"idx": 0, "lat": 38.94124777, "lon": -92.31884882, "current": true}, {"idx": 1, "lat": 38.9412436, "lon": -92.31878981, "current": false}, {"idx": 2, "lat": 38.94120606, "lon": -92.3187308, "current": false}, {"idx": 3, "lat": 38.94124047, "lon": -92.31867984, "current": false}, {"idx": 4, "lat": 38.94124047, "lon": -92.31856987, "current": false}, {"idx": 5, "lat": 38.94121959, "lon": -92.31852293, "current": false}, {"idx": 6, "lat": 38.94114243, "lon": -92.31852159, "current": false}], "waiting_at_wp": false, "waiting_wp_idx": null, "imu_raw": {"type": "imu_frame", "version": 1, "rot": {"qi": 0.007, "qj": 0.026, "qk": -0.469, "qr": 0.883}, "euler": {"roll": -0.69, "pitch": 3.01, "yaw": 54.57, "north_offset_deg": 110.5537}, "hz": 47.1, "heading": {"raw": 355.661, "deg": 106.215, "dir": "ESE"}, "ts": 3717835, "game_rot": {"qi": -0.007, "qj": 0.026, "qk": 0.038, "qr": 0.999}, "accel": {"x": -0.52, "y": -0.1, "z": 9.88}, "lin_accel": {"x": -0.01, "y": 0.02, "z": -0.02}, "gravity": {"x": -0.52, "y": -0.12, "z": 9.87}, "gyro": {"x": 0.0, "y": 0.0, "z": 0.0}, "mag": {"x": -15.3, "y": 7.2, "z": 12.9}, "steps": 0, "cal": 0}, "rtk_raw": {"type": "rtk_frame", "version": 1, "lat": 38.94126162, "lon": -92.31892113666666, "alt": 236.811, "fix_quality": 4, "num_sats": 18, "hdop": 1.2, "speed_knots": 0.0, "track_deg": 287.26, "rtk_ts": 1777440917.58417, "server_ts": 1777440917.677495, "source": "rtk"}}
{"type": "autonav_status", "version": 1, "state": "idle", "current_wp_idx": 0, "total_wp": 7, "heading_deg": 106.215, "target_bearing_deg": 103.8, "bearing_error_deg": -2.4, "dist_to_wp_m": 6.45, "linear": 0.0, "angular": 0.0, "gps_age_s": 0.15, "gps_packet_age_s": 0.15, "gps_fix_quality": 4, "sensor_block_reason": null, "imu_age_s": 0.0, "speed_ratio": 1.0, "manual_speed": 0.4, "calib": {"mark": {"lat": 38.9412569, "lon": -92.318900255}, "offset_applied": 110.55367668931876}, "waypoints_window": [{"idx": 0, "lat": 38.94124777, "lon": -92.31884882, "current": true}, {"idx": 1, "lat": 38.9412436, "lon": -92.31878981, "current": false}, {"idx": 2, "lat": 38.94120606, "lon": -92.3187308, "current": false}, {"idx": 3, "lat": 38.94124047, "lon": -92.31867984, "current": false}, {"idx": 4, "lat": 38.94124047, "lon": -92.31856987, "current": false}, {"idx": 5, "lat": 38.94121959, "lon": -92.31852293, "current": false}, {"idx": 6, "lat": 38.94114243, "lon": -92.31852159, "current": false}], "waiting_at_wp": false, "waiting_wp_idx": null, "imu_raw": {"type": "imu_frame", "version": 1, "rot": {"qi": 0.007, "qj": 0.026, "qk": -0.469, "qr": 0.883}, "euler": {"roll": -0.69, "pitch": 3.01, "yaw": 54.57, "north_offset_deg": 110.5537}, "hz": 47.0, "heading": {"raw": 355.661, "deg": 106.215, "dir": "ESE"}, "ts": 3718046, "game_rot": {"qi": -0.007, "qj": 0.026, "qk": 0.038, "qr": 0.999}, "accel": {"x": -0.52, "y": -0.14, "z": 9.84}, "lin_accel": {"x": 0.04, "y": 0.02, "z": 0.02}, "gravity": {"x": -0.52, "y": -0.12, "z": 9.87}, "gyro": {"x": 0.0, "y": 0.0, "z": 0.0}, "mag": {"x": -15.0, "y": 7.4, "z": 15.8}, "steps": 0, "cal": 0}, "rtk_raw": {"type": "rtk_frame", "version": 1, "lat": 38.94126162, "lon": -92.31892113666666, "alt": 236.811, "fix_quality": 4, "num_sats": 18, "hdop": 1.2, "speed_knots": 0.0, "track_deg": 287.26, "rtk_ts": 1777440917.58417, "server_ts": 1777440917.8787441, "source": "rtk"}}
{"type": "autonav_status", "version": 1, "state": "idle", "current_wp_idx": 0, "total_wp": 7, "heading_deg": 106.215, "target_bearing_deg": 103.8, "bearing_error_deg": -2.4, "dist_to_wp_m": 6.45, "linear": 0.0, "angular": 0.0, "gps_age_s": 0.15, "gps_packet_age_s": 0.15, "gps_fix_quality": 4, "sensor_block_reason": null, "imu_age_s": 0.01, "speed_ratio": 1.0, "manual_speed": 0.4, "calib": {"mark": {"lat": 38.9412569, "lon": -92.318900255}, "offset_applied": 110.55367668931876}, "waypoints_window": [{"idx": 0, "lat": 38.94124777, "lon": -92.31884882, "current": true}, {"idx": 1, "lat": 38.9412436, "lon": -92.31878981, "current": false}, {"idx": 2, "lat": 38.94120606, "lon": -92.3187308, "current": false}, {"idx": 3, "lat": 38.94124047, "lon": -92.31867984, "current": false}, {"idx": 4, "lat": 38.94124047, "lon": -92.31856987, "current": false}, {"idx": 5, "lat": 38.94121959, "lon": -92.31852293, "current": false}, {"idx": 6, "lat": 38.94114243, "lon": -92.31852159, "current": false}], "waiting_at_wp": false, "waiting_wp_idx": null, "imu_raw": {"type": "imu_frame", "version": 1, "rot": {"qi": 0.007, "qj": 0.026, "qk": -0.469, "qr": 0.883}, "euler": {"roll": -0.69, "pitch": 3.01, "yaw": 54.57, "north_offset_deg": 110.5537}, "hz": 46.7, "heading": {"raw": 355.661, "deg": 106.215, "dir": "ESE"}, "ts": 3718236, "game_rot": {"qi": -0.007, "qj": 0.026, "qk": 0.038, "qr": 0.999}, "accel": {"x": -0.52, "y": -0.1, "z": 9.84}, "lin_accel": {"x": 0.0, "y": 0.02, "z": -0.02}, "gravity": {"x": -0.52, "y": -0.12, "z": 9.87}, "gyro": {"x": 0.0, "y": 0.0, "z": 0.0}, "mag": {"x": -15.9, "y": 8.3, "z": 13.0}, "steps": 0, "cal": 0}, "rtk_raw": {"type": "rtk_frame", "version": 1, "lat": 38.94126162, "lon": -92.31892113666666, "alt": 236.811, "fix_quality": 4, "num_sats": 18, "hdop": 1.2, "speed_knots": 0.0, "track_deg": 287.26, "rtk_ts": 1777440917.58417, "server_ts": 1777440918.0794659, "source": "rtk"}}
{"type": "autonav_status", "version": 1, "state": "idle", "current_wp_idx": 0, "total_wp": 7, "heading_deg": 106.215, "target_bearing_deg": 103.8, "bearing_error_deg": -2.4, "dist_to_wp_m": 6.45, "linear": 0.0, "angular": 0.0, "gps_age_s": 0.15, "gps_packet_age_s": 0.15, "gps_fix_quality": 4, "sensor_block_reason": null, "imu_age_s": 0.0, "speed_ratio": 1.0, "manual_speed": 0.4, "calib": {"mark": {"lat": 38.9412569, "lon": -92.318900255}, "offset_applied": 110.55367668931876}, "waypoints_window": [{"idx": 0, "lat": 38.94124777, "lon": -92.31884882, "current": true}, {"idx": 1, "lat": 38.9412436, "lon": -92.31878981, "current": false}, {"idx": 2, "lat": 38.94120606, "lon": -92.3187308, "current": false}, {"idx": 3, "lat": 38.94124047, "lon": -92.31867984, "current": false}, {"idx": 4, "lat": 38.94124047, "lon": -92.31856987, "current": false}, {"idx": 5, "lat": 38.94121959, "lon": -92.31852293, "current": false}, {"idx": 6, "lat": 38.94114243, "lon": -92.31852159, "current": false}], "waiting_at_wp": false, "waiting_wp_idx": null, "imu_raw": {"type": "imu_frame", "version": 1, "rot": {"qi": 0.007, "qj": 0.026, "qk": -0.469, "qr": 0.883}, "euler": {"roll": -0.69, "pitch": 3.01, "yaw": 54.57, "north_offset_deg": 110.5537}, "hz": 46.8, "heading": {"raw": 355.661, "deg": 106.215, "dir": "ESE"}, "ts": 3718446, "game_rot": {"qi": -0.007, "qj": 0.026, "qk": 0.038, "qr": 0.999}, "accel": {"x": -0.52, "y": -0.1, "z": 9.88}, "lin_accel": {"x": 0.0, "y": 0.02, "z": 0.02}, "gravity": {"x": -0.52, "y": -0.12, "z": 9.87}, "gyro": {"x": 0.0, "y": 0.0, "z": 0.0}, "mag": {"x": -15.6, "y": 8.4, "z": 13.4}, "steps": 0, "cal": 0}, "rtk_raw": {"type": "rtk_frame", "version": 1, "lat": 38.94126162, "lon": -92.31892113666666, "alt": 236.811, "fix_quality": 4, "num_sats": 18, "hdop": 1.2, "speed_knots": 0.0, "track_deg": 287.26, "rtk_ts": 1777440917.58417, "server_ts": 1777440918.2807732, "source": "rtk"}}
{"type": "autonav_status", "version": 1, "state": "idle", "current_wp_idx": 0, "total_wp": 7, "heading_deg": 106.215, "target_bearing_deg": 103.8, "bearing_error_deg": -2.4, "dist_to_wp_m": 6.45, "linear": 0.0, "angular": 0.0, "gps_age_s": 0.15, "gps_packet_age_s": 0.15, "gps_fix_quality": 4, "sensor_block_reason": null, "imu_age_s": 0.01, "speed_ratio": 1.0, "manual_speed": 0.4, "calib": {"mark": {"lat": 38.9412569, "lon": -92.318900255}, "offset_applied": 110.55367668931876}, "waypoints_window": [{"idx": 0, "lat": 38.94124777, "lon": -92.31884882, "current": true}, {"idx": 1, "lat": 38.9412436, "lon": -92.31878981, "current": false}, {"idx": 2, "lat": 38.94120606, "lon": -92.3187308, "current": false}, {"idx": 3, "lat": 38.94124047, "lon": -92.31867984, "current": false}, {"idx": 4, "lat": 38.94124047, "lon": -92.31856987, "current": false}, {"idx": 5, "lat": 38.94121959, "lon": -92.31852293, "current": false}, {"idx": 6, "lat": 38.94114243, "lon": -92.31852159, "current": false}], "waiting_at_wp": false, "waiting_wp_idx": null, "imu_raw": {"type": "imu_frame", "version": 1, "rot": {"qi": 0.007, "qj": 0.026, "qk": -0.469, "qr": 0.883}, "euler": {"roll": -0.69, "pitch": 3.01, "yaw": 54.57, "north_offset_deg": 110.5537}, "hz": 47.3, "heading": {"raw": 355.661, "deg": 106.215, "dir": "ESE"}, "ts": 3718636, "game_rot": {"qi": -0.007, "qj": 0.026, "qk": 0.038, "qr": 0.999}, "accel": {"x": -0.52, "y": -0.1, "z": 9.88}, "lin_accel": {"x": 0.0, "y": 0.02, "z": 0.01}, "gravity": {"x": -0.52, "y": -0.12, "z": 9.88}, "gyro": {"x": 0.0, "y": 0.0, "z": 0.0}, "mag": {"x": -14.6, "y": 8.8, "z": 13.4}, "steps": 0, "cal": 0}, "rtk_raw": {"type": "rtk_frame", "version": 1, "lat": 38.94126162, "lon": -92.31892113666666, "alt": 236.811, "fix_quality": 4, "num_sats": 18, "hdop": 1.2, "speed_knots": 0.0, "track_deg": 287.26, "rtk_ts": 1777440917.58417, "server_ts": 1777440918.482261, "source": "rtk"}}
{"type": "autonav_status", "version": 1, "state": "idle", "current_wp_idx": 0, "total_wp": 7, "heading_deg": 106.215, "target_bearing_deg": 103.8, "bearing_error_deg": -2.4, "dist_to_wp_m": 6.45, "linear": 0.0, "angular": 0.0, "gps_age_s": 0.15, "gps_packet_age_s": 0.15, "gps_fix_quality": 4, "sensor_block_reason": null, "imu_age_s": 0.01, "speed_ratio": 1.0, "manual_speed": 0.4, "calib": {"mark": {"lat": 38.9412569, "lon": -92.318900255}, "offset_applied": 110.55367668931876}, "waypoints_window": [{"idx": 0, "lat": 38.94124777, "lon": -92.31884882, "current": true}, {"idx": 1, "lat": 38.9412436, "lon": -92.31878981, "current": false}, {"idx": 2, "lat": 38.94120606, "lon": -92.3187308, "current": false}, {"idx": 3, "lat": 38.94124047, "lon": -92.31867984, "current": false}, {"idx": 4, "lat": 38.94124047, "lon": -92.31856987, "current": false}, {"idx": 5, "lat": 38.94121959, "lon": -92.31852293, "current": false}, {"idx": 6, "lat": 38.94114243, "lon": -92.31852159, "current": false}], "waiting_at_wp": false, "waiting_wp_idx": null, "imu_raw": {"type": "imu_frame", "version": 1, "rot": {"qi": 0.007, "qj": 0.026, "qk": -0.469, "qr": 0.883}, "euler": {"roll": -0.69, "pitch": 3.01, "yaw": 54.57, "north_offset_deg": 110.5537}, "hz": 47.6, "heading": {"raw": 355.661, "deg": 106.215, "dir": "ESE"}, "ts": 3718844, "game_rot": {"qi": -0.007, "qj": 0.026, "qk": 0.038, "qr": 0.999}, "accel": {"x": -0.52, "y": -0.14, "z": 9.88}, "lin_accel": {"x": 0.0, "y": -0.02, "z": 0.01}, "gravity": {"x": -0.52, "y": -0.12, "z": 9.88}, "gyro": {"x": 0.0, "y": 0.0, "z": 0.0}, "mag": {"x": -15.6, "y": 7.9, "z": 12.2}, "steps": 0, "cal": 0}, "rtk_raw": {"type": "rtk_frame", "version": 1, "lat": 38.941261625, "lon": -92.31892111166667, "alt": 236.811, "fix_quality": 4, "num_sats": 18, "hdop": 1.2, "speed_knots": 0.03, "track_deg": 287.26, "rtk_ts": 1777440918.583828, "server_ts": 1777440918.683566, "source": "rtk"}}
{"type": "autonav_status", "version": 1, "state": "running", "current_wp_idx": 0, "total_wp": 7, "heading_deg": 106.215, "target_bearing_deg": 103.8, "bearing_error_deg": -2.4, "dist_to_wp_m": 6.45, "linear": 1.0, "angular": 0.0, "gps_age_s": 0.15, "gps_packet_age_s": 0.15, "gps_fix_quality": 4, "sensor_block_reason": null, "imu_age_s": 0.01, "speed_ratio": 1.0, "manual_speed": 0.4, "calib": {"mark": {"lat": 38.9412569, "lon": -92.318900255}, "offset_applied": 110.55367668931876}, "waypoints_window": [{"idx": 0, "lat": 38.94124777, "lon": -92.31884882, "current": true}, {"idx": 1, "lat": 38.9412436, "lon": -92.31878981, "current": false}, {"idx": 2, "lat": 38.94120606, "lon": -92.3187308, "current": false}, {"idx": 3, "lat": 38.94124047, "lon": -92.31867984, "current": false}, {"idx": 4, "lat": 38.94124047, "lon": -92.31856987, "current": false}, {"idx": 5, "lat": 38.94121959, "lon": -92.31852293, "current": false}, {"idx": 6, "lat": 38.94114243, "lon": -92.31852159, "current": false}], "waiting_at_wp": false, "waiting_wp_idx": null, "imu_raw": {"type": "imu_frame", "version": 1, "rot": {"qi": 0.007, "qj": 0.026, "qk": -0.469, "qr": 0.883}, "euler": {"roll": -0.69, "pitch": 3.01, "yaw": 54.57, "north_offset_deg": 110.5537}, "hz": 48.0, "heading": {"raw": 355.661, "deg": 106.215, "dir": "ESE"}, "ts": 3719046, "game_rot": {"qi": -0.007, "qj": 0.026, "qk": 0.038, "qr": 0.999}, "accel": {"x": -0.52, "y": -0.14, "z": 9.84}, "lin_accel": {"x": 0.0, "y": -0.02, "z": -0.02}, "gravity": {"x": -0.52, "y": -0.12, "z": 9.87}, "gyro": {"x": 0.0, "y": 0.0, "z": 0.0}, "mag": {"x": -15.2, "y": 8.4, "z": 13.4}, "steps": 0, "cal": 0}, "rtk_raw": {"type": "rtk_frame", "version": 1, "lat": 38.941261625, "lon": -92.31892111166667, "alt": 236.811, "fix_quality": 4, "num_sats": 18, "hdop": 1.2, "speed_knots": 0.03, "track_deg": 287.26, "rtk_ts": 1777440918.583828, "server_ts": 1777440918.8848152, "source": "rtk"}}
{"type": "autonav_status", "version": 1, "state": "running", "current_wp_idx": 0, "total_wp": 7, "heading_deg": 106.215, "target_bearing_deg": 103.8, "bearing_error_deg": -2.4, "dist_to_wp_m": 6.45, "linear": 1.0, "angular": 0.0, "gps_age_s": 0.15, "gps_packet_age_s": 0.15, "gps_fix_quality": 4, "sensor_block_reason": null, "imu_age_s": 0.0, "speed_ratio": 1.0, "manual_speed": 0.4, "calib": {"mark": {"lat": 38.9412569, "lon": -92.318900255}, "offset_applied": 110.55367668931876}, "waypoints_window": [{"idx": 0, "lat": 38.94124777, "lon": -92.31884882, "current": true}, {"idx": 1, "lat": 38.9412436, "lon": -92.31878981, "current": false}, {"idx": 2, "lat": 38.94120606, "lon": -92.3187308, "current": false}, {"idx": 3, "lat": 38.94124047, "lon": -92.31867984, "current": false}, {"idx": 4, "lat": 38.94124047, "lon": -92.31856987, "current": false}, {"idx": 5, "lat": 38.94121959, "lon": -92.31852293, "current": false}, {"idx": 6, "lat": 38.94114243, "lon": -92.31852159, "current": false}], "waiting_at_wp": false, "waiting_wp_idx": null, "imu_raw": {"type": "imu_frame", "version": 1, "rot": {"qi": 0.007, "qj": 0.026, "qk": -0.469, "qr": 0.883}, "euler": {"roll": -0.69, "pitch": 3.01, "yaw": 54.57, "north_offset_deg": 110.5537}, "hz": 48.0, "heading": {"raw": 355.661, "deg": 106.215, "dir": "ESE"}, "ts": 3719255, "game_rot": {"qi": -0.007, "qj": 0.026, "qk": 0.038, "qr": 0.999}, "accel": {"x": -0.48, "y": -0.1, "z": 9.84}, "lin_accel": {"x": 0.04, "y": 0.02, "z": -0.02}, "gravity": {"x": -0.52, "y": -0.12, "z": 9.87}, "gyro": {"x": 0.0, "y": 0.0, "z": 0.0}, "mag": {"x": -15.9, "y": 8.8, "z": 13.9}, "steps": 0, "cal": 0}, "rtk_raw": {"type": "rtk_frame", "version": 1, "lat": 38.941261625, "lon": -92.31892111166667, "alt": 236.811, "fix_quality": 4, "num_sats": 18, "hdop": 1.2, "speed_knots": 0.03, "track_deg": 287.26, "rtk_ts": 1777440918.583828, "server_ts": 1777440919.086098, "source": "rtk"}}
{"type": "autonav_status", "version": 1, "state": "running", "current_wp_idx": 0, "total_wp": 7, "heading_deg": 106.214, "target_bearing_deg": 103.8, "bearing_error_deg": -2.4, "dist_to_wp_m": 6.45, "linear": 1.0, "angular": 0.0, "gps_age_s": 0.15, "gps_packet_age_s": 0.15, "gps_fix_quality": 4, "sensor_block_reason": null, "imu_age_s": 0.01, "speed_ratio": 1.0, "manual_speed": 0.4, "calib": {"mark": {"lat": 38.9412569, "lon": -92.318900255}, "offset_applied": 110.55367668931876}, "waypoints_window": [{"idx": 0, "lat": 38.94124777, "lon": -92.31884882, "current": true}, {"idx": 1, "lat": 38.9412436, "lon": -92.31878981, "current": false}, {"idx": 2, "lat": 38.94120606, "lon": -92.3187308, "current": false}, {"idx": 3, "lat": 38.94124047, "lon": -92.31867984, "current": false}, {"idx": 4, "lat": 38.94124047, "lon": -92.31856987, "current": false}, {"idx": 5, "lat": 38.94121959, "lon": -92.31852293, "current": false}, {"idx": 6, "lat": 38.94114243, "lon": -92.31852159, "current": false}], "waiting_at_wp": false, "waiting_wp_idx": null, "imu_raw": {"type": "imu_frame", "version": 1, "rot": {"qi": 0.007, "qj": 0.025, "qk": -0.469, "qr": 0.883}, "euler": {"roll": -0.64, "pitch": 2.91, "yaw": 54.57, "north_offset_deg": 110.5537}, "hz": 48.1, "heading": {"raw": 355.661, "deg": 106.214, "dir": "ESE"}, "ts": 3719445, "game_rot": {"qi": -0.007, "qj": 0.025, "qk": 0.038, "qr": 0.999}, "accel": {"x": 0.55, "y": -0.29, "z": 9.5}, "lin_accel": {"x": 0.96, "y": -0.18, "z": -0.36}, "gravity": {"x": -0.41, "y": -0.11, "z": 9.86}, "gyro": {"x": 0.016, "y": 0.014, "z": -0.008}, "mag": {"x": -15.6, "y": 9.1, "z": 13.4}, "steps": 0, "cal": 0}, "rtk_raw": {"type": "rtk_frame", "version": 1, "lat": 38.941261625, "lon": -92.31892111166667, "alt": 236.811, "fix_quality": 4, "num_sats": 18, "hdop": 1.2, "speed_knots": 0.03, "track_deg": 287.26, "rtk_ts": 1777440918.583828, "server_ts": 1777440919.287282, "source": "rtk"}}
{"type": "autonav_status", "version": 1, "state": "running", "current_wp_idx": 0, "total_wp": 7, "heading_deg": 106.212, "target_bearing_deg": 103.8, "bearing_error_deg": -2.4, "dist_to_wp_m": 6.45, "linear": 1.0, "angular": 0.0, "gps_age_s": 0.15, "gps_packet_age_s": 0.15, "gps_fix_quality": 4, "sensor_block_reason": null, "imu_age_s": 0.0, "speed_ratio": 1.0, "manual_speed": 0.4, "calib": {"mark": {"lat": 38.9412569, "lon": -92.318900255}, "offset_applied": 110.55367668931876}, "waypoints_window": [{"idx": 0, "lat": 38.94124777, "lon": -92.31884882, "current": true}, {"idx": 1, "lat": 38.9412436, "lon": -92.31878981, "current": false}, {"idx": 2, "lat": 38.94120606, "lon": -92.3187308, "current": false}, {"idx": 3, "lat": 38.94124047, "lon": -92.31867984, "current": false}, {"idx": 4, "lat": 38.94124047, "lon": -92.31856987, "current": false}, {"idx": 5, "lat": 38.94121959, "lon": -92.31852293, "current": false}, {"idx": 6, "lat": 38.94114243, "lon": -92.31852159, "current": false}], "waiting_at_wp": false, "waiting_wp_idx": null, "imu_raw": {"type": "imu_frame", "version": 1, "rot": {"qi": 0.008, "qj": 0.024, "qk": -0.469, "qr": 0.883}, "euler": {"roll": -0.48, "pitch": 2.86, "yaw": 54.58, "north_offset_deg": 110.5537}, "hz": 48.1, "heading": {"raw": 355.658, "deg": 106.212, "dir": "ESE"}, "ts": 3719655, "game_rot": {"qi": -0.006, "qj": 0.025, "qk": 0.038, "qr": 0.999}, "accel": {"x": 0.47, "y": -0.14, "z": 10.38}, "lin_accel": {"x": 0.82, "y": -0.05, "z": 0.53}, "gravity": {"x": -0.35, "y": -0.09, "z": 9.85}, "gyro": {"x": -0.014, "y": 0.014, "z": 0.002}, "mag": {"x": -16.0, "y": 7.5, "z": 11.8}, "steps": 0, "cal": 0}, "rtk_raw": {"type": "rtk_frame", "version": 1, "lat": 38.941261625, "lon": -92.31892111166667, "alt": 236.811, "fix_quality": 4, "num_sats": 18, "hdop": 1.2, "speed_knots": 0.03, "track_deg": 287.26, "rtk_ts": 1777440918.583828, "server_ts": 1777440919.488588, "source": "rtk"}}
{"type": "autonav_status", "version": 1, "state": "running", "current_wp_idx": 0, "total_wp": 7, "heading_deg": 106.211, "target_bearing_deg": 103.8, "bearing_error_deg": -2.4, "dist_to_wp_m": 6.41, "linear": 1.0, "angular": 0.0, "gps_age_s": 0.15, "gps_packet_age_s": 0.15, "gps_fix_quality": 4, "sensor_block_reason": null, "imu_age_s": 0.0, "speed_ratio": 1.0, "manual_speed": 0.4, "calib": {"mark": {"lat": 38.9412569, "lon": -92.318900255}, "offset_applied": 110.55367668931876}, "waypoints_window": [{"idx": 0, "lat": 38.94124777, "lon": -92.31884882, "current": true}, {"idx": 1, "lat": 38.9412436, "lon": -92.31878981, "current": false}, {"idx": 2, "lat": 38.94120606, "lon": -92.3187308, "current": false}, {"idx": 3, "lat": 38.94124047, "lon": -92.31867984, "current": false}, {"idx": 4, "lat": 38.94124047, "lon": -92.31856987, "current": false}, {"idx": 5, "lat": 38.94121959, "lon": -92.31852293, "current": false}, {"idx": 6, "lat": 38.94114243, "lon": -92.31852159, "current": false}], "waiting_at_wp": false, "waiting_wp_idx": null, "imu_raw": {"type": "imu_frame", "version": 1, "rot": {"qi": 0.007, "qj": 0.023, "qk": -0.469, "qr": 0.883}, "euler": {"roll": -0.53, "pitch": 2.7, "yaw": 54.58, "north_offset_deg": 110.5537}, "hz": 48.3, "heading": {"raw": 355.657, "deg": 106.211, "dir": "ESE"}, "ts": 3719858, "game_rot": {"qi": -0.006, "qj": 0.024, "qk": 0.038, "qr": 0.999}, "accel": {"x": -0.14, "y": -0.06, "z": 9.89}, "lin_accel": {"x": 0.15, "y": 0.03, "z": 0.05}, "gravity": {"x": -0.29, "y": -0.09, "z": 9.84}, "gyro": {"x": -0.004, "y": 0.021, "z": 0.008}, "mag": {"x": -15.3, "y": 7.6, "z": 13.8}, "steps": 0, "cal": 0}, "rtk_raw": {"type": "rtk_frame", "version": 1, "lat": 38.94126147, "lon": -92.31892071333333, "alt": 236.817, "fix_quality": 4, "num_sats": 18, "hdop": 1.2, "speed_knots": 0.62, "track_deg": 287.26, "rtk_ts": 1777440919.586771, "server_ts": 1777440919.689898, "source": "rtk"}}
{"type": "autonav_status", "version": 1, "state": "running", "current_wp_idx": 0, "total_wp": 7, "heading_deg": 106.096, "target_bearing_deg": 103.8, "bearing_error_deg": -2.3, "dist_to_wp_m": 6.41, "linear": 1.0, "angular": 0.0, "gps_age_s": 0.15, "gps_packet_age_s": 0.15, "gps_fix_quality": 4, "sensor_block_reason": null, "imu_age_s": 0.02, "speed_ratio": 1.0, "manual_speed": 0.4, "calib": {"mark": {"lat": 38.9412569, "lon": -92.318900255}, "offset_applied": 110.55367668931876}, "waypoints_window": [{"idx": 0, "lat": 38.94124777, "lon": -92.31884882, "current": true}, {"idx": 1, "lat": 38.9412436, "lon": -92.31878981, "current": false}, {"idx": 2, "lat": 38.94120606, "lon": -92.3187308, "current": false}, {"idx": 3, "lat": 38.94124047, "lon": -92.31867984, "current": false}, {"idx": 4, "lat": 38.94124047, "lon": -92.31856987, "current": false}, {"idx": 5, "lat": 38.94121959, "lon": -92.31852293, "current": false}, {"idx": 6, "lat": 38.94114243, "lon": -92.31852159, "current": false}], "waiting_at_wp": false, "waiting_wp_idx": null, "imu_raw": {"type": "imu_frame", "version": 1, "rot": {"qi": 0.006, "qj": 0.021, "qk": -0.469, "qr": 0.883}, "euler": {"roll": -0.52, "pitch": 2.45, "yaw": 54.59, "north_offset_deg": 110.5537}, "hz": 48.1, "heading": {"raw": 355.542, "deg": 106.096, "dir": "ESE"}, "ts": 3720045, "game_rot": {"qi": -0.006, "qj": 0.022, "qk": 0.039, "qr": 0.999}, "accel": {"x": -0.41, "y": -0.02, "z": 10.07}, "lin_accel": {"x": -0.14, "y": 0.05, "z": 0.24}, "gravity": {"x": -0.27, "y": -0.08, "z": 9.84}, "gyro": {"x": 0.0, "y": 0.01, "z": 0.008}, "mag": {"x": -15.6, "y": 7.6, "z": 12.6}, "steps": 0, "cal": 0}, "rtk_raw": {"type": "rtk_frame", "version": 1, "lat": 38.94126147, "lon": -92.31892071333333, "alt": 236.817, "fix_quality": 4, "num_sats": 18, "hdop": 1.2, "speed_knots": 0.62, "track_deg": 287.26, "rtk_ts": 1777440919.586771, "server_ts": 1777440919.891198, "source": "rtk"}}
{"type": "autonav_status", "version": 1, "state": "running", "current_wp_idx": 0, "total_wp": 7, "heading_deg": 106.093, "target_bearing_deg": 103.8, "bearing_error_deg": -2.3, "dist_to_wp_m": 6.41, "linear": 1.0, "angular": 0.0, "gps_age_s": 0.15, "gps_packet_age_s": 0.15, "gps_fix_quality": 4, "sensor_block_reason": null, "imu_age_s": 0.02, "speed_ratio": 1.0, "manual_speed": 0.4, "calib": {"mark": {"lat": 38.9412569, "lon": -92.318900255}, "offset_applied": 110.55367668931876}, "waypoints_window": [{"idx": 0, "lat": 38.94124777, "lon": -92.31884882, "current": true}, {"idx": 1, "lat": 38.9412436, "lon": -92.31878981, "current": false}, {"idx": 2, "lat": 38.94120606, "lon": -92.3187308, "current": false}, {"idx": 3, "lat": 38.94124047, "lon": -92.31867984, "current": false}, {"idx": 4, "lat": 38.94124047, "lon": -92.31856987, "current": false}, {"idx": 5, "lat": 38.94121959, "lon": -92.31852293, "current": false}, {"idx": 6, "lat": 38.94114243, "lon": -92.31852159, "current": false}], "waiting_at_wp": false, "waiting_wp_idx": null, "imu_raw": {"type": "imu_frame", "version": 1, "rot": {"qi": 0.006, "qj": 0.021, "qk": -0.469, "qr": 0.883}, "euler": {"roll": -0.52, "pitch": 2.45, "yaw": 54.59, "north_offset_deg": 110.5537}, "hz": 48.5, "heading": {"raw": 355.539, "deg": 106.093, "dir": "ESE"}, "ts": 3720246, "game_rot": {"qi": -0.005, "qj": 0.021, "qk": 0.039, "qr": 0.999}, "accel": {"x": -0.45, "y": -0.14, "z": 10.07}, "lin_accel": {"x": -0.36, "y": -0.14, "z": -0.18}, "gravity": {"x": -0.25, "y": -0.07, "z": 9.84}, "gyro": {"x": -0.012, "y": 0.027, "z": -0.004}, "mag": {"x": -16.9, "y": 8.2, "z": 11.8}, "steps": 0, "cal": 0}, "rtk_raw": {"type": "rtk_frame", "version": 1, "lat": 38.94126147, "lon": -92.31892071333333, "alt": 236.817, "fix_quality": 4, "num_sats": 18, "hdop": 1.2, "speed_knots": 0.62, "track_deg": 287.26, "rtk_ts": 1777440919.586771, "server_ts": 1777440920.0924952, "source": "rtk"}}
{"type": "autonav_status", "version": 1, "state": "running", "current_wp_idx": 0, "total_wp": 7, "heading_deg": 106.093, "target_bearing_deg": 103.8, "bearing_error_deg": -2.3, "dist_to_wp_m": 6.41, "linear": 1.0, "angular": 0.0, "gps_age_s": 0.15, "gps_packet_age_s": 0.15, "gps_fix_quality": 4, "sensor_block_reason": null, "imu_age_s": 0.01, "speed_ratio": 1.0, "manual_speed": 0.4, "calib": {"mark": {"lat": 38.9412569, "lon": -92.318900255}, "offset_applied": 110.55367668931876}, "waypoints_window": [{"idx": 0, "lat": 38.94124777, "lon": -92.31884882, "current": true}, {"idx": 1, "lat": 38.9412436, "lon": -92.31878981, "current": false}, {"idx": 2, "lat": 38.94120606, "lon": -92.3187308, "current": false}, {"idx": 3, "lat": 38.94124047, "lon": -92.31867984, "current": false}, {"idx": 4, "lat": 38.94124047, "lon": -92.31856987, "current": false}, {"idx": 5, "lat": 38.94121959, "lon": -92.31852293, "current": false}, {"idx": 6, "lat": 38.94114243, "lon": -92.31852159, "current": false}], "waiting_at_wp": false, "waiting_wp_idx": null, "imu_raw": {"type": "imu_frame", "version": 1, "rot": {"qi": 0.006, "qj": 0.021, "qk": -0.468, "qr": 0.883}, "euler": {"roll": -0.52, "pitch": 2.45, "yaw": 54.73, "north_offset_deg": 110.5537}, "hz": 48.4, "heading": {"raw": 355.539, "deg": 106.093, "dir": "ESE"}, "ts": 3720456, "game_rot": {"qi": -0.005, "qj": 0.021, "qk": 0.039, "qr": 0.999}, "accel": {"x": -0.64, "y": -0.02, "z": 9.69}, "lin_accel": {"x": -0.38, "y": 0.05, "z": -0.14}, "gravity": {"x": -0.26, "y": -0.07, "z": 9.84}, "gyro": {"x": 0.027, "y": -0.008, "z": 0.006}, "mag": {"x": -16.0, "y": 6.8, "z": 12.1}, "steps": 0, "cal": 0}, "rtk_raw": {"type": "rtk_frame", "version": 1, "lat": 38.94126147, "lon": -92.31892071333333, "alt": 236.817, "fix_quality": 4, "num_sats": 18, "hdop": 1.2, "speed_knots": 0.62, "track_deg": 287.26, "rtk_ts": 1777440919.586771, "server_ts": 1777440920.2937758, "source": "rtk"}}
{"type": "autonav_status", "version": 1, "state": "running", "current_wp_idx": 0, "total_wp": 7, "heading_deg": 106.09, "target_bearing_deg": 103.8, "bearing_error_deg": -2.3, "dist_to_wp_m": 6.41, "linear": 1.0, "angular": 0.0, "gps_age_s": 0.15, "gps_packet_age_s": 0.15, "gps_fix_quality": 4, "sensor_block_reason": null, "imu_age_s": 0.01, "speed_ratio": 1.0, "manual_speed": 0.4, "calib": {"mark": {"lat": 38.9412569, "lon": -92.318900255}, "offset_applied": 110.55367668931876}, "waypoints_window": [{"idx": 0, "lat": 38.94124777, "lon": -92.31884882, "current": true}, {"idx": 1, "lat": 38.9412436, "lon": -92.31878981, "current": false}, {"idx": 2, "lat": 38.94120606, "lon": -92.3187308, "current": false}, {"idx": 3, "lat": 38.94124047, "lon": -92.31867984, "current": false}, {"idx": 4, "lat": 38.94124047, "lon": -92.31856987, "current": false}, {"idx": 5, "lat": 38.94121959, "lon": -92.31852293, "current": false}, {"idx": 6, "lat": 38.94114243, "lon": -92.31852159, "current": false}], "waiting_at_wp": false, "waiting_wp_idx": null, "imu_raw": {"type": "imu_frame", "version": 1, "rot": {"qi": 0.007, "qj": 0.02, "qk": -0.468, "qr": 0.883}, "euler": {"roll": -0.36, "pitch": 2.4, "yaw": 54.74, "north_offset_deg": 110.5537}, "hz": 48.8, "heading": {"raw": 355.536, "deg": 106.09, "dir": "ESE"}, "ts": 3720659, "game_rot": {"qi": -0.004, "qj": 0.02, "qk": 0.039, "qr": 0.999}, "accel": {"x": -0.48, "y": 0.02, "z": 10.11}, "lin_accel": {"x": -0.29, "y": 0.14, "z": 0.93}, "gravity": {"x": -0.27, "y": -0.05, "z": 9.84}, "gyro": {"x": 0.0, "y": -0.025, "z": 0.002}, "mag": {"x": -16.0, "y": 7.5, "z": 11.8}, "steps": 0, "cal": 0}, "rtk_raw": {"type": "rtk_frame", "version": 1, "lat": 38.94126147, "lon": -92.31892071333333, "alt": 236.817, "fix_quality": 4, "num_sats": 18, "hdop": 1.2, "speed_knots": 0.62, "track_deg": 287.26, "rtk_ts": 1777440919.586771, "server_ts": 1777440920.49509, "source": "rtk"}}
{"type": "autonav_status", "version": 1, "state": "running", "current_wp_idx": 0, "total_wp": 7, "heading_deg": 106.09, "target_bearing_deg": 103.6, "bearing_error_deg": -2.5, "dist_to_wp_m": 5.94, "linear": 1.0, "angular": 0.0, "gps_age_s": 0.15, "gps_packet_age_s": 0.15, "gps_fix_quality": 4, "sensor_block_reason": null, "imu_age_s": 0.01, "speed_ratio": 1.0, "manual_speed": 0.4, "calib": {"mark": {"lat": 38.9412569, "lon": -92.318900255}, "offset_applied": 110.55367668931876}, "waypoints_window": [{"idx": 0, "lat": 38.94124777, "lon": -92.31884882, "current": true}, {"idx": 1, "lat": 38.9412436, "lon": -92.31878981, "current": false}, {"idx": 2, "lat": 38.94120606, "lon": -92.3187308, "current": false}, {"idx": 3, "lat": 38.94124047, "lon": -92.31867984, "current": false}, {"idx": 4, "lat": 38.94124047, "lon": -92.31856987, "current": false}, {"idx": 5, "lat": 38.94121959, "lon": -92.31852293, "current": false}, {"idx": 6, "lat": 38.94114243, "lon": -92.31852159, "current": false}], "waiting_at_wp": false, "waiting_wp_idx": null, "imu_raw": {"type": "imu_frame", "version": 1, "rot": {"qi": 0.007, "qj": 0.019, "qk": -0.468, "qr": 0.883}, "euler": {"roll": -0.31, "pitch": 2.3, "yaw": 54.74, "north_offset_deg": 110.5537}, "hz": 48.1, "heading": {"raw": 355.536, "deg": 106.09, "dir": "ESE"}, "ts": 3720855, "game_rot": {"qi": -0.004, "qj": 0.02, "qk": 0.039, "qr": 0.999}, "accel": {"x": -0.6, "y": -0.1, "z": 9.69}, "lin_accel": {"x": -0.32, "y": -0.04, "z": -0.14}, "gravity": {"x": -0.28, "y": -0.06, "z": 9.84}, "gyro": {"x": -0.01, "y": 0.0, "z": 0.002}, "mag": {"x": -16.3, "y": 7.4, "z": 11.4}, "steps": 0, "cal": 0}, "rtk_raw": {"type": "rtk_frame", "version": 1, "lat": 38.94126035, "lon": -92.31891549333334, "alt": 236.818, "fix_quality": 4, "num_sats": 18, "hdop": 1.2, "speed_knots": 0.85, "track_deg": 106.9, "rtk_ts": 1777440920.5887702, "server_ts": 1777440920.695584, "source": "rtk"}}
{"type": "autonav_status", "version": 1, "state": "running", "current_wp_idx": 0, "total_wp": 7, "heading_deg": 105.975, "target_bearing_deg": 103.6, "bearing_error_deg": -2.3, "dist_to_wp_m": 5.94, "linear": 1.0, "angular": 0.0, "gps_age_s": 0.15, "gps_packet_age_s": 0.15, "gps_fix_quality": 4, "sensor_block_reason": null, "imu_age_s": 0.01, "speed_ratio": 1.0, "manual_speed": 0.4, "calib": {"mark": {"lat": 38.9412569, "lon": -92.318900255}, "offset_applied": 110.55367668931876}, "waypoints_window": [{"idx": 0, "lat": 38.94124777, "lon": -92.31884882, "current": true}, {"idx": 1, "lat": 38.9412436, "lon": -92.31878981, "current": false}, {"idx": 2, "lat": 38.94120606, "lon": -92.3187308, "current": false}, {"idx": 3, "lat": 38.94124047, "lon": -92.31867984, "current": false}, {"idx": 4, "lat": 38.94124047, "lon": -92.31856987, "current": false}, {"idx": 5, "lat": 38.94121959, "lon": -92.31852293, "current": false}, {"idx": 6, "lat": 38.94114243, "lon": -92.31852159, "current": false}], "waiting_at_wp": false, "waiting_wp_idx": null, "imu_raw": {"type": "imu_frame", "version": 1, "rot": {"qi": 0.006, "qj": 0.019, "qk": -0.468, "qr": 0.884}, "euler": {"roll": -0.41, "pitch": 2.25, "yaw": 54.71, "north_offset_deg": 110.5537}, "hz": 48.4, "heading": {"raw": 355.422, "deg": 105.975, "dir": "ESE"}, "ts": 3721057, "game_rot": {"qi": -0.004, "qj": 0.02, "qk": 0.04, "qr": 0.999}, "accel": {"x": -0.48, "y": -0.14, "z": 9.54}, "lin_accel": {"x": -0.19, "y": -0.07, "z": -0.3}, "gravity": {"x": -0.3, "y": -0.07, "z": 9.84}, "gyro": {"x": -0.006, "y": 0.016, "z": 0.002}, "mag": {"x": -15.7, "y": 7.1, "z": 12.1}, "steps": 0, "cal": 0}, "rtk_raw": {"type": "rtk_frame", "version": 1, "lat": 38.94126035, "lon": -92.31891549333334, "alt": 236.818, "fix_quality": 4, "num_sats": 18, "hdop": 1.2, "speed_knots": 0.85, "track_deg": 106.9, "rtk_ts": 1777440920.5887702, "server_ts": 1777440920.896904, "source": "rtk"}}
{"type": "autonav_status", "version": 1, "state": "running", "current_wp_idx": 0, "total_wp": 7, "heading_deg": 105.978, "target_bearing_deg": 103.6, "bearing_error_deg": -2.3, "dist_to_wp_m": 5.94, "linear": 1.0, "angular": 0.0, "gps_age_s": 0.15, "gps_packet_age_s": 0.15, "gps_fix_quality": 4, "sensor_block_reason": null, "imu_age_s": 0.0, "speed_ratio": 1.0, "manual_speed": 0.4, "calib": {"mark": {"lat": 38.9412569, "lon": -92.318900255}, "offset_applied": 110.55367668931876}, "waypoints_window": [{"idx": 0, "lat": 38.94124777, "lon": -92.31884882, "current": true}, {"idx": 1, "lat": 38.9412436, "lon": -92.31878981, "current": false}, {"idx": 2, "lat": 38.94120606, "lon": -92.3187308, "current": false}, {"idx": 3, "lat": 38.94124047, "lon": -92.31867984, "current": false}, {"idx": 4, "lat": 38.94124047, "lon": -92.31856987, "current": false}, {"idx": 5, "lat": 38.94121959, "lon": -92.31852293, "current": false}, {"idx": 6, "lat": 38.94114243, "lon": -92.31852159, "current": false}], "waiting_at_wp": false, "waiting_wp_idx": null, "imu_raw": {"type": "imu_frame", "version": 1, "rot": {"qi": 0.006, "qj": 0.02, "qk": -0.468, "qr": 0.883}, "euler": {"roll": -0.47, "pitch": 2.35, "yaw": 54.74, "north_offset_deg": 110.5537}, "hz": 48.0, "heading": {"raw": 355.424, "deg": 105.978, "dir": "ESE"}, "ts": 3721267, "game_rot": {"qi": -0.005, "qj": 0.02, "qk": 0.04, "qr": 0.999}, "accel": {"x": -0.64, "y": -0.06, "z": 9.54}, "lin_accel": {"x": -0.28, "y": 0.09, "z": 0.01}, "gravity": {"x": -0.34, "y": -0.08, "z": 9.84}, "gyro": {"x": -0.006, "y": 0.018, "z": 0.0}, "mag": {"x": -15.9, "y": 7.8, "z": 11.4}, "steps": 0, "cal": 0}, "rtk_raw": {"type": "rtk_frame", "version": 1, "lat": 38.94126035, "lon": -92.31891549333334, "alt": 236.818, "fix_quality": 4, "num_sats": 18, "hdop": 1.2, "speed_knots": 0.85, "track_deg": 106.9, "rtk_ts": 1777440920.5887702, "server_ts": 1777440921.0980952, "source": "rtk"}}
{"type": "autonav_status", "version": 1, "state": "running", "current_wp_idx": 0, "total_wp": 7, "heading_deg": 105.978, "target_bearing_deg": 103.6, "bearing_error_deg": -2.3, "dist_to_wp_m": 5.94, "linear": 1.0, "angular": 0.0, "gps_age_s": 0.15, "gps_packet_age_s": 0.15, "gps_fix_quality": 4, "sensor_block_reason": null, "imu_age_s": 0.0, "speed_ratio": 1.0, "manual_speed": 0.4, "calib": {"mark": {"lat": 38.9412569, "lon": -92.318900255}, "offset_applied": 110.55367668931876}, "waypoints_window": [{"idx": 0, "lat": 38.94124777, "lon": -92.31884882, "current": true}, {"idx": 1, "lat": 38.9412436, "lon": -92.31878981, "current": false}, {"idx": 2, "lat": 38.94120606, "lon": -92.3187308, "current": false}, {"idx": 3, "lat": 38.94124047, "lon": -92.31867984, "current": false}, {"idx": 4, "lat": 38.94124047, "lon": -92.31856987, "current": false}, {"idx": 5, "lat": 38.94121959, "lon": -92.31852293, "current": false}, {"idx": 6, "lat": 38.94114243, "lon": -92.31852159, "current": false}], "waiting_at_wp": false, "waiting_wp_idx": null, "imu_raw": {"type": "imu_frame", "version": 1, "rot": {"qi": 0.006, "qj": 0.02, "qk": -0.468, "qr": 0.884}, "euler": {"roll": -0.47, "pitch": 2.35, "yaw": 54.71, "north_offset_deg": 110.5537}, "hz": 48.5, "heading": {"raw": 355.424, "deg": 105.978, "dir": "ESE"}, "ts": 3721467, "game_rot": {"qi": -0.005, "qj": 0.02, "qk": 0.04, "qr": 0.999}, "accel": {"x": -0.29, "y": 0.09, "z": 10.38}, "lin_accel": {"x": 0.07, "y": 0.17, "z": 0.54}, "gravity": {"x": -0.36, "y": -0.08, "z": 9.84}, "gyro": {"x": 0.008, "y": -0.004, "z": 0.002}, "mag": {"x": -17.3, "y": 7.8, "z": 10.6}, "steps": 0, "cal": 0}, "rtk_raw": {"type": "rtk_frame", "version": 1, "lat": 38.94126035, "lon": -92.31891549333334, "alt": 236.818, "fix_quality": 4, "num_sats": 18, "hdop": 1.2, "speed_knots": 0.85, "track_deg": 106.9, "rtk_ts": 1777440920.5887702, "server_ts": 1777440921.299407, "source": "rtk"}}
{"type": "autonav_status", "version": 1, "state": "running", "current_wp_idx": 0, "total_wp": 7, "heading_deg": 105.976, "target_bearing_deg": 103.6, "bearing_error_deg": -2.3, "dist_to_wp_m": 5.94, "linear": 1.0, "angular": 0.0, "gps_age_s": 0.15, "gps_packet_age_s": 0.15, "gps_fix_quality": 4, "sensor_block_reason": null, "imu_age_s": 0.02, "speed_ratio": 1.0, "manual_speed": 0.4, "calib": {"mark": {"lat": 38.9412569, "lon": -92.318900255}, "offset_applied": 110.55367668931876}, "waypoints_window": [{"idx": 0, "lat": 38.94124777, "lon": -92.31884882, "current": true}, {"idx": 1, "lat": 38.9412436, "lon": -92.31878981, "current": false}, {"idx": 2, "lat": 38.94120606, "lon": -92.3187308, "current": false}, {"idx": 3, "lat": 38.94124047, "lon": -92.31867984, "current": false}, {"idx": 4, "lat": 38.94124047, "lon": -92.31856987, "current": false}, {"idx": 5, "lat": 38.94121959, "lon": -92.31852293, "current": false}, {"idx": 6, "lat": 38.94114243, "lon": -92.31852159, "current": false}], "waiting_at_wp": false, "waiting_wp_idx": null, "imu_raw": {"type": "imu_frame", "version": 1, "rot": {"qi": 0.008, "qj": 0.02, "qk": -0.467, "qr": 0.884}, "euler": {"roll": -0.26, "pitch": 2.45, "yaw": 54.85, "north_offset_deg": 110.5537}, "hz": 48.2, "heading": {"raw": 355.422, "deg": 105.976, "dir": "ESE"}, "ts": 3721655, "game_rot": {"qi": -0.004, "qj": 0.021, "qk": 0.04, "qr": 0.999}, "accel": {"x": -0.48, "y": 0.13, "z": 10.53}, "lin_accel": {"x": -0.09, "y": 0.18, "z": 0.69}, "gravity": {"x": -0.4, "y": -0.05, "z": 9.84}, "gyro": {"x": -0.004, "y": 0.018, "z": 0.0}, "mag": {"x": -16.0, "y": 7.0, "z": 10.6}, "steps": 0, "cal": 0}, "rtk_raw": {"type": "rtk_frame", "version": 1, "lat": 38.94126035, "lon": -92.31891549333334, "alt": 236.818, "fix_quality": 4, "num_sats": 18, "hdop": 1.2, "speed_knots": 0.85, "track_deg": 106.9, "rtk_ts": 1777440920.5887702, "server_ts": 1777440921.500705, "source": "rtk"}}
{"type": "autonav_status", "version": 1, "state": "running", "current_wp_idx": 0, "total_wp": 7, "heading_deg": 105.976, "target_bearing_deg": 103.5, "bearing_error_deg": -2.5, "dist_to_wp_m": 5.46, "linear": 1.0, "angular": 0.0, "gps_age_s": 0.15, "gps_packet_age_s": 0.15, "gps_fix_quality": 4, "sensor_block_reason": null, "imu_age_s": 0.01, "speed_ratio": 1.0, "manual_speed": 0.4, "calib": {"mark": {"lat": 38.9412569, "lon": -92.318900255}, "offset_applied": 110.55367668931876}, "waypoints_window": [{"idx": 0, "lat": 38.94124777, "lon": -92.31884882, "current": true}, {"idx": 1, "lat": 38.9412436, "lon": -92.31878981, "current": false}, {"idx": 2, "lat": 38.94120606, "lon": -92.3187308, "current": false}, {"idx": 3, "lat": 38.94124047, "lon": -92.31867984, "current": false}, {"idx": 4, "lat": 38.94124047, "lon": -92.31856987, "current": false}, {"idx": 5, "lat": 38.94121959, "lon": -92.31852293, "current": false}, {"idx": 6, "lat": 38.94114243, "lon": -92.31852159, "current": false}], "waiting_at_wp": false, "waiting_wp_idx": null, "imu_raw": {"type": "imu_frame", "version": 1, "rot": {"qi": 0.007, "qj": 0.02, "qk": -0.467, "qr": 0.884}, "euler": {"roll": -0.36, "pitch": 2.4, "yaw": 54.85, "north_offset_deg": 110.5537}, "hz": 48.9, "heading": {"raw": 355.422, "deg": 105.976, "dir": "ESE"}, "ts": 3721858, "game_rot": {"qi": -0.004, "qj": 0.021, "qk": 0.04, "qr": 0.999}, "accel": {"x": -0.48, "y": -0.06, "z": 10.84}, "lin_accel": {"x": 0.01, "y": -0.05, "z": -0.38}, "gravity": {"x": -0.43, "y": -0.05, "z": 9.84}, "gyro": {"x": 0.0, "y": 0.012, "z": 0.004}, "mag": {"x": -16.7, "y": 7.0, "z": 10.1}, "steps": 0, "cal": 0}, "rtk_raw": {"type": "rtk_frame", "version": 1, "lat": 38.9412592, "lon": -92.31891013166667, "alt": 236.779, "fix_quality": 4, "num_sats": 19, "hdop": 1.0, "speed_knots": 0.87, "track_deg": 104.82, "rtk_ts": 1777440921.5856059, "server_ts": 1777440921.7020001, "source": "rtk"}}
{"type": "autonav_status", "version": 1, "state": "running", "current_wp_idx": 0, "total_wp": 7, "heading_deg": 105.861, "target_bearing_deg": 103.5, "bearing_error_deg": -2.4, "dist_to_wp_m": 5.46, "linear": 1.0, "angular": 0.0, "gps_age_s": 0.16, "gps_packet_age_s": 0.16, "gps_fix_quality": 4, "sensor_block_reason": null, "imu_age_s": 0.01, "speed_ratio": 1.0, "manual_speed": 0.4, "calib": {"mark": {"lat": 38.9412569, "lon": -92.318900255}, "offset_applied": 110.55367668931876}, "waypoints_window": [{"idx": 0, "lat": 38.94124777, "lon": -92.31884882, "current": true}, {"idx": 1, "lat": 38.9412436, "lon": -92.31878981, "current": false}, {"idx": 2, "lat": 38.94120606, "lon": -92.3187308, "current": false}, {"idx": 3, "lat": 38.94124047, "lon": -92.31867984, "current": false}, {"idx": 4, "lat": 38.94124047, "lon": -92.31856987, "current": false}, {"idx": 5, "lat": 38.94121959, "lon": -92.31852293, "current": false}, {"idx": 6, "lat": 38.94114243, "lon": -92.31852159, "current": false}], "waiting_at_wp": false, "waiting_wp_idx": null, "imu_raw": {"type": "imu_frame", "version": 1, "rot": {"qi": 0.007, "qj": 0.021, "qk": -0.467, "qr": 0.884}, "euler": {"roll": -0.42, "pitch": 2.5, "yaw": 54.85, "north_offset_deg": 110.5537}, "hz": 48.5, "heading": {"raw": 355.308, "deg": 105.861, "dir": "ESE"}, "ts": 3722067, "game_rot": {"qi": -0.004, "qj": 0.022, "qk": 0.041, "qr": 0.999}, "accel": {"x": -0.6, "y": -0.25, "z": 9.0}, "lin_accel": {"x": -0.14, "y": -0.19, "z": -0.84}, "gravity": {"x": -0.45, "y": -0.06, "z": 9.84}, "gyro": {"x": -0.002, "y": 0.014, "z": 0.0}, "mag": {"x": -16.2, "y": 8.2, "z": 11.4}, "steps": 0, "cal": 0}, "rtk_raw": {"type": "rtk_frame", "version": 1, "lat": 38.9412592, "lon": -92.31891013166667, "alt": 236.779, "fix_quality": 4, "num_sats": 19, "hdop": 1.0, "speed_knots": 0.87, "track_deg": 104.82, "rtk_ts": 1777440921.5856059, "server_ts": 1777440921.902425, "source": "rtk"}}
{"type": "autonav_status", "version": 1, "state": "running", "current_wp_idx": 0, "total_wp": 7, "heading_deg": 105.859, "target_bearing_deg": 103.5, "bearing_error_deg": -2.4, "dist_to_wp_m": 5.46, "linear": 1.0, "angular": 0.0, "gps_age_s": 0.16, "gps_packet_age_s": 0.16, "gps_fix_quality": 4, "sensor_block_reason": null, "imu_age_s": 0.0, "speed_ratio": 1.0, "manual_speed": 0.4, "calib": {"mark": {"lat": 38.9412569, "lon": -92.318900255}, "offset_applied": 110.55367668931876}, "waypoints_window": [{"idx": 0, "lat": 38.94124777, "lon": -92.31884882, "current": true}, {"idx": 1, "lat": 38.9412436, "lon": -92.31878981, "current": false}, {"idx": 2, "lat": 38.94120606, "lon": -92.3187308, "current": false}, {"idx": 3, "lat": 38.94124047, "lon": -92.31867984, "current": false}, {"idx": 4, "lat": 38.94124047, "lon": -92.31856987, "current": false}, {"idx": 5, "lat": 38.94121959, "lon": -92.31852293, "current": false}, {"idx": 6, "lat": 38.94114243, "lon": -92.31852159, "current": false}], "waiting_at_wp": false, "waiting_wp_idx": null, "imu_raw": {"type": "imu_frame", "version": 1, "rot": {"qi": 0.008, "qj": 0.021, "qk": -0.467, "qr": 0.884}, "euler": {"roll": -0.31, "pitch": 2.56, "yaw": 54.85, "north_offset_deg": 110.5537}, "hz": 48.7, "heading": {"raw": 355.305, "deg": 105.859, "dir": "ESE"}, "ts": 3722273, "game_rot": {"qi": -0.003, "qj": 0.022, "qk": 0.041, "qr": 0.999}, "accel": {"x": -0.64, "y": 0.05, "z": 9.96}, "lin_accel": {"x": -0.17, "y": 0.14, "z": -0.81}, "gravity": {"x": -0.47, "y": -0.05, "z": 9.85}, "gyro": {"x": 0.002, "y": -0.006, "z": -0.004}, "mag": {"x": -15.3, "y": 7.1, "z": 11.3}, "steps": 0, "cal": 0}, "rtk_raw": {"type": "rtk_frame", "version": 1, "lat": 38.9412592, "lon": -92.31891013166667, "alt": 236.779, "fix_quality": 4, "num_sats": 19, "hdop": 1.0, "speed_knots": 0.87, "track_deg": 104.82, "rtk_ts": 1777440921.5856059, "server_ts": 1777440922.10369, "source": "rtk"}}
{"type": "autonav_status", "version": 1, "state": "running", "current_wp_idx": 0, "total_wp": 7, "heading_deg": 105.859, "target_bearing_deg": 103.5, "bearing_error_deg": -2.4, "dist_to_wp_m": 5.46, "linear": 1.0, "angular": 0.0, "gps_age_s": 0.15, "gps_packet_age_s": 0.15, "gps_fix_quality": 4, "sensor_block_reason": null, "imu_age_s": 0.0, "speed_ratio": 1.0, "manual_speed": 0.4, "calib": {"mark": {"lat": 38.9412569, "lon": -92.318900255}, "offset_applied": 110.55367668931876}, "waypoints_window": [{"idx": 0, "lat": 38.94124777, "lon": -92.31884882, "current": true}, {"idx": 1, "lat": 38.9412436, "lon": -92.31878981, "current": false}, {"idx": 2, "lat": 38.94120606, "lon": -92.3187308, "current": false}, {"idx": 3, "lat": 38.94124047, "lon": -92.31867984, "current": false}, {"idx": 4, "lat": 38.94124047, "lon": -92.31856987, "current": false}, {"idx": 5, "lat": 38.94121959, "lon": -92.31852293, "current": false}, {"idx": 6, "lat": 38.94114243, "lon": -92.31852159, "current": false}], "waiting_at_wp": false, "waiting_wp_idx": null, "imu_raw": {"type": "imu_frame", "version": 1, "rot": {"qi": 0.008, "qj": 0.021, "qk": -0.467, "qr": 0.884}, "euler": {"roll": -0.31, "pitch": 2.56, "yaw": 54.85, "north_offset_deg": 110.5537}, "hz": 48.5, "heading": {"raw": 355.305, "deg": 105.859, "dir": "ESE"}, "ts": 3722478, "game_rot": {"qi": -0.003, "qj": 0.022, "qk": 0.041, "qr": 0.999}, "accel": {"x": -0.52, "y": -0.14, "z": 9.43}, "lin_accel": {"x": -0.03, "y": -0.05, "z": -0.04}, "gravity": {"x": -0.48, "y": -0.05, "z": 9.85}, "gyro": {"x": -0.004, "y": 0.0, "z": 0.0}, "mag": {"x": -17.9, "y": 6.5, "z": 9.3}, "steps": 0, "cal": 0}, "rtk_raw": {"type": "rtk_frame", "version": 1, "lat": 38.9412592, "lon": -92.31891013166667, "alt": 236.779, "fix_quality": 4, "num_sats": 19, "hdop": 1.0, "speed_knots": 0.87, "track_deg": 104.82, "rtk_ts": 1777440921.5856059, "server_ts": 1777440922.30579, "source": "rtk"}}
{"type": "autonav_status", "version": 1, "state": "running", "current_wp_idx": 0, "total_wp": 7, "heading_deg": 105.859, "target_bearing_deg": 103.5, "bearing_error_deg": -2.4, "dist_to_wp_m": 5.46, "linear": 1.0, "angular": 0.0, "gps_age_s": 0.15, "gps_packet_age_s": 0.15, "gps_fix_quality": 4, "sensor_block_reason": null, "imu_age_s": 0.01, "speed_ratio": 1.0, "manual_speed": 0.4, "calib": {"mark": {"lat": 38.9412569, "lon": -92.318900255}, "offset_applied": 110.55367668931876}, "waypoints_window": [{"idx": 0, "lat": 38.94124777, "lon": -92.31884882, "current": true}, {"idx": 1, "lat": 38.9412436, "lon": -92.31878981, "current": false}, {"idx": 2, "lat": 38.94120606, "lon": -92.3187308, "current": false}, {"idx": 3, "lat": 38.94124047, "lon": -92.31867984, "current": false}, {"idx": 4, "lat": 38.94124047, "lon": -92.31856987, "current": false}, {"idx": 5, "lat": 38.94121959, "lon": -92.31852293, "current": false}, {"idx": 6, "lat": 38.94114243, "lon": -92.31852159, "current": false}], "waiting_at_wp": false, "waiting_wp_idx": null, "imu_raw": {"type": "imu_frame", "version": 1, "rot": {"qi": 0.008, "qj": 0.021, "qk": -0.466, "qr": 0.884}, "euler": {"roll": -0.31, "pitch": 2.56, "yaw": 55.0, "north_offset_deg": 110.5537}, "hz": 48.3, "heading": {"raw": 355.305, "deg": 105.859, "dir": "ESE"}, "ts": 3722669, "game_rot": {"qi": -0.003, "qj": 0.022, "qk": 0.041, "qr": 0.999}, "accel": {"x": -0.45, "y": 0.09, "z": 9.96}, "lin_accel": {"x": 0.05, "y": 0.14, "z": 0.11}, "gravity": {"x": -0.5, "y": -0.05, "z": 9.85}, "gyro": {"x": -0.004, "y": 0.018, "z": 0.006}, "mag": {"x": -17.6, "y": 7.2, "z": 9.4}, "steps": 0, "cal": 0}, "rtk_raw": {"type": "rtk_frame", "version": 1, "lat": 38.9412592, "lon": -92.31891013166667, "alt": 236.779, "fix_quality": 4, "num_sats": 19, "hdop": 1.0, "speed_knots": 0.87, "track_deg": 104.82, "rtk_ts": 1777440921.5856059, "server_ts": 1777440922.5070772, "source": "rtk"}}
