{"type": "autonav_status", "version": 1, "state": "idle", "current_wp_idx": 0, "total_wp": 7, "heading_deg": 88.609, "target_bearing_deg": 112.7, "bearing_error_deg": 24.1, "dist_to_wp_m": 7.81, "linear": 0.0, "angular": 0.0, "gps_age_s": 0.18, "gps_packet_age_s": 0.18, "gps_fix_quality": 4, "sensor_block_reason": null, "imu_age_s": 0.01, "speed_ratio": 1.0, "manual_speed": 0.4, "calib": {"mark": {"lat": 38.94127517333333, "lon": -92.31891217166667}, "offset_applied": 108.6645180307653}, "waypoints_window": [{"idx": 0, "lat": 38.94124777, "lon": -92.31884882, "current": true}, {"idx": 1, "lat": 38.9412436, "lon": -92.31878981, "current": false}, {"idx": 2, "lat": 38.94120606, "lon": -92.3187308, "current": false}, {"idx": 3, "lat": 38.94124047, "lon": -92.31867984, "current": false}, {"idx": 4, "lat": 38.94124047, "lon": -92.31856987, "current": false}, {"idx": 5, "lat": 38.94121959, "lon": -92.31852293, "current": false}, {"idx": 6, "lat": 38.94114243, "lon": -92.31852159, "current": false}], "waiting_at_wp": false, "waiting_wp_idx": null, "imu_raw": {"type": "imu_frame", "version": 1, "rot": {"qi": 0.009, "qj": 0.026, "qk": -0.348, "qr": 0.937}, "euler": {"roll": -0.07, "pitch": 3.15, "yaw": 67.92, "north_offset_deg": 108.6645}, "hz": 48.1, "heading": {"raw": 339.945, "deg": 88.609, "dir": "E"}, "ts": 2063720, "game_rot": {"qi": -0.005, "qj": 0.027, "qk": 0.174, "qr": 0.984}, "accel": {"x": -0.52, "y": 0.02, "z": 9.84}, "lin_accel": {"x": 0.02, "y": 0.02, "z": -0.02}, "gravity": {"x": -0.54, "y": -0.01, "z": 9.86}, "gyro": {"x": 0.0, "y": 0.0, "z": 0.0}, "mag": {"x": -13.0, "y": 8.8, "z": 16.3}, "steps": 0, "cal": 0}, "rtk_raw": {"type": "rtk_frame", "version": 1, "lat": 38.941274826666664, "lon": -92.318932015, "alt": 236.781, "fix_quality": 4, "num_sats": 16, "hdop": 1.2, "speed_knots": 0.03, "track_deg": 270.72, "rtk_ts": 1777439262.570883, "server_ts": 1777439263.574646, "source": "rtk"}}
{"type": "autonav_status", "version": 1, "state": "idle", "current_wp_idx": 0, "total_wp": 7, "heading_deg": 88.609, "target_bearing_deg": 112.7, "bearing_error_deg": 24.1, "dist_to_wp_m": 7.81, "linear": 0.0, "angular": 0.0, "gps_age_s": 0.18, "gps_packet_age_s": 0.18, "gps_fix_quality": 4, "sensor_block_reason": null, "imu_age_s": 0.01, "speed_ratio": 1.0, "manual_speed": 0.4, "calib": {"mark": {"lat": 38.94127517333333, "lon": -92.31891217166667}, "offset_applied": 108.6645180307653}, "waypoints_window": [{"idx": 0, "lat": 38.94124777, "lon": -92.31884882, "current": true}, {"idx": 1, "lat": 38.9412436, "lon": -92.31878981, "current": false}, {"idx": 2, "lat": 38.94120606, "lon": -92.3187308, "current": false}, {"idx": 3, "lat": 38.94124047, "lon": -92.31867984, "current": false}, {"idx": 4, "lat": 38.94124047, "lon": -92.31856987, "current": false}, {"idx": 5, "lat": 38.94121959, "lon": -92.31852293, "current": false}, {"idx": 6, "lat": 38.94114243, "lon": -92.31852159, "current": false}], "waiting_at_wp": false, "waiting_wp_idx": null, "imu_raw": {"type": "imu_frame", "version": 1, "rot": {"qi": 0.009, "qj": 0.026, "qk": -0.348, "qr": 0.937}, "euler": {"roll": -0.07, "pitch": 3.15, "yaw": 67.92, "north_offset_deg": 108.6645}, "hz": 48.3, "heading": {"raw": 339.945, "deg": 88.609, "dir": "E"}, "ts": 2063923, "game_rot": {"qi": -0.005, "qj": 0.027, "qk": 0.174, "qr": 0.984}, "accel": {"x": -0.52, "y": -0.02, "z": 9.85}, "lin_accel": {"x": 0.02, "y": -0.02, "z": -0.02}, "gravity": {"x": -0.54, "y": -0.01, "z": 9.86}, "gyro": {"x": 0.0, "y": 0.0, "z": 0.0}, "mag": {"x": -13.4, "y": 7.3, "z": 17.8}, "steps": 0, "cal": 0}, "rtk_raw": {"type": "rtk_frame", "version": 1, "lat": 38.94127482333333, "lon": -92.318932, "alt": 236.786, "fix_quality": 4, "num_sats": 16, "hdop": 1.2, "speed_knots": 0.07, "track_deg": 270.72, "rtk_ts": 1777439263.5766442, "server_ts": 1777439263.775966, "source": "rtk"}}
{"type": "autonav_status", "version": 1, "state": "idle", "current_wp_idx": 0, "total_wp": 7, "heading_deg": 88.609, "target_bearing_deg": 112.7, "bearing_error_deg": 24.1, "dist_to_wp_m": 7.81, "linear": 0.0, "angular": 0.0, "gps_age_s": 0.18, "gps_packet_age_s": 0.18, "gps_fix_quality": 4, "sensor_block_reason": null, "imu_age_s": 0.01, "speed_ratio": 1.0, "manual_speed": 0.4, "calib": {"mark": {"lat": 38.94127517333333, "lon": -92.31891217166667}, "offset_applied": 108.6645180307653}, "waypoints_window": [{"idx": 0, "lat": 38.94124777, "lon": -92.31884882, "current": true}, {"idx": 1, "lat": 38.9412436, "lon": -92.31878981, "current": false}, {"idx": 2, "lat": 38.94120606, "lon": -92.3187308, "current": false}, {"idx": 3, "lat": 38.94124047, "lon": -92.31867984, "current": false}, {"idx": 4, "lat": 38.94124047, "lon": -92.31856987, "current": false}, {"idx": 5, "lat": 38.94121959, "lon": -92.31852293, "current": false}, {"idx": 6, "lat": 38.94114243, "lon": -92.31852159, "current": false}], "waiting_at_wp": false, "waiting_wp_idx": null, "imu_raw": {"type": "imu_frame", "version": 1, "rot": {"qi": 0.009, "qj": 0.026, "qk": -0.348, "qr": 0.937}, "euler": {"roll": -0.07, "pitch": 3.15, "yaw": 67.92, "north_offset_deg": 108.6645}, "hz": 48.7, "heading": {"raw": 339.945, "deg": 88.609, "dir": "E"}, "ts": 2064126, "game_rot": {"qi": -0.005, "qj": 0.027, "qk": 0.174, "qr": 0.984}, "accel": {"x": -0.56, "y": -0.02, "z": 9.89}, "lin_accel": {"x": 0.02, "y": -0.01, "z": 0.02}, "gravity": {"x": -0.54, "y": -0.01, "z": 9.86}, "gyro": {"x": 0.0, "y": 0.0, "z": 0.0}, "mag": {"x": -14.1, "y": 6.8, "z": 16.2}, "steps": 0, "cal": 0}, "rtk_raw": {"type": "rtk_frame", "version": 1, "lat": 38.94127482333333, "lon": -92.318932, "alt": 236.786, "fix_quality": 4, "num_sats": 16, "hdop": 1.2, "speed_knots": 0.07, "track_deg": 270.72, "rtk_ts": 1777439263.5766442, "server_ts": 1777439263.977226, "source": "rtk"}}
{"type": "autonav_status", "version": 1, "state": "idle", "current_wp_idx": 0, "total_wp": 7, "heading_deg": 88.609, "target_bearing_deg": 112.7, "bearing_error_deg": 24.1, "dist_to_wp_m": 7.81, "linear": 0.0, "angular": 0.0, "gps_age_s": 0.18, "gps_packet_age_s": 0.18, "gps_fix_quality": 4, "sensor_block_reason": null, "imu_age_s": 0.02, "speed_ratio": 1.0, "manual_speed": 0.4, "calib": {"mark": {"lat": 38.94127517333333, "lon": -92.31891217166667}, "offset_applied": 108.6645180307653}, "waypoints_window": [{"idx": 0, "lat": 38.94124777, "lon": -92.31884882, "current": true}, {"idx": 1, "lat": 38.9412436, "lon": -92.31878981, "current": false}, {"idx": 2, "lat": 38.94120606, "lon": -92.3187308, "current": false}, {"idx": 3, "lat": 38.94124047, "lon": -92.31867984, "current": false}, {"idx": 4, "lat": 38.94124047, "lon": -92.31856987, "current": false}, {"idx": 5, "lat": 38.94121959, "lon": -92.31852293, "current": false}, {"idx": 6, "lat": 38.94114243, "lon": -92.31852159, "current": false}], "waiting_at_wp": false, "waiting_wp_idx": null, "imu_raw": {"type": "imu_frame", "version": 1, "rot": {"qi": 0.009, "qj": 0.026, "qk": -0.348, "qr": 0.937}, "euler": {"roll": -0.07, "pitch": 3.15, "yaw": 67.92, "north_offset_deg": 108.6645}, "hz": 48.8, "heading": {"raw": 339.945, "deg": 88.609, "dir": "E"}, "ts": 2064315, "game_rot": {"qi": -0.005, "qj": 0.027, "qk": 0.174, "qr": 0.984}, "accel": {"x": -0.52, "y": 0.02, "z": 9.88}, "lin_accel": {"x": 0.02, "y": 0.02, "z": 0.02}, "gravity": {"x": -0.54, "y": -0.01, "z": 9.86}, "gyro": {"x": 0.0, "y": 0.0, "z": 0.0}, "mag": {"x": -13.7, "y": 7.6, "z": 17.0}, "steps": 0, "cal": 0}, "rtk_raw": {"type": "rtk_frame", "version": 1, "lat": 38.94127482333333, "lon": -92.318932, "alt": 236.786, "fix_quality": 4, "num_sats": 16, "hdop": 1.2, "speed_knots": 0.07, "track_deg": 270.72, "rtk_ts": 1777439263.5766442, "server_ts": 1777439264.177873, "source": "rtk"}}
{"type": "autonav_status", "version": 1, "state": "idle", "current_wp_idx": 0, "total_wp": 7, "heading_deg": 88.609, "target_bearing_deg": 112.7, "bearing_error_deg": 24.1, "dist_to_wp_m": 7.81, "linear": 0.0, "angular": 0.0, "gps_age_s": 0.18, "gps_packet_age_s": 0.18, "gps_fix_quality": 4, "sensor_block_reason": null, "imu_age_s": 0.01, "speed_ratio": 1.0, "manual_speed": 0.4, "calib": {"mark": {"lat": 38.94127517333333, "lon": -92.31891217166667}, "offset_applied": 108.6645180307653}, "waypoints_window": [{"idx": 0, "lat": 38.94124777, "lon": -92.31884882, "current": true}, {"idx": 1, "lat": 38.9412436, "lon": -92.31878981, "current": false}, {"idx": 2, "lat": 38.94120606, "lon": -92.3187308, "current": false}, {"idx": 3, "lat": 38.94124047, "lon": -92.31867984, "current": false}, {"idx": 4, "lat": 38.94124047, "lon": -92.31856987, "current": false}, {"idx": 5, "lat": 38.94121959, "lon": -92.31852293, "current": false}, {"idx": 6, "lat": 38.94114243, "lon": -92.31852159, "current": false}], "waiting_at_wp": false, "waiting_wp_idx": null, "imu_raw": {"type": "imu_frame", "version": 1, "rot": {"qi": 0.009, "qj": 0.026, "qk": -0.348, "qr": 0.937}, "euler": {"roll": -0.07, "pitch": 3.15, "yaw": 67.92, "north_offset_deg": 108.6645}, "hz": 48.4, "heading": {"raw": 339.945, "deg": 88.609, "dir": "E"}, "ts": 2064527, "game_rot": {"qi": -0.005, "qj": 0.027, "qk": 0.174, "qr": 0.984}, "accel": {"x": -0.56, "y": 0.02, "z": 9.88}, "lin_accel": {"x": -0.02, "y": 0.02, "z": -0.02}, "gravity": {"x": -0.54, "y": -0.01, "z": 9.86}, "gyro": {"x": 0.0, "y": 0.0, "z": 0.0}, "mag": {"x": -12.4, "y": 6.5, "z": 16.5}, "steps": 0, "cal": 0}, "rtk_raw": {"type": "rtk_frame", "version": 1, "lat": 38.94127482333333, "lon": -92.318932, "alt": 236.786, "fix_quality": 4, "num_sats": 16, "hdop": 1.2, "speed_knots": 0.07, "track_deg": 270.72, "rtk_ts": 1777439263.5766442, "server_ts": 1777439264.378882, "source": "rtk"}}
{"type": "autonav_status", "version": 1, "state": "idle", "current_wp_idx": 0, "total_wp": 7, "heading_deg": 88.609, "target_bearing_deg": 112.7, "bearing_error_deg": 24.1, "dist_to_wp_m": 7.81, "linear": 0.0, "angular": 0.0, "gps_age_s": 0.18, "gps_packet_age_s": 0.18, "gps_fix_quality": 4, "sensor_block_reason": null, "imu_age_s": 0.0, "speed_ratio": 1.0, "manual_speed": 0.4, "calib": {"mark": {"lat": 38.94127517333333, "lon": -92.31891217166667}, "offset_applied": 108.6645180307653}, "waypoints_window": [{"idx": 0, "lat": 38.94124777, "lon": -92.31884882, "current": true}, {"idx": 1, "lat": 38.9412436, "lon": -92.31878981, "current": false}, {"idx": 2, "lat": 38.94120606, "lon": -92.3187308, "current": false}, {"idx": 3, "lat": 38.94124047, "lon": -92.31867984, "current": false}, {"idx": 4, "lat": 38.94124047, "lon": -92.31856987, "current": false}, {"idx": 5, "lat": 38.94121959, "lon": -92.31852293, "current": false}, {"idx": 6, "lat": 38.94114243, "lon": -92.31852159, "current": false}], "waiting_at_wp": false, "waiting_wp_idx": null, "imu_raw": {"type": "imu_frame", "version": 1, "rot": {"qi": 0.009, "qj": 0.026, "qk": -0.348, "qr": 0.937}, "euler": {"roll": -0.07, "pitch": 3.15, "yaw": 67.92, "north_offset_deg": 108.6645}, "hz": 48.4, "heading": {"raw": 339.945, "deg": 88.609, "dir": "E"}, "ts": 2064734, "game_rot": {"qi": -0.005, "qj": 0.027, "qk": 0.174, "qr": 0.984}, "accel": {"x": -0.56, "y": -0.02, "z": 9.89}, "lin_accel": {"x": -0.01, "y": -0.02, "z": 0.02}, "gravity": {"x": -0.55, "y": -0.01, "z": 9.86}, "gyro": {"x": 0.0, "y": 0.0, "z": 0.0}, "mag": {"x": -13.1, "y": 7.2, "z": 16.9}, "steps": 0, "cal": 0}, "rtk_raw": {"type": "rtk_frame", "version": 1, "lat": 38.94127482333333, "lon": -92.318932, "alt": 236.786, "fix_quality": 4, "num_sats": 16, "hdop": 1.2, "speed_knots": 0.07, "track_deg": 270.72, "rtk_ts": 1777439263.5766442, "server_ts": 1777439264.5797172, "source": "rtk"}}
{"type": "autonav_status", "version": 1, "state": "idle", "current_wp_idx": 0, "total_wp": 7, "heading_deg": 88.609, "target_bearing_deg": 112.7, "bearing_error_deg": 24.1, "dist_to_wp_m": 7.81, "linear": 0.0, "angular": 0.0, "gps_age_s": 0.18, "gps_packet_age_s": 0.18, "gps_fix_quality": 4, "sensor_block_reason": null, "imu_age_s": 0.0, "speed_ratio": 1.0, "manual_speed": 0.4, "calib": {"mark": {"lat": 38.94127517333333, "lon": -92.31891217166667}, "offset_applied": 108.6645180307653}, "waypoints_window": [{"idx": 0, "lat": 38.94124777, "lon": -92.31884882, "current": true}, {"idx": 1, "lat": 38.9412436, "lon": -92.31878981, "current": false}, {"idx": 2, "lat": 38.94120606, "lon": -92.3187308, "current": false}, {"idx": 3, "lat": 38.94124047, "lon": -92.31867984, "current": false}, {"idx": 4, "lat": 38.94124047, "lon": -92.31856987, "current": false}, {"idx": 5, "lat": 38.94121959, "lon": -92.31852293, "current": false}, {"idx": 6, "lat": 38.94114243, "lon": -92.31852159, "current": false}], "waiting_at_wp": false, "waiting_wp_idx": null, "imu_raw": {"type": "imu_frame", "version": 1, "rot": {"qi": 0.009, "qj": 0.026, "qk": -0.348, "qr": 0.937}, "euler": {"roll": -0.07, "pitch": 3.15, "yaw": 67.92, "north_offset_deg": 108.6645}, "hz": 48.5, "heading": {"raw": 339.945, "deg": 88.609, "dir": "E"}, "ts": 2064935, "game_rot": {"qi": -0.005, "qj": 0.027, "qk": 0.174, "qr": 0.984}, "accel": {"x": -0.52, "y": 0.02, "z": 9.88}, "lin_accel": {"x": 0.02, "y": 0.02, "z": 0.02}, "gravity": {"x": -0.55, "y": -0.01, "z": 9.86}, "gyro": {"x": 0.0, "y": 0.0, "z": 0.0}, "mag": {"x": -13.8, "y": 6.9, "z": 17.4}, "steps": 0, "cal": 0}, "rtk_raw": {"type": "rtk_frame", "version": 1, "lat": 38.94127481833333, "lon": -92.31893201, "alt": 236.783, "fix_quality": 4, "num_sats": 16, "hdop": 1.2, "speed_knots": 0.02, "track_deg": 270.72, "rtk_ts": 1777439264.5975611, "server_ts": 1777439264.78096, "source": "rtk"}}
{"type": "autonav_status", "version": 1, "state": "idle", "current_wp_idx": 0, "total_wp": 7, "heading_deg": 88.609, "target_bearing_deg": 112.7, "bearing_error_deg": 24.1, "dist_to_wp_m": 7.81, "linear": 0.0, "angular": 0.0, "gps_age_s": 0.18, "gps_packet_age_s": 0.18, "gps_fix_quality": 4, "sensor_block_reason": null, "imu_age_s": 0.01, "speed_ratio": 1.0, "manual_speed": 0.4, "calib": {"mark": {"lat": 38.94127517333333, "lon": -92.31891217166667}, "offset_applied": 108.6645180307653}, "waypoints_window": [{"idx": 0, "lat": 38.94124777, "lon": -92.31884882, "current": true}, {"idx": 1, "lat": 38.9412436, "lon": -92.31878981, "current": false}, {"idx": 2, "lat": 38.94120606, "lon": -92.3187308, "current": false}, {"idx": 3, "lat": 38.94124047, "lon": -92.31867984, "current": false}, {"idx": 4, "lat": 38.94124047, "lon": -92.31856987, "current": false}, {"idx": 5, "lat": 38.94121959, "lon": -92.31852293, "current": false}, {"idx": 6, "lat": 38.94114243, "lon": -92.31852159, "current": false}], "waiting_at_wp": false, "waiting_wp_idx": null, "imu_raw": {"type": "imu_frame", "version": 1, "rot": {"qi": 0.009, "qj": 0.026, "qk": -0.348, "qr": 0.937}, "euler": {"roll": -0.07, "pitch": 3.15, "yaw": 67.92, "north_offset_deg": 108.6645}, "hz": 48.1, "heading": {"raw": 339.945, "deg": 88.609, "dir": "E"}, "ts": 2065123, "game_rot": {"qi": -0.005, "qj": 0.027, "qk": 0.174, "qr": 0.984}, "accel": {"x": -0.56, "y": -0.02, "z": 9.89}, "lin_accel": {"x": -0.01, "y": -0.02, "z": 0.02}, "gravity": {"x": -0.55, "y": 0.0, "z": 9.86}, "gyro": {"x": 0.0, "y": 0.0, "z": 0.0}, "mag": {"x": -13.1, "y": 7.3, "z": 17.4}, "steps": 0, "cal": 0}, "rtk_raw": {"type": "rtk_frame", "version": 1, "lat": 38.94127481833333, "lon": -92.31893201, "alt": 236.783, "fix_quality": 4, "num_sats": 16, "hdop": 1.2, "speed_knots": 0.02, "track_deg": 270.72, "rtk_ts": 1777439264.5975611, "server_ts": 1777439264.982181, "source": "rtk"}}
{"type": "autonav_status", "version": 1, "state": "idle", "current_wp_idx": 0, "total_wp": 7, "heading_deg": 88.609, "target_bearing_deg": 112.7, "bearing_error_deg": 24.1, "dist_to_wp_m": 7.81, "linear": 0.0, "angular": 0.0, "gps_age_s": 0.18, "gps_packet_age_s": 0.18, "gps_fix_quality": 4, "sensor_block_reason": null, "imu_age_s": 0.01, "speed_ratio": 1.0, "manual_speed": 0.4, "calib": {"mark": {"lat": 38.94127517333333, "lon": -92.31891217166667}, "offset_applied": 108.6645180307653}, "waypoints_window": [{"idx": 0, "lat": 38.94124777, "lon": -92.31884882, "current": true}, {"idx": 1, "lat": 38.9412436, "lon": -92.31878981, "current": false}, {"idx": 2, "lat": 38.94120606, "lon": -92.3187308, "current": false}, {"idx": 3, "lat": 38.94124047, "lon": -92.31867984, "current": false}, {"idx": 4, "lat": 38.94124047, "lon": -92.31856987, "current": false}, {"idx": 5, "lat": 38.94121959, "lon": -92.31852293, "current": false}, {"idx": 6, "lat": 38.94114243, "lon": -92.31852159, "current": false}], "waiting_at_wp": false, "waiting_wp_idx": null, "imu_raw": {"type": "imu_frame", "version": 1, "rot": {"qi": 0.009, "qj": 0.026, "qk": -0.348, "qr": 0.937}, "euler": {"roll": -0.07, "pitch": 3.15, "yaw": 67.92, "north_offset_deg": 108.6645}, "hz": 48.6, "heading": {"raw": 339.945, "deg": 88.609, "dir": "E"}, "ts": 2065323, "game_rot": {"qi": -0.005, "qj": 0.027, "qk": 0.174, "qr": 0.984}, "accel": {"x": -0.56, "y": 0.02, "z": 9.84}, "lin_accel": {"x": -0.02, "y": 0.02, "z": -0.02}, "gravity": {"x": -0.54, "y": -0.01, "z": 9.87}, "gyro": {"x": 0.0, "y": 0.0, "z": 0.0}, "mag": {"x": -13.1, "y": 7.6, "z": 16.6}, "steps": 0, "cal": 0}, "rtk_raw": {"type": "rtk_frame", "version": 1, "lat": 38.94127481833333, "lon": -92.31893201, "alt": 236.783, "fix_quality": 4, "num_sats": 16, "hdop": 1.2, "speed_knots": 0.02, "track_deg": 270.72, "rtk_ts": 1777439264.5975611, "server_ts": 1777439265.183388, "source": "rtk"}}
{"type": "autonav_status", "version": 1, "state": "idle", "current_wp_idx": 0, "total_wp": 7, "heading_deg": 88.609, "target_bearing_deg": 112.7, "bearing_error_deg": 24.1, "dist_to_wp_m": 7.81, "linear": 0.0, "angular": 0.0, "gps_age_s": 0.18, "gps_packet_age_s": 0.18, "gps_fix_quality": 4, "sensor_block_reason": null, "imu_age_s": 0.01, "speed_ratio": 1.0, "manual_speed": 0.4, "calib": {"mark": {"lat": 38.94127517333333, "lon": -92.31891217166667}, "offset_applied": 108.6645180307653}, "waypoints_window": [{"idx": 0, "lat": 38.94124777, "lon": -92.31884882, "current": true}, {"idx": 1, "lat": 38.9412436, "lon": -92.31878981, "current": false}, {"idx": 2, "lat": 38.94120606, "lon": -92.3187308, "current": false}, {"idx": 3, "lat": 38.94124047, "lon": -92.31867984, "current": false}, {"idx": 4, "lat": 38.94124047, "lon": -92.31856987, "current": false}, {"idx": 5, "lat": 38.94121959, "lon": -92.31852293, "current": false}, {"idx": 6, "lat": 38.94114243, "lon": -92.31852159, "current": false}], "waiting_at_wp": false, "waiting_wp_idx": null, "imu_raw": {"type": "imu_frame", "version": 1, "rot": {"qi": 0.009, "qj": 0.026, "qk": -0.348, "qr": 0.937}, "euler": {"roll": -0.07, "pitch": 3.15, "yaw": 67.92, "north_offset_deg": 108.6645}, "hz": 48.9, "heading": {"raw": 339.945, "deg": 88.609, "dir": "E"}, "ts": 2065529, "game_rot": {"qi": -0.005, "qj": 0.027, "qk": 0.174, "qr": 0.984}, "accel": {"x": -0.52, "y": 0.02, "z": 9.84}, "lin_accel": {"x": -0.01, "y": 0.02, "z": 0.02}, "gravity": {"x": -0.55, "y": -0.01, "z": 9.86}, "gyro": {"x": 0.0, "y": 0.0, "z": 0.0}, "mag": {"x": -13.1, "y": 7.3, "z": 17.8}, "steps": 0, "cal": 0}, "rtk_raw": {"type": "rtk_frame", "version": 1, "lat": 38.94127481833333, "lon": -92.31893201, "alt": 236.783, "fix_quality": 4, "num_sats": 16, "hdop": 1.2, "speed_knots": 0.02, "track_deg": 270.72, "rtk_ts": 1777439264.5975611, "server_ts": 1777439265.3845959, "source": "rtk"}}
{"type": "autonav_status", "version": 1, "state": "idle", "current_wp_idx": 0, "total_wp": 7, "heading_deg": 88.609, "target_bearing_deg": 112.7, "bearing_error_deg": 24.1, "dist_to_wp_m": 7.81, "linear": 0.0, "angular": 0.0, "gps_age_s": 0.18, "gps_packet_age_s": 0.18, "gps_fix_quality": 4, "sensor_block_reason": null, "imu_age_s": 0.01, "speed_ratio": 1.0, "manual_speed": 0.4, "calib": {"mark": {"lat": 38.94127517333333, "lon": -92.31891217166667}, "offset_applied": 108.6645180307653}, "waypoints_window": [{"idx": 0, "lat": 38.94124777, "lon": -92.31884882, "current": true}, {"idx": 1, "lat": 38.9412436, "lon": -92.31878981, "current": false}, {"idx": 2, "lat": 38.94120606, "lon": -92.3187308, "current": false}, {"idx": 3, "lat": 38.94124047, "lon": -92.31867984, "current": false}, {"idx": 4, "lat": 38.94124047, "lon": -92.31856987, "current": false}, {"idx": 5, "lat": 38.94121959, "lon": -92.31852293, "current": false}, {"idx": 6, "lat": 38.94114243, "lon": -92.31852159, "current": false}], "waiting_at_wp": false, "waiting_wp_idx": null, "imu_raw": {"type": "imu_frame", "version": 1, "rot": {"qi": 0.009, "qj": 0.026, "qk": -0.348, "qr": 0.937}, "euler": {"roll": -0.07, "pitch": 3.15, "yaw": 67.92, "north_offset_deg": 108.6645}, "hz": 49.0, "heading": {"raw": 339.945, "deg": 88.609, "dir": "E"}, "ts": 2065734, "game_rot": {"qi": -0.005, "qj": 0.027, "qk": 0.174, "qr": 0.984}, "accel": {"x": -0.52, "y": -0.02, "z": 9.89}, "lin_accel": {"x": -0.01, "y": 0.02, "z": 0.02}, "gravity": {"x": -0.55, "y": -0.01, "z": 9.86}, "gyro": {"x": 0.0, "y": 0.0, "z": 0.0}, "mag": {"x": -14.5, "y": 5.7, "z": 16.9}, "steps": 0, "cal": 0}, "rtk_raw": {"type": "rtk_frame", "version": 1, "lat": 38.94127481, "lon": -92.31893201166666, "alt": 236.782, "fix_quality": 4, "num_sats": 16, "hdop": 1.2, "speed_knots": 0.03, "track_deg": 270.72, "rtk_ts": 1777439265.567265, "server_ts": 1777439265.585786, "source": "rtk"}}
{"type": "autonav_status", "version": 1, "state": "idle", "current_wp_idx": 0, "total_wp": 7, "heading_deg": 88.609, "target_bearing_deg": 112.7, "bearing_error_deg": 24.1, "dist_to_wp_m": 7.81, "linear": 0.0, "angular": 0.0, "gps_age_s": 0.18, "gps_packet_age_s": 0.18, "gps_fix_quality": 4, "sensor_block_reason": null, "imu_age_s": 0.02, "speed_ratio": 1.0, "manual_speed": 0.4, "calib": {"mark": {"lat": 38.94127517333333, "lon": -92.31891217166667}, "offset_applied": 108.6645180307653}, "waypoints_window": [{"idx": 0, "lat": 38.94124777, "lon": -92.31884882, "current": true}, {"idx": 1, "lat": 38.9412436, "lon": -92.31878981, "current": false}, {"idx": 2, "lat": 38.94120606, "lon": -92.3187308, "current": false}, {"idx": 3, "lat": 38.94124047, "lon": -92.31867984, "current": false}, {"idx": 4, "lat": 38.94124047, "lon": -92.31856987, "current": false}, {"idx": 5, "lat": 38.94121959, "lon": -92.31852293, "current": false}, {"idx": 6, "lat": 38.94114243, "lon": -92.31852159, "current": false}], "waiting_at_wp": false, "waiting_wp_idx": null, "imu_raw": {"type": "imu_frame", "version": 1, "rot": {"qi": 0.009, "qj": 0.026, "qk": -0.348, "qr": 0.937}, "euler": {"roll": -0.07, "pitch": 3.15, "yaw": 67.92, "north_offset_deg": 108.6645}, "hz": 48.8, "heading": {"raw": 339.945, "deg": 88.609, "dir": "E"}, "ts": 2065924, "game_rot": {"qi": -0.005, "qj": 0.027, "qk": 0.174, "qr": 0.984}, "accel": {"x": -0.56, "y": 0.02, "z": 9.84}, "lin_accel": {"x": 0.02, "y": -0.02, "z": 0.02}, "gravity": {"x": -0.54, "y": -0.01, "z": 9.87}, "gyro": {"x": 0.0, "y": 0.0, "z": 0.0}, "mag": {"x": -13.4, "y": 6.9, "z": 17.4}, "steps": 0, "cal": 0}, "rtk_raw": {"type": "rtk_frame", "version": 1, "lat": 38.94127481, "lon": -92.31893201166666, "alt": 236.782, "fix_quality": 4, "num_sats": 16, "hdop": 1.2, "speed_knots": 0.03, "track_deg": 270.72, "rtk_ts": 1777439265.567265, "server_ts": 1777439265.787125, "source": "rtk"}}
{"type": "autonav_status", "version": 1, "state": "idle", "current_wp_idx": 0, "total_wp": 7, "heading_deg": 88.609, "target_bearing_deg": 112.7, "bearing_error_deg": 24.1, "dist_to_wp_m": 7.81, "linear": 0.0, "angular": 0.0, "gps_age_s": 0.18, "gps_packet_age_s": 0.18, "gps_fix_quality": 4, "sensor_block_reason": null, "imu_age_s": 0.01, "speed_ratio": 1.0, "manual_speed": 0.4, "calib": {"mark": {"lat": 38.94127517333333, "lon": -92.31891217166667}, "offset_applied": 108.6645180307653}, "waypoints_window": [{"idx": 0, "lat": 38.94124777, "lon": -92.31884882, "current": true}, {"idx": 1, "lat": 38.9412436, "lon": -92.31878981, "current": false}, {"idx": 2, "lat": 38.94120606, "lon": -92.3187308, "current": false}, {"idx": 3, "lat": 38.94124047, "lon": -92.31867984, "current": false}, {"idx": 4, "lat": 38.94124047, "lon": -92.31856987, "current": false}, {"idx": 5, "lat": 38.94121959, "lon": -92.31852293, "current": false}, {"idx": 6, "lat": 38.94114243, "lon": -92.31852159, "current": false}], "waiting_at_wp": false, "waiting_wp_idx": null, "imu_raw": {"type": "imu_frame", "version": 1, "rot": {"qi": 0.009, "qj": 0.026, "qk": -0.348, "qr": 0.937}, "euler": {"roll": -0.07, "pitch": 3.15, "yaw": 67.92, "north_offset_deg": 108.6645}, "hz": 48.5, "heading": {"raw": 339.945, "deg": 88.609, "dir": "E"}, "ts": 2066134, "game_rot": {"qi": -0.005, "qj": 0.027, "qk": 0.174, "qr": 0.984}, "accel": {"x": -0.52, "y": 0.02, "z": 9.84}, "lin_accel": {"x": 0.02, "y": 0.02, "z": -0.02}, "gravity": {"x": -0.54, "y": -0.01, "z": 9.87}, "gyro": {"x": 0.0, "y": 0.0, "z": 0.0}, "mag": {"x": -14.1, "y": 7.6, "z": 16.2}, "steps": 0, "cal": 0}, "rtk_raw": {"type": "rtk_frame", "version": 1, "lat": 38.94127481, "lon": -92.31893201166666, "alt": 236.782, "fix_quality": 4, "num_sats": 16, "hdop": 1.2, "speed_knots": 0.03, "track_deg": 270.72, "rtk_ts": 1777439265.567265, "server_ts": 1777439265.98845, "source": "rtk"}}
{"type": "autonav_status", "version": 1, "state": "running", "current_wp_idx": 0, "total_wp": 7, "heading_deg": 88.609, "target_bearing_deg": 112.7, "bearing_error_deg": 24.1, "dist_to_wp_m": 7.81, "linear": 0.0, "angular": -0.481, "gps_age_s": 0.18, "gps_packet_age_s": 0.18, "gps_fix_quality": 4, "sensor_block_reason": null, "imu_age_s": 0.0, "speed_ratio": 1.0, "manual_speed": 0.4, "calib": {"mark": {"lat": 38.94127517333333, "lon": -92.31891217166667}, "offset_applied": 108.6645180307653}, "waypoints_window": [{"idx": 0, "lat": 38.94124777, "lon": -92.31884882, "current": true}, {"idx": 1, "lat": 38.9412436, "lon": -92.31878981, "current": false}, {"idx": 2, "lat": 38.94120606, "lon": -92.3187308, "current": false}, {"idx": 3, "lat": 38.94124047, "lon": -92.31867984, "current": false}, {"idx": 4, "lat": 38.94124047, "lon": -92.31856987, "current": false}, {"idx": 5, "lat": 38.94121959, "lon": -92.31852293, "current": false}, {"idx": 6, "lat": 38.94114243, "lon": -92.31852159, "current": false}], "waiting_at_wp": false, "waiting_wp_idx": null, "imu_raw": {"type": "imu_frame", "version": 1, "rot": {"qi": 0.009, "qj": 0.026, "qk": -0.348, "qr": 0.937}, "euler": {"roll": -0.07, "pitch": 3.15, "yaw": 67.92, "north_offset_deg": 108.6645}, "hz": 48.1, "heading": {"raw": 339.945, "deg": 88.609, "dir": "E"}, "ts": 2066342, "game_rot": {"qi": -0.005, "qj": 0.027, "qk": 0.174, "qr": 0.984}, "accel": {"x": -0.52, "y": -0.02, "z": 9.85}, "lin_accel": {"x": 0.02, "y": -0.02, "z": 0.02}, "gravity": {"x": -0.54, "y": -0.01, "z": 9.86}, "gyro": {"x": 0.0, "y": 0.0, "z": 0.0}, "mag": {"x": -12.7, "y": 7.7, "z": 16.6}, "steps": 0, "cal": 0}, "rtk_raw": {"type": "rtk_frame", "version": 1, "lat": 38.94127481, "lon": -92.31893201166666, "alt": 236.782, "fix_quality": 4, "num_sats": 16, "hdop": 1.2, "speed_knots": 0.03, "track_deg": 270.72, "rtk_ts": 1777439265.567265, "server_ts": 1777439266.189784, "source": "rtk"}}
{"type": "autonav_status", "version": 1, "state": "running", "current_wp_idx": 0, "total_wp": 7, "heading_deg": 88.609, "target_bearing_deg": 112.7, "bearing_error_deg": 24.1, "dist_to_wp_m": 7.81, "linear": 0.0, "angular": -0.481, "gps_age_s": 0.18, "gps_packet_age_s": 0.18, "gps_fix_quality": 4, "sensor_block_reason": null, "imu_age_s": 0.02, "speed_ratio": 1.0, "manual_speed": 0.4, "calib": {"mark": {"lat": 38.94127517333333, "lon": -92.31891217166667}, "offset_applied": 108.6645180307653}, "waypoints_window": [{"idx": 0, "lat": 38.94124777, "lon": -92.31884882, "current": true}, {"idx": 1, "lat": 38.9412436, "lon": -92.31878981, "current": false}, {"idx": 2, "lat": 38.94120606, "lon": -92.3187308, "current": false}, {"idx": 3, "lat": 38.94124047, "lon": -92.31867984, "current": false}, {"idx": 4, "lat": 38.94124047, "lon": -92.31856987, "current": false}, {"idx": 5, "lat": 38.94121959, "lon": -92.31852293, "current": false}, {"idx": 6, "lat": 38.94114243, "lon": -92.31852159, "current": false}], "waiting_at_wp": false, "waiting_wp_idx": null, "imu_raw": {"type": "imu_frame", "version": 1, "rot": {"qi": 0.009, "qj": 0.026, "qk": -0.348, "qr": 0.937}, "euler": {"roll": -0.07, "pitch": 3.15, "yaw": 67.92, "north_offset_deg": 108.6645}, "hz": 48.0, "heading": {"raw": 339.945, "deg": 88.609, "dir": "E"}, "ts": 2066526, "game_rot": {"qi": -0.005, "qj": 0.027, "qk": 0.174, "qr": 0.984}, "accel": {"x": -0.56, "y": 0.02, "z": 9.84}, "lin_accel": {"x": -0.02, "y": 0.02, "z": -0.02}, "gravity": {"x": -0.54, "y": -0.01, "z": 9.86}, "gyro": {"x": 0.0, "y": 0.0, "z": 0.0}, "mag": {"x": -13.8, "y": 6.5, "z": 17.4}, "steps": 0, "cal": 0}, "rtk_raw": {"type": "rtk_frame", "version": 1, "lat": 38.94127481, "lon": -92.31893201166666, "alt": 236.782, "fix_quality": 4, "num_sats": 16, "hdop": 1.2, "speed_knots": 0.03, "track_deg": 270.72, "rtk_ts": 1777439265.567265, "server_ts": 1777439266.3910358, "source": "rtk"}}
{"type": "autonav_status", "version": 1, "state": "running", "current_wp_idx": 0, "total_wp": 7, "heading_deg": 89.075, "target_bearing_deg": 112.7, "bearing_error_deg": 23.6, "dist_to_wp_m": 7.81, "linear": 0.0, "angular": -0.472, "gps_age_s": 0.18, "gps_packet_age_s": 0.18, "gps_fix_quality": 4, "sensor_block_reason": null, "imu_age_s": 0.01, "speed_ratio": 1.0, "manual_speed": 0.4, "calib": {"mark": {"lat": 38.94127517333333, "lon": -92.31891217166667}, "offset_applied": 108.6645180307653}, "waypoints_window": [{"idx": 0, "lat": 38.94124777, "lon": -92.31884882, "current": true}, {"idx": 1, "lat": 38.9412436, "lon": -92.31878981, "current": false}, {"idx": 2, "lat": 38.94120606, "lon": -92.3187308, "current": false}, {"idx": 3, "lat": 38.94124047, "lon": -92.31867984, "current": false}, {"idx": 4, "lat": 38.94124047, "lon": -92.31856987, "current": false}, {"idx": 5, "lat": 38.94121959, "lon": -92.31852293, "current": false}, {"idx": 6, "lat": 38.94114243, "lon": -92.31852159, "current": false}], "waiting_at_wp": false, "waiting_wp_idx": null, "imu_raw": {"type": "imu_frame", "version": 1, "rot": {"qi": 0.013, "qj": 0.029, "qk": -0.353, "qr": 0.935}, "euler": {"roll": 0.22, "pitch": 3.64, "yaw": 67.31, "north_offset_deg": 108.6645}, "hz": 47.9, "heading": {"raw": 340.411, "deg": 89.075, "dir": "E"}, "ts": 2066736, "game_rot": {"qi": -0.004, "qj": 0.031, "qk": 0.17, "qr": 0.985}, "accel": {"x": -1.32, "y": -1.25, "z": 10.57}, "lin_accel": {"x": -0.57, "y": -1.19, "z": 0.71}, "gravity": {"x": -0.76, "y": -0.06, "z": 9.86}, "gyro": {"x": 0.043, "y": 0.014, "z": -0.17}, "mag": {"x": -14.1, "y": 7.2, "z": 15.8}, "steps": 0, "cal": 0}, "rtk_raw": {"type": "rtk_frame", "version": 1, "lat": 38.94127481, "lon": -92.31893201166666, "alt": 236.782, "fix_quality": 4, "num_sats": 16, "hdop": 1.2, "speed_knots": 0.03, "track_deg": 270.72, "rtk_ts": 1777439265.567265, "server_ts": 1777439266.592365, "source": "rtk"}}
{"type": "autonav_status", "version": 1, "state": "running", "current_wp_idx": 0, "total_wp": 7, "heading_deg": 90.239, "target_bearing_deg": 112.7, "bearing_error_deg": 22.5, "dist_to_wp_m": 7.81, "linear": 0.0, "angular": -0.449, "gps_age_s": 0.18, "gps_packet_age_s": 0.18, "gps_fix_quality": 4, "sensor_block_reason": null, "imu_age_s": 0.01, "speed_ratio": 1.0, "manual_speed": 0.4, "calib": {"mark": {"lat": 38.94127517333333, "lon": -92.31891217166667}, "offset_applied": 108.6645180307653}, "waypoints_window": [{"idx": 0, "lat": 38.94124777, "lon": -92.31884882, "current": true}, {"idx": 1, "lat": 38.9412436, "lon": -92.31878981, "current": false}, {"idx": 2, "lat": 38.94120606, "lon": -92.3187308, "current": false}, {"idx": 3, "lat": 38.94124047, "lon": -92.31867984, "current": false}, {"idx": 4, "lat": 38.94124047, "lon": -92.31856987, "current": false}, {"idx": 5, "lat": 38.94121959, "lon": -92.31852293, "current": false}, {"idx": 6, "lat": 38.94114243, "lon": -92.31852159, "current": false}], "waiting_at_wp": false, "waiting_wp_idx": null, "imu_raw": {"type": "imu_frame", "version": 1, "rot": {"qi": 0.014, "qj": 0.031, "qk": -0.361, "qr": 0.932}, "euler": {"roll": 0.21, "pitch": 3.89, "yaw": 66.32, "north_offset_deg": 108.6645}, "hz": 48.3, "heading": {"raw": 341.574, "deg": 90.239, "dir": "E"}, "ts": 2066938, "game_rot": {"qi": -0.003, "qj": 0.034, "qk": 0.16, "qr": 0.987}, "accel": {"x": -0.75, "y": 0.32, "z": 7.21}, "lin_accel": {"x": 0.05, "y": 0.38, "z": -2.66}, "gravity": {"x": -0.8, "y": -0.06, "z": 9.86}, "gyro": {"x": -0.004, "y": -0.016, "z": -0.049}, "mag": {"x": -15.7, "y": 8.5, "z": 14.3}, "steps": 0, "cal": 0}, "rtk_raw": {"type": "rtk_frame", "version": 1, "lat": 38.94127482333333, "lon": -92.31893200333333, "alt": 236.778, "fix_quality": 4, "num_sats": 16, "hdop": 1.2, "speed_knots": 0.02, "track_deg": 270.72, "rtk_ts": 1777439266.596677, "server_ts": 1777439266.792793, "source": "rtk"}}
{"type": "autonav_status", "version": 1, "state": "running", "current_wp_idx": 0, "total_wp": 7, "heading_deg": 91.044, "target_bearing_deg": 112.7, "bearing_error_deg": 21.6, "dist_to_wp_m": 7.81, "linear": 0.0, "angular": -0.433, "gps_age_s": 0.18, "gps_packet_age_s": 0.18, "gps_fix_quality": 4, "sensor_block_reason": null, "imu_age_s": 0.0, "speed_ratio": 1.0, "manual_speed": 0.4, "calib": {"mark": {"lat": 38.94127517333333, "lon": -92.31891217166667}, "offset_applied": 108.6645180307653}, "waypoints_window": [{"idx": 0, "lat": 38.94124777, "lon": -92.31884882, "current": true}, {"idx": 1, "lat": 38.9412436, "lon": -92.31878981, "current": false}, {"idx": 2, "lat": 38.94120606, "lon": -92.3187308, "current": false}, {"idx": 3, "lat": 38.94124047, "lon": -92.31867984, "current": false}, {"idx": 4, "lat": 38.94124047, "lon": -92.31856987, "current": false}, {"idx": 5, "lat": 38.94121959, "lon": -92.31852293, "current": false}, {"idx": 6, "lat": 38.94114243, "lon": -92.31852159, "current": false}], "waiting_at_wp": false, "waiting_wp_idx": null, "imu_raw": {"type": "imu_frame", "version": 1, "rot": {"qi": 0.017, "qj": 0.032, "qk": -0.368, "qr": 0.929}, "euler": {"roll": 0.46, "pitch": 4.13, "yaw": 65.47, "north_offset_deg": 108.6645}, "hz": 48.5, "heading": {"raw": 342.38, "deg": 91.044, "dir": "E"}, "ts": 2067145, "game_rot": {"qi": -0.002, "qj": 0.036, "qk": 0.153, "qr": 0.988}, "accel": {"x": -0.64, "y": 0.21, "z": 10.19}, "lin_accel": {"x": 0.18, "y": 0.25, "z": 0.32}, "gravity": {"x": -0.82, "y": -0.04, "z": 9.88}, "gyro": {"x": 0.021, "y": 0.006, "z": -0.076}, "mag": {"x": -14.3, "y": 8.2, "z": 15.1}, "steps": 0, "cal": 0}, "rtk_raw": {"type": "rtk_frame", "version": 1, "lat": 38.94127482333333, "lon": -92.31893200333333, "alt": 236.778, "fix_quality": 4, "num_sats": 16, "hdop": 1.2, "speed_knots": 0.02, "track_deg": 270.72, "rtk_ts": 1777439266.596677, "server_ts": 1777439266.993549, "source": "rtk"}}
{"type": "autonav_status", "version": 1, "state": "running", "current_wp_idx": 0, "total_wp": 7, "heading_deg": 91.964, "target_bearing_deg": 112.7, "bearing_error_deg": 20.7, "dist_to_wp_m": 7.81, "linear": 0.0, "angular": -0.415, "gps_age_s": 0.18, "gps_packet_age_s": 0.18, "gps_fix_quality": 4, "sensor_block_reason": null, "imu_age_s": 0.01, "speed_ratio": 1.0, "manual_speed": 0.4, "calib": {"mark": {"lat": 38.94127517333333, "lon": -92.31891217166667}, "offset_applied": 108.6645180307653}, "waypoints_window": [{"idx": 0, "lat": 38.94124777, "lon": -92.31884882, "current": true}, {"idx": 1, "lat": 38.9412436, "lon": -92.31878981, "current": false}, {"idx": 2, "lat": 38.94120606, "lon": -92.3187308, "current": false}, {"idx": 3, "lat": 38.94124047, "lon": -92.31867984, "current": false}, {"idx": 4, "lat": 38.94124047, "lon": -92.31856987, "current": false}, {"idx": 5, "lat": 38.94121959, "lon": -92.31852293, "current": false}, {"idx": 6, "lat": 38.94114243, "lon": -92.31852159, "current": false}], "waiting_at_wp": false, "waiting_wp_idx": null, "imu_raw": {"type": "imu_frame", "version": 1, "rot": {"qi": 0.018, "qj": 0.032, "qk": -0.376, "qr": 0.926}, "euler": {"roll": 0.53, "pitch": 4.17, "yaw": 64.48, "north_offset_deg": 108.6645}, "hz": 48.3, "heading": {"raw": 343.3, "deg": 91.964, "dir": "E"}, "ts": 2067335, "game_rot": {"qi": -0.001, "qj": 0.037, "qk": 0.145, "qr": 0.989}, "accel": {"x": -0.52, "y": 0.09, "z": 10.19}, "lin_accel": {"x": 0.3, "y": 0.11, "z": 0.32}, "gravity": {"x": -0.83, "y": -0.02, "z": 9.88}, "gyro": {"x": 0.023, "y": -0.016, "z": -0.088}, "mag": {"x": -13.6, "y": 9.9, "z": 17.6}, "steps": 0, "cal": 0}, "rtk_raw": {"type": "rtk_frame", "version": 1, "lat": 38.94127482333333, "lon": -92.31893200333333, "alt": 236.778, "fix_quality": 4, "num_sats": 16, "hdop": 1.2, "speed_knots": 0.02, "track_deg": 270.72, "rtk_ts": 1777439266.596677, "server_ts": 1777439267.194848, "source": "rtk"}}
{"type": "autonav_status", "version": 1, "state": "running", "current_wp_idx": 0, "total_wp": 7, "heading_deg": 92.998, "target_bearing_deg": 112.7, "bearing_error_deg": 19.7, "dist_to_wp_m": 7.81, "linear": 0.0, "angular": -0.394, "gps_age_s": 0.18, "gps_packet_age_s": 0.18, "gps_fix_quality": 4, "sensor_block_reason": null, "imu_age_s": 0.0, "speed_ratio": 1.0, "manual_speed": 0.4, "calib": {"mark": {"lat": 38.94127517333333, "lon": -92.31891217166667}, "offset_applied": 108.6645180307653}, "waypoints_window": [{"idx": 0, "lat": 38.94124777, "lon": -92.31884882, "current": true}, {"idx": 1, "lat": 38.9412436, "lon": -92.31878981, "current": false}, {"idx": 2, "lat": 38.94120606, "lon": -92.3187308, "current": false}, {"idx": 3, "lat": 38.94124047, "lon": -92.31867984, "current": false}, {"idx": 4, "lat": 38.94124047, "lon": -92.31856987, "current": false}, {"idx": 5, "lat": 38.94121959, "lon": -92.31852293, "current": false}, {"idx": 6, "lat": 38.94114243, "lon": -92.31852159, "current": false}], "waiting_at_wp": false, "waiting_wp_idx": null, "imu_raw": {"type": "imu_frame", "version": 1, "rot": {"qi": 0.019, "qj": 0.033, "qk": -0.384, "qr": 0.923}, "euler": {"roll": 0.56, "pitch": 4.33, "yaw": 63.47, "north_offset_deg": 108.6645}, "hz": 48.1, "heading": {"raw": 344.334, "deg": 92.998, "dir": "E"}, "ts": 2067544, "game_rot": {"qi": 0.0, "qj": 0.038, "qk": 0.136, "qr": 0.99}, "accel": {"x": -1.13, "y": 0.13, "z": 9.39}, "lin_accel": {"x": -0.3, "y": 0.12, "z": -0.5}, "gravity": {"x": -0.84, "y": 0.01, "z": 9.88}, "gyro": {"x": 0.016, "y": -0.014, "z": -0.105}, "mag": {"x": -13.0, "y": 8.4, "z": 15.8}, "steps": 0, "cal": 0}, "rtk_raw": {"type": "rtk_frame", "version": 1, "lat": 38.94127482333333, "lon": -92.31893200333333, "alt": 236.778, "fix_quality": 4, "num_sats": 16, "hdop": 1.2, "speed_knots": 0.02, "track_deg": 270.72, "rtk_ts": 1777439266.596677, "server_ts": 1777439267.39615, "source": "rtk"}}
{"type": "autonav_status", "version": 1, "state": "running", "current_wp_idx": 0, "total_wp": 7, "heading_deg": 94.152, "target_bearing_deg": 112.7, "bearing_error_deg": 18.5, "dist_to_wp_m": 7.81, "linear": 0.0, "angular": -0.371, "gps_age_s": 0.18, "gps_packet_age_s": 0.18, "gps_fix_quality": 4, "sensor_block_reason": null, "imu_age_s": 0.0, "speed_ratio": 1.0, "manual_speed": 0.4, "calib": {"mark": {"lat": 38.94127517333333, "lon": -92.31891217166667}, "offset_applied": 108.6645180307653}, "waypoints_window": [{"idx": 0, "lat": 38.94124777, "lon": -92.31884882, "current": true}, {"idx": 1, "lat": 38.9412436, "lon": -92.31878981, "current": false}, {"idx": 2, "lat": 38.94120606, "lon": -92.3187308, "current": false}, {"idx": 3, "lat": 38.94124047, "lon": -92.31867984, "current": false}, {"idx": 4, "lat": 38.94124047, "lon": -92.31856987, "current": false}, {"idx": 5, "lat": 38.94121959, "lon": -92.31852293, "current": false}, {"idx": 6, "lat": 38.94114243, "lon": -92.31852159, "current": false}], "waiting_at_wp": false, "waiting_wp_idx": null, "imu_raw": {"type": "imu_frame", "version": 1, "rot": {"qi": 0.019, "qj": 0.033, "qk": -0.394, "qr": 0.919}, "euler": {"roll": 0.51, "pitch": 4.34, "yaw": 62.22, "north_offset_deg": 108.6645}, "hz": 48.4, "heading": {"raw": 345.487, "deg": 94.152, "dir": "E"}, "ts": 2067747, "game_rot": {"qi": -0.0, "qj": 0.038, "qk": 0.126, "qr": 0.991}, "accel": {"x": -0.48, "y": 0.21, "z": 10.27}, "lin_accel": {"x": 0.33, "y": 0.19, "z": 0.38}, "gravity": {"x": -0.81, "y": 0.02, "z": 9.88}, "gyro": {"x": 0.008, "y": 0.0, "z": -0.092}, "mag": {"x": -13.7, "y": 7.9, "z": 15.9}, "steps": 0, "cal": 0}, "rtk_raw": {"type": "rtk_frame", "version": 1, "lat": 38.94127482333333, "lon": -92.31893200333333, "alt": 236.778, "fix_quality": 4, "num_sats": 16, "hdop": 1.2, "speed_knots": 0.02, "track_deg": 270.72, "rtk_ts": 1777439266.596677, "server_ts": 1777439267.597415, "source": "rtk"}}
{"type": "autonav_status", "version": 1, "state": "running", "current_wp_idx": 0, "total_wp": 7, "heading_deg": 95.429, "target_bearing_deg": 112.3, "bearing_error_deg": 16.9, "dist_to_wp_m": 7.75, "linear": 0.0, "angular": -0.337, "gps_age_s": 0.18, "gps_packet_age_s": 0.18, "gps_fix_quality": 4, "sensor_block_reason": null, "imu_age_s": 0.02, "speed_ratio": 1.0, "manual_speed": 0.4, "calib": {"mark": {"lat": 38.94127517333333, "lon": -92.31891217166667}, "offset_applied": 108.6645180307653}, "waypoints_window": [{"idx": 0, "lat": 38.94124777, "lon": -92.31884882, "current": true}, {"idx": 1, "lat": 38.9412436, "lon": -92.31878981, "current": false}, {"idx": 2, "lat": 38.94120606, "lon": -92.3187308, "current": false}, {"idx": 3, "lat": 38.94124047, "lon": -92.31867984, "current": false}, {"idx": 4, "lat": 38.94124047, "lon": -92.31856987, "current": false}, {"idx": 5, "lat": 38.94121959, "lon": -92.31852293, "current": false}, {"idx": 6, "lat": 38.94114243, "lon": -92.31852159, "current": false}], "waiting_at_wp": false, "waiting_wp_idx": null, "imu_raw": {"type": "imu_frame", "version": 1, "rot": {"qi": 0.02, "qj": 0.032, "qk": -0.403, "qr": 0.915}, "euler": {"roll": 0.62, "pitch": 4.28, "yaw": 61.1, "north_offset_deg": 108.6645}, "hz": 48.2, "heading": {"raw": 346.765, "deg": 95.429, "dir": "E"}, "ts": 2067934, "game_rot": {"qi": 0.001, "qj": 0.038, "qk": 0.115, "qr": 0.993}, "accel": {"x": -0.91, "y": 0.48, "z": 9.85}, "lin_accel": {"x": -0.12, "y": 0.44, "z": -0.04}, "gravity": {"x": -0.79, "y": 0.04, "z": 9.88}, "gyro": {"x": 0.012, "y": 0.027, "z": -0.107}, "mag": {"x": -13.0, "y": 8.3, "z": 15.4}, "steps": 0, "cal": 0}, "rtk_raw": {"type": "rtk_frame", "version": 1, "lat": 38.941274165, "lon": -92.31893160833333, "alt": 236.778, "fix_quality": 4, "num_sats": 16, "hdop": 1.2, "speed_knots": 0.16, "track_deg": 270.72, "rtk_ts": 1777439267.6015732, "server_ts": 1777439267.798646, "source": "rtk"}}
{"type": "autonav_status", "version": 1, "state": "running", "current_wp_idx": 0, "total_wp": 7, "heading_deg": 96.926, "target_bearing_deg": 112.3, "bearing_error_deg": 15.4, "dist_to_wp_m": 7.75, "linear": 0.0, "angular": -0.307, "gps_age_s": 0.18, "gps_packet_age_s": 0.18, "gps_fix_quality": 4, "sensor_block_reason": null, "imu_age_s": 0.01, "speed_ratio": 1.0, "manual_speed": 0.4, "calib": {"mark": {"lat": 38.94127517333333, "lon": -92.31891217166667}, "offset_applied": 108.6645180307653}, "waypoints_window": [{"idx": 0, "lat": 38.94124777, "lon": -92.31884882, "current": true}, {"idx": 1, "lat": 38.9412436, "lon": -92.31878981, "current": false}, {"idx": 2, "lat": 38.94120606, "lon": -92.3187308, "current": false}, {"idx": 3, "lat": 38.94124047, "lon": -92.31867984, "current": false}, {"idx": 4, "lat": 38.94124047, "lon": -92.31856987, "current": false}, {"idx": 5, "lat": 38.94121959, "lon": -92.31852293, "current": false}, {"idx": 6, "lat": 38.94114243, "lon": -92.31852159, "current": false}], "waiting_at_wp": false, "waiting_wp_idx": null, "imu_raw": {"type": "imu_frame", "version": 1, "rot": {"qi": 0.02, "qj": 0.032, "qk": -0.415, "qr": 0.909}, "euler": {"roll": 0.56, "pitch": 4.29, "yaw": 59.61, "north_offset_deg": 108.6645}, "hz": 48.4, "heading": {"raw": 348.261, "deg": 96.926, "dir": "E"}, "ts": 2068138, "game_rot": {"qi": 0.001, "qj": 0.038, "qk": 0.102, "qr": 0.994}, "accel": {"x": -0.33, "y": 0.44, "z": 9.85}, "lin_accel": {"x": 0.45, "y": 0.38, "z": -0.04}, "gravity": {"x": -0.77, "y": 0.05, "z": 9.88}, "gyro": {"x": 0.029, "y": 0.006, "z": -0.111}, "mag": {"x": -14.2, "y": 9.8, "z": 15.6}, "steps": 0, "cal": 0}, "rtk_raw": {"type": "rtk_frame", "version": 1, "lat": 38.941274165, "lon": -92.31893160833333, "alt": 236.778, "fix_quality": 4, "num_sats": 16, "hdop": 1.2, "speed_knots": 0.16, "track_deg": 270.72, "rtk_ts": 1777439267.6015732, "server_ts": 1777439267.999858, "source": "rtk"}}
{"type": "autonav_status", "version": 1, "state": "running", "current_wp_idx": 0, "total_wp": 7, "heading_deg": 98.08, "target_bearing_deg": 112.3, "bearing_error_deg": 14.2, "dist_to_wp_m": 7.75, "linear": 0.0, "angular": -0.284, "gps_age_s": 0.18, "gps_packet_age_s": 0.18, "gps_fix_quality": 4, "sensor_block_reason": null, "imu_age_s": 0.02, "speed_ratio": 1.0, "manual_speed": 0.4, "calib": {"mark": {"lat": 38.94127517333333, "lon": -92.31891217166667}, "offset_applied": 108.6645180307653}, "waypoints_window": [{"idx": 0, "lat": 38.94124777, "lon": -92.31884882, "current": true}, {"idx": 1, "lat": 38.9412436, "lon": -92.31878981, "current": false}, {"idx": 2, "lat": 38.94120606, "lon": -92.3187308, "current": false}, {"idx": 3, "lat": 38.94124047, "lon": -92.31867984, "current": false}, {"idx": 4, "lat": 38.94124047, "lon": -92.31856987, "current": false}, {"idx": 5, "lat": 38.94121959, "lon": -92.31852293, "current": false}, {"idx": 6, "lat": 38.94114243, "lon": -92.31852159, "current": false}], "waiting_at_wp": false, "waiting_wp_idx": null, "imu_raw": {"type": "imu_frame", "version": 1, "rot": {"qi": 0.021, "qj": 0.032, "qk": -0.425, "qr": 0.904}, "euler": {"roll": 0.62, "pitch": 4.34, "yaw": 58.36, "north_offset_deg": 108.6645}, "hz": 47.9, "heading": {"raw": 349.415, "deg": 98.08, "dir": "E"}, "ts": 2068337, "game_rot": {"qi": 0.001, "qj": 0.038, "qk": 0.092, "qr": 0.995}, "accel": {"x": -0.83, "y": 0.36, "z": 10.69}, "lin_accel": {"x": -0.06, "y": 0.29, "z": 0.8}, "gravity": {"x": -0.77, "y": 0.07, "z": 9.88}, "gyro": {"x": 0.018, "y": -0.035, "z": -0.121}, "mag": {"x": -15.3, "y": 8.9, "z": 14.6}, "steps": 0, "cal": 0}, "rtk_raw": {"type": "rtk_frame", "version": 1, "lat": 38.941274165, "lon": -92.31893160833333, "alt": 236.778, "fix_quality": 4, "num_sats": 16, "hdop": 1.2, "speed_knots": 0.16, "track_deg": 270.72, "rtk_ts": 1777439267.6015732, "server_ts": 1777439268.201091, "source": "rtk"}}
{"type": "autonav_status", "version": 1, "state": "running", "current_wp_idx": 0, "total_wp": 7, "heading_deg": 99.458, "target_bearing_deg": 112.3, "bearing_error_deg": 12.8, "dist_to_wp_m": 7.75, "linear": 0.0, "angular": -0.257, "gps_age_s": 0.18, "gps_packet_age_s": 0.18, "gps_fix_quality": 4, "sensor_block_reason": null, "imu_age_s": 0.01, "speed_ratio": 1.0, "manual_speed": 0.4, "calib": {"mark": {"lat": 38.94127517333333, "lon": -92.31891217166667}, "offset_applied": 108.6645180307653}, "waypoints_window": [{"idx": 0, "lat": 38.94124777, "lon": -92.31884882, "current": true}, {"idx": 1, "lat": 38.9412436, "lon": -92.31878981, "current": false}, {"idx": 2, "lat": 38.94120606, "lon": -92.3187308, "current": false}, {"idx": 3, "lat": 38.94124047, "lon": -92.31867984, "current": false}, {"idx": 4, "lat": 38.94124047, "lon": -92.31856987, "current": false}, {"idx": 5, "lat": 38.94121959, "lon": -92.31852293, "current": false}, {"idx": 6, "lat": 38.94114243, "lon": -92.31852159, "current": false}], "waiting_at_wp": false, "waiting_wp_idx": null, "imu_raw": {"type": "imu_frame", "version": 1, "rot": {"qi": 0.021, "qj": 0.032, "qk": -0.435, "qr": 0.9}, "euler": {"roll": 0.57, "pitch": 4.35, "yaw": 57.06, "north_offset_deg": 108.6645}, "hz": 47.9, "heading": {"raw": 350.794, "deg": 99.458, "dir": "E"}, "ts": 2068547, "game_rot": {"qi": 0.002, "qj": 0.038, "qk": 0.08, "qr": 0.996}, "accel": {"x": -0.68, "y": 0.02, "z": 9.73}, "lin_accel": {"x": 0.45, "y": -0.14, "z": -0.11}, "gravity": {"x": -0.74, "y": 0.09, "z": 9.88}, "gyro": {"x": -0.002, "y": -0.008, "z": -0.096}, "mag": {"x": -15.0, "y": 8.5, "z": 13.4}, "steps": 0, "cal": 0}, "rtk_raw": {"type": "rtk_frame", "version": 1, "lat": 38.941274165, "lon": -92.31893160833333, "alt": 236.778, "fix_quality": 4, "num_sats": 16, "hdop": 1.2, "speed_knots": 0.16, "track_deg": 270.72, "rtk_ts": 1777439267.6015732, "server_ts": 1777439268.40237, "source": "rtk"}}
{"type": "autonav_status", "version": 1, "state": "running", "current_wp_idx": 0, "total_wp": 7, "heading_deg": 100.722, "target_bearing_deg": 112.1, "bearing_error_deg": 11.4, "dist_to_wp_m": 7.69, "linear": 0.0, "angular": -0.228, "gps_age_s": 0.18, "gps_packet_age_s": 0.18, "gps_fix_quality": 4, "sensor_block_reason": null, "imu_age_s": 0.01, "speed_ratio": 1.0, "manual_speed": 0.4, "calib": {"mark": {"lat": 38.94127517333333, "lon": -92.31891217166667}, "offset_applied": 108.6645180307653}, "waypoints_window": [{"idx": 0, "lat": 38.94124777, "lon": -92.31884882, "current": true}, {"idx": 1, "lat": 38.9412436, "lon": -92.31878981, "current": false}, {"idx": 2, "lat": 38.94120606, "lon": -92.3187308, "current": false}, {"idx": 3, "lat": 38.94124047, "lon": -92.31867984, "current": false}, {"idx": 4, "lat": 38.94124047, "lon": -92.31856987, "current": false}, {"idx": 5, "lat": 38.94121959, "lon": -92.31852293, "current": false}, {"idx": 6, "lat": 38.94114243, "lon": -92.31852159, "current": false}], "waiting_at_wp": false, "waiting_wp_idx": null, "imu_raw": {"type": "imu_frame", "version": 1, "rot": {"qi": 0.021, "qj": 0.031, "qk": -0.445, "qr": 0.895}, "euler": {"roll": 0.57, "pitch": 4.25, "yaw": 55.79, "north_offset_deg": 108.6645}, "hz": 48.1, "heading": {"raw": 352.058, "deg": 100.722, "dir": "E"}, "ts": 2068747, "game_rot": {"qi": 0.003, "qj": 0.038, "qk": 0.069, "qr": 0.997}, "accel": {"x": -0.75, "y": 0.28, "z": 8.43}, "lin_accel": {"x": 0.37, "y": 0.72, "z": 0.5}, "gravity": {"x": -0.73, "y": 0.1, "z": 9.88}, "gyro": {"x": -0.004, "y": -0.029, "z": -0.1}, "mag": {"x": -14.6, "y": 8.9, "z": 13.1}, "steps": 0, "cal": 0}, "rtk_raw": {"type": "rtk_frame", "version": 1, "lat": 38.94127381166667, "lon": -92.31893109666666, "alt": 236.775, "fix_quality": 4, "num_sats": 16, "hdop": 1.2, "speed_knots": 0.05, "track_deg": 270.72, "rtk_ts": 1777439268.5685701, "server_ts": 1777439268.603702, "source": "rtk"}}
{"type": "autonav_status", "version": 1, "state": "running", "current_wp_idx": 0, "total_wp": 7, "heading_deg": 101.876, "target_bearing_deg": 112.1, "bearing_error_deg": 10.3, "dist_to_wp_m": 7.69, "linear": 0.0, "angular": -0.205, "gps_age_s": 0.18, "gps_packet_age_s": 0.18, "gps_fix_quality": 4, "sensor_block_reason": null, "imu_age_s": 0.01, "speed_ratio": 1.0, "manual_speed": 0.4, "calib": {"mark": {"lat": 38.94127517333333, "lon": -92.31891217166667}, "offset_applied": 108.6645180307653}, "waypoints_window": [{"idx": 0, "lat": 38.94124777, "lon": -92.31884882, "current": true}, {"idx": 1, "lat": 38.9412436, "lon": -92.31878981, "current": false}, {"idx": 2, "lat": 38.94120606, "lon": -92.3187308, "current": false}, {"idx": 3, "lat": 38.94124047, "lon": -92.31867984, "current": false}, {"idx": 4, "lat": 38.94124047, "lon": -92.31856987, "current": false}, {"idx": 5, "lat": 38.94121959, "lon": -92.31852293, "current": false}, {"idx": 6, "lat": 38.94114243, "lon": -92.31852159, "current": false}], "waiting_at_wp": false, "waiting_wp_idx": null, "imu_raw": {"type": "imu_frame", "version": 1, "rot": {"qi": 0.021, "qj": 0.031, "qk": -0.454, "qr": 0.89}, "euler": {"roll": 0.53, "pitch": 4.26, "yaw": 54.65, "north_offset_deg": 108.6645}, "hz": 48.4, "heading": {"raw": 353.212, "deg": 101.876, "dir": "ESE"}, "ts": 2068947, "game_rot": {"qi": 0.003, "qj": 0.037, "qk": 0.059, "qr": 0.998}, "accel": {"x": -0.37, "y": 0.13, "z": 9.73}, "lin_accel": {"x": 0.12, "y": -0.09, "z": 0.24}, "gravity": {"x": -0.71, "y": 0.11, "z": 9.88}, "gyro": {"x": 0.006, "y": -0.01, "z": -0.102}, "mag": {"x": -15.9, "y": 9.2, "z": 12.7}, "steps": 0, "cal": 0}, "rtk_raw": {"type": "rtk_frame", "version": 1, "lat": 38.94127381166667, "lon": -92.31893109666666, "alt": 236.775, "fix_quality": 4, "num_sats": 16, "hdop": 1.2, "speed_knots": 0.05, "track_deg": 270.72, "rtk_ts": 1777439268.5685701, "server_ts": 1777439268.8044538, "source": "rtk"}}
{"type": "autonav_status", "version": 1, "state": "running", "current_wp_idx": 0, "total_wp": 7, "heading_deg": 102.792, "target_bearing_deg": 112.1, "bearing_error_deg": 9.4, "dist_to_wp_m": 7.69, "linear": 0.0, "angular": -0.187, "gps_age_s": 0.18, "gps_packet_age_s": 0.18, "gps_fix_quality": 4, "sensor_block_reason": null, "imu_age_s": 0.02, "speed_ratio": 1.0, "manual_speed": 0.4, "calib": {"mark": {"lat": 38.94127517333333, "lon": -92.31891217166667}, "offset_applied": 108.6645180307653}, "waypoints_window": [{"idx": 0, "lat": 38.94124777, "lon": -92.31884882, "current": true}, {"idx": 1, "lat": 38.9412436, "lon": -92.31878981, "current": false}, {"idx": 2, "lat": 38.94120606, "lon": -92.3187308, "current": false}, {"idx": 3, "lat": 38.94124047, "lon": -92.31867984, "current": false}, {"idx": 4, "lat": 38.94124047, "lon": -92.31856987, "current": false}, {"idx": 5, "lat": 38.94121959, "lon": -92.31852293, "current": false}, {"idx": 6, "lat": 38.94114243, "lon": -92.31852159, "current": false}], "waiting_at_wp": false, "waiting_wp_idx": null, "imu_raw": {"type": "imu_frame", "version": 1, "rot": {"qi": 0.022, "qj": 0.031, "qk": -0.461, "qr": 0.887}, "euler": {"roll": 0.6, "pitch": 4.32, "yaw": 53.73, "north_offset_deg": 108.6645}, "hz": 48.0, "heading": {"raw": 354.128, "deg": 102.792, "dir": "ESE"}, "ts": 2069137, "game_rot": {"qi": 0.003, "qj": 0.038, "qk": 0.051, "qr": 0.998}, "accel": {"x": -0.71, "y": -0.06, "z": 10.27}, "lin_accel": {"x": 0.04, "y": -0.22, "z": 0.05}, "gravity": {"x": -0.72, "y": 0.12, "z": 9.87}, "gyro": {"x": 0.01, "y": 0.018, "z": -0.096}, "mag": {"x": -17.0, "y": 7.9, "z": 11.8}, "steps": 0, "cal": 0}, "rtk_raw": {"type": "rtk_frame", "version": 1, "lat": 38.94127381166667, "lon": -92.31893109666666, "alt": 236.775, "fix_quality": 4, "num_sats": 16, "hdop": 1.2, "speed_knots": 0.05, "track_deg": 270.72, "rtk_ts": 1777439268.5685701, "server_ts": 1777439269.005716, "source": "rtk"}}
{"type": "autonav_status", "version": 1, "state": "running", "current_wp_idx": 0, "total_wp": 7, "heading_deg": 103.936, "target_bearing_deg": 112.1, "bearing_error_deg": 8.2, "dist_to_wp_m": 7.69, "linear": 0.0, "angular": -0.164, "gps_age_s": 0.18, "gps_packet_age_s": 0.18, "gps_fix_quality": 4, "sensor_block_reason": null, "imu_age_s": 0.02, "speed_ratio": 1.0, "manual_speed": 0.4, "calib": {"mark": {"lat": 38.94127517333333, "lon": -92.31891217166667}, "offset_applied": 108.6645180307653}, "waypoints_window": [{"idx": 0, "lat": 38.94124777, "lon": -92.31884882, "current": true}, {"idx": 1, "lat": 38.9412436, "lon": -92.31878981, "current": false}, {"idx": 2, "lat": 38.94120606, "lon": -92.3187308, "current": false}, {"idx": 3, "lat": 38.94124047, "lon": -92.31867984, "current": false}, {"idx": 4, "lat": 38.94124047, "lon": -92.31856987, "current": false}, {"idx": 5, "lat": 38.94121959, "lon": -92.31852293, "current": false}, {"idx": 6, "lat": 38.94114243, "lon": -92.31852159, "current": false}], "waiting_at_wp": false, "waiting_wp_idx": null, "imu_raw": {"type": "imu_frame", "version": 1, "rot": {"qi": 0.023, "qj": 0.03, "qk": -0.47, "qr": 0.882}, "euler": {"roll": 0.71, "pitch": 4.27, "yaw": 52.57, "north_offset_deg": 108.6645}, "hz": 48.9, "heading": {"raw": 355.272, "deg": 103.936, "dir": "ESE"}, "ts": 2069339, "game_rot": {"qi": 0.004, "qj": 0.037, "qk": 0.041, "qr": 0.998}, "accel": {"x": -0.79, "y": 0.44, "z": 9.46}, "lin_accel": {"x": -0.24, "y": -0.17, "z": -0.33}, "gravity": {"x": -0.69, "y": 0.15, "z": 9.88}, "gyro": {"x": 0.008, "y": -0.018, "z": -0.107}, "mag": {"x": -15.6, "y": 8.8, "z": 11.8}, "steps": 0, "cal": 0}, "rtk_raw": {"type": "rtk_frame", "version": 1, "lat": 38.94127381166667, "lon": -92.31893109666666, "alt": 236.775, "fix_quality": 4, "num_sats": 16, "hdop": 1.2, "speed_knots": 0.05, "track_deg": 270.72, "rtk_ts": 1777439268.5685701, "server_ts": 1777439269.207038, "source": "rtk"}}
{"type": "autonav_status", "version": 1, "state": "running", "current_wp_idx": 0, "total_wp": 7, "heading_deg": 104.752, "target_bearing_deg": 112.1, "bearing_error_deg": 7.4, "dist_to_wp_m": 7.69, "linear": 0.0, "angular": -0.148, "gps_age_s": 0.18, "gps_packet_age_s": 0.18, "gps_fix_quality": 4, "sensor_block_reason": null, "imu_age_s": 0.02, "speed_ratio": 1.0, "manual_speed": 0.4, "calib": {"mark": {"lat": 38.94127517333333, "lon": -92.31891217166667}, "offset_applied": 108.6645180307653}, "waypoints_window": [{"idx": 0, "lat": 38.94124777, "lon": -92.31884882, "current": true}, {"idx": 1, "lat": 38.9412436, "lon": -92.31878981, "current": false}, {"idx": 2, "lat": 38.94120606, "lon": -92.3187308, "current": false}, {"idx": 3, "lat": 38.94124047, "lon": -92.31867984, "current": false}, {"idx": 4, "lat": 38.94124047, "lon": -92.31856987, "current": false}, {"idx": 5, "lat": 38.94121959, "lon": -92.31852293, "current": false}, {"idx": 6, "lat": 38.94114243, "lon": -92.31852159, "current": false}], "waiting_at_wp": false, "waiting_wp_idx": null, "imu_raw": {"type": "imu_frame", "version": 1, "rot": {"qi": 0.02, "qj": 0.031, "qk": -0.476, "qr": 0.879}, "euler": {"roll": 0.32, "pitch": 4.22, "yaw": 51.78, "north_offset_deg": 108.6645}, "hz": 49.3, "heading": {"raw": 356.088, "deg": 104.752, "dir": "ESE"}, "ts": 2069541, "game_rot": {"qi": 0.002, "qj": 0.037, "qk": 0.034, "qr": 0.999}, "accel": {"x": -1.1, "y": 3.5, "z": 10.73}, "lin_accel": {"x": -0.42, "y": 3.38, "z": 0.85}, "gravity": {"x": -0.68, "y": 0.12, "z": 9.88}, "gyro": {"x": -0.061, "y": 0.012, "z": 0.115}, "mag": {"x": -17.0, "y": 8.2, "z": 10.6}, "steps": 0, "cal": 0}, "rtk_raw": {"type": "rtk_frame", "version": 1, "lat": 38.94127381166667, "lon": -92.31893109666666, "alt": 236.775, "fix_quality": 4, "num_sats": 16, "hdop": 1.2, "speed_knots": 0.05, "track_deg": 270.72, "rtk_ts": 1777439268.5685701, "server_ts": 1777439269.4077451, "source": "rtk"}}
{"type": "autonav_status", "version": 1, "state": "running", "current_wp_idx": 0, "total_wp": 7, "heading_deg": 104.192, "target_bearing_deg": 112.0, "bearing_error_deg": 7.8, "dist_to_wp_m": 7.64, "linear": 0.0, "angular": -0.156, "gps_age_s": 0.18, "gps_packet_age_s": 0.18, "gps_fix_quality": 4, "sensor_block_reason": null, "imu_age_s": 0.0, "speed_ratio": 1.0, "manual_speed": 0.4, "calib": {"mark": {"lat": 38.94127517333333, "lon": -92.31891217166667}, "offset_applied": 108.6645180307653}, "waypoints_window": [{"idx": 0, "lat": 38.94124777, "lon": -92.31884882, "current": true}, {"idx": 1, "lat": 38.9412436, "lon": -92.31878981, "current": false}, {"idx": 2, "lat": 38.94120606, "lon": -92.3187308, "current": false}, {"idx": 3, "lat": 38.94124047, "lon": -92.31867984, "current": false}, {"idx": 4, "lat": 38.94124047, "lon": -92.31856987, "current": false}, {"idx": 5, "lat": 38.94121959, "lon": -92.31852293, "current": false}, {"idx": 6, "lat": 38.94114243, "lon": -92.31852159, "current": false}], "waiting_at_wp": false, "waiting_wp_idx": null, "imu_raw": {"type": "imu_frame", "version": 1, "rot": {"qi": 0.016, "qj": 0.03, "qk": -0.471, "qr": 0.881}, "euler": {"roll": -0.0, "pitch": 3.9, "yaw": 52.44, "north_offset_deg": 108.6645}, "hz": 48.5, "heading": {"raw": 355.527, "deg": 104.192, "dir": "ESE"}, "ts": 2069755, "game_rot": {"qi": -0.001, "qj": 0.034, "qk": 0.039, "qr": 0.999}, "accel": {"x": -1.52, "y": -1.02, "z": 9.0}, "lin_accel": {"x": -0.88, "y": -1.09, "z": -0.87}, "gravity": {"x": -0.64, "y": 0.07, "z": 9.88}, "gyro": {"x": -0.031, "y": -0.049, "z": -0.004}, "mag": {"x": -17.0, "y": 7.9, "z": 10.6}, "steps": 0, "cal": 0}, "rtk_raw": {"type": "rtk_frame", "version": 1, "lat": 38.94127349, "lon": -92.31893061, "alt": 236.793, "fix_quality": 4, "num_sats": 17, "hdop": 1.2, "speed_knots": 0.05, "track_deg": 270.72, "rtk_ts": 1777439269.595275, "server_ts": 1777439269.6089568, "source": "rtk"}}
