{"type": "autonav_status", "version": 1, "state": "idle", "current_wp_idx": 0, "total_wp": 7, "heading_deg": 104.266, "target_bearing_deg": 95.3, "bearing_error_deg": -9.0, "dist_to_wp_m": 5.29, "linear": 0.0, "angular": 0.0, "gps_age_s": 0.0, "gps_packet_age_s": 0.0, "gps_fix_quality": 4, "sensor_block_reason": null, "imu_age_s": 0.01, "speed_ratio": 1.0, "manual_speed": 0.4, "calib": {"mark": {"lat": 38.94125072166667, "lon": -92.318902375}, "offset_applied": 108.73791110065343}, "waypoints_window": [{"idx": 0, "lat": 38.94124777, "lon": -92.31884882, "current": true}, {"idx": 1, "lat": 38.9412436, "lon": -92.31878981, "current": false}, {"idx": 2, "lat": 38.94120606, "lon": -92.3187308, "current": false}, {"idx": 3, "lat": 38.94124047, "lon": -92.31867984, "current": false}, {"idx": 4, "lat": 38.94124047, "lon": -92.31856987, "current": false}, {"idx": 5, "lat": 38.94121959, "lon": -92.31852293, "current": false}, {"idx": 6, "lat": 38.94114243, "lon": -92.31852159, "current": false}], "waiting_at_wp": false, "waiting_wp_idx": null, "imu_raw": {"type": "imu_frame", "version": 1, "rot": {"qi": 0.015, "qj": 0.028, "qk": -0.465, "qr": 0.885}, "euler": {"roll": 0.03, "pitch": 3.64, "yaw": 53.28, "north_offset_deg": 108.7379}, "hz": 47.9, "heading": {"raw": 355.528, "deg": 104.266, "dir": "ESE"}, "ts": 4793909, "game_rot": {"qi": -0.001, "qj": 0.032, "qk": 0.039, "qr": 0.999}, "accel": {"x": -0.64, "y": 0.02, "z": 9.85}, "lin_accel": {"x": -0.01, "y": 0.01, "z": -0.02}, "gravity": {"x": -0.62, "y": 0.01, "z": 9.86}, "gyro": {"x": 0.0, "y": 0.0, "z": 0.0}, "mag": {"x": -16.2, "y": 7.1, "z": 11.9}, "steps": 0, "cal": 0}, "rtk_raw": {"type": "rtk_frame", "version": 1, "lat": 38.94125214666666, "lon": -92.31890962833333, "alt": 236.787, "fix_quality": 4, "num_sats": 19, "hdop": 1.0, "speed_knots": 0.02, "track_deg": 286.25, "rtk_ts": 1777441993.622596, "server_ts": 1777441993.939138, "source": "rtk"}}
{"type": "autonav_status", "version": 1, "state": "idle", "current_wp_idx": 0, "total_wp": 7, "heading_deg": 104.266, "target_bearing_deg": 95.3, "bearing_error_deg": -9.0, "dist_to_wp_m": 5.29, "linear": 0.0, "angular": 0.0, "gps_age_s": 0.0, "gps_packet_age_s": 0.0, "gps_fix_quality": 4, "sensor_block_reason": null, "imu_age_s": 0.0, "speed_ratio": 1.0, "manual_speed": 0.4, "calib": {"mark": {"lat": 38.94125072166667, "lon": -92.318902375}, "offset_applied": 108.73791110065343}, "waypoints_window": [{"idx": 0, "lat": 38.94124777, "lon": -92.31884882, "current": true}, {"idx": 1, "lat": 38.9412436, "lon": -92.31878981, "current": false}, {"idx": 2, "lat": 38.94120606, "lon": -92.3187308, "current": false}, {"idx": 3, "lat": 38.94124047, "lon": -92.31867984, "current": false}, {"idx": 4, "lat": 38.94124047, "lon": -92.31856987, "current": false}, {"idx": 5, "lat": 38.94121959, "lon": -92.31852293, "current": false}, {"idx": 6, "lat": 38.94114243, "lon": -92.31852159, "current": false}], "waiting_at_wp": false, "waiting_wp_idx": null, "imu_raw": {"type": "imu_frame", "version": 1, "rot": {"qi": 0.015, "qj": 0.028, "qk": -0.465, "qr": 0.885}, "euler": {"roll": 0.03, "pitch": 3.64, "yaw": 53.28, "north_offset_deg": 108.7379}, "hz": 47.9, "heading": {"raw": 355.528, "deg": 104.266, "dir": "ESE"}, "ts": 4794118, "game_rot": {"qi": -0.001, "qj": 0.032, "qk": 0.039, "qr": 0.999}, "accel": {"x": -0.64, "y": -0.02, "z": 9.84}, "lin_accel": {"x": -0.01, "y": -0.03, "z": -0.01}, "gravity": {"x": -0.62, "y": 0.01, "z": 9.85}, "gyro": {"x": 0.0, "y": 0.0, "z": 0.0}, "mag": {"x": -15.6, "y": 7.9, "z": 12.1}, "steps": 0, "cal": 0}, "rtk_raw": {"type": "rtk_frame", "version": 1, "lat": 38.94125214666666, "lon": -92.31890962833333, "alt": 236.787, "fix_quality": 4, "num_sats": 19, "hdop": 1.0, "speed_knots": 0.02, "track_deg": 286.25, "rtk_ts": 1777441993.622596, "server_ts": 1777441994.139634, "source": "rtk"}}
{"type": "autonav_status", "version": 1, "state": "idle", "current_wp_idx": 0, "total_wp": 7, "heading_deg": 104.266, "target_bearing_deg": 95.3, "bearing_error_deg": -9.0, "dist_to_wp_m": 5.29, "linear": 0.0, "angular": 0.0, "gps_age_s": 0.0, "gps_packet_age_s": 0.0, "gps_fix_quality": 4, "sensor_block_reason": null, "imu_age_s": 0.01, "speed_ratio": 1.0, "manual_speed": 0.4, "calib": {"mark": {"lat": 38.94125072166667, "lon": -92.318902375}, "offset_applied": 108.73791110065343}, "waypoints_window": [{"idx": 0, "lat": 38.94124777, "lon": -92.31884882, "current": true}, {"idx": 1, "lat": 38.9412436, "lon": -92.31878981, "current": false}, {"idx": 2, "lat": 38.94120606, "lon": -92.3187308, "current": false}, {"idx": 3, "lat": 38.94124047, "lon": -92.31867984, "current": false}, {"idx": 4, "lat": 38.94124047, "lon": -92.31856987, "current": false}, {"idx": 5, "lat": 38.94121959, "lon": -92.31852293, "current": false}, {"idx": 6, "lat": 38.94114243, "lon": -92.31852159, "current": false}], "waiting_at_wp": false, "waiting_wp_idx": null, "imu_raw": {"type": "imu_frame", "version": 1, "rot": {"qi": 0.015, "qj": 0.028, "qk": -0.465, "qr": 0.885}, "euler": {"roll": 0.03, "pitch": 3.64, "yaw": 53.28, "north_offset_deg": 108.7379}, "hz": 47.7, "heading": {"raw": 355.528, "deg": 104.266, "dir": "ESE"}, "ts": 4794315, "game_rot": {"qi": -0.001, "qj": 0.032, "qk": 0.039, "qr": 0.999}, "accel": {"x": -0.64, "y": 0.02, "z": 9.85}, "lin_accel": {"x": -0.01, "y": 0.01, "z": -0.01}, "gravity": {"x": -0.62, "y": 0.01, "z": 9.85}, "gyro": {"x": 0.0, "y": 0.0, "z": 0.0}, "mag": {"x": -15.7, "y": 6.0, "z": 12.7}, "steps": 0, "cal": 0}, "rtk_raw": {"type": "rtk_frame", "version": 1, "lat": 38.94125214666666, "lon": -92.31890962833333, "alt": 236.787, "fix_quality": 4, "num_sats": 19, "hdop": 1.0, "speed_knots": 0.02, "track_deg": 286.25, "rtk_ts": 1777441993.622596, "server_ts": 1777441994.34108, "source": "rtk"}}
{"type": "autonav_status", "version": 1, "state": "idle", "current_wp_idx": 0, "total_wp": 7, "heading_deg": 104.266, "target_bearing_deg": 95.3, "bearing_error_deg": -9.0, "dist_to_wp_m": 5.29, "linear": 0.0, "angular": 0.0, "gps_age_s": 0.0, "gps_packet_age_s": 0.0, "gps_fix_quality": 4, "sensor_block_reason": null, "imu_age_s": 0.02, "speed_ratio": 1.0, "manual_speed": 0.4, "calib": {"mark": {"lat": 38.94125072166667, "lon": -92.318902375}, "offset_applied": 108.73791110065343}, "waypoints_window": [{"idx": 0, "lat": 38.94124777, "lon": -92.31884882, "current": true}, {"idx": 1, "lat": 38.9412436, "lon": -92.31878981, "current": false}, {"idx": 2, "lat": 38.94120606, "lon": -92.3187308, "current": false}, {"idx": 3, "lat": 38.94124047, "lon": -92.31867984, "current": false}, {"idx": 4, "lat": 38.94124047, "lon": -92.31856987, "current": false}, {"idx": 5, "lat": 38.94121959, "lon": -92.31852293, "current": false}, {"idx": 6, "lat": 38.94114243, "lon": -92.31852159, "current": false}], "waiting_at_wp": false, "waiting_wp_idx": null, "imu_raw": {"type": "imu_frame", "version": 1, "rot": {"qi": 0.015, "qj": 0.028, "qk": -0.465, "qr": 0.885}, "euler": {"roll": 0.03, "pitch": 3.64, "yaw": 53.28, "north_offset_deg": 108.7379}, "hz": 47.7, "heading": {"raw": 355.528, "deg": 104.266, "dir": "ESE"}, "ts": 4794506, "game_rot": {"qi": -0.001, "qj": 0.032, "qk": 0.039, "qr": 0.999}, "accel": {"x": -0.64, "y": -0.02, "z": 9.84}, "lin_accel": {"x": -0.01, "y": -0.03, "z": -0.01}, "gravity": {"x": -0.62, "y": 0.01, "z": 9.85}, "gyro": {"x": 0.0, "y": 0.0, "z": 0.0}, "mag": {"x": -17.0, "y": 6.2, "z": 11.1}, "steps": 0, "cal": 0}, "rtk_raw": {"type": "rtk_frame", "version": 1, "lat": 38.94125214666666, "lon": -92.31890962833333, "alt": 236.787, "fix_quality": 4, "num_sats": 19, "hdop": 1.0, "speed_knots": 0.02, "track_deg": 286.25, "rtk_ts": 1777441993.622596, "server_ts": 1777441994.542372, "source": "rtk"}}
{"type": "autonav_status", "version": 1, "state": "idle", "current_wp_idx": 0, "total_wp": 7, "heading_deg": 104.266, "target_bearing_deg": 95.2, "bearing_error_deg": -9.0, "dist_to_wp_m": 5.29, "linear": 0.0, "angular": 0.0, "gps_age_s": 0.0, "gps_packet_age_s": 0.0, "gps_fix_quality": 4, "sensor_block_reason": null, "imu_age_s": 0.01, "speed_ratio": 1.0, "manual_speed": 0.4, "calib": {"mark": {"lat": 38.94125072166667, "lon": -92.318902375}, "offset_applied": 108.73791110065343}, "waypoints_window": [{"idx": 0, "lat": 38.94124777, "lon": -92.31884882, "current": true}, {"idx": 1, "lat": 38.9412436, "lon": -92.31878981, "current": false}, {"idx": 2, "lat": 38.94120606, "lon": -92.3187308, "current": false}, {"idx": 3, "lat": 38.94124047, "lon": -92.31867984, "current": false}, {"idx": 4, "lat": 38.94124047, "lon": -92.31856987, "current": false}, {"idx": 5, "lat": 38.94121959, "lon": -92.31852293, "current": false}, {"idx": 6, "lat": 38.94114243, "lon": -92.31852159, "current": false}], "waiting_at_wp": false, "waiting_wp_idx": null, "imu_raw": {"type": "imu_frame", "version": 1, "rot": {"qi": 0.015, "qj": 0.028, "qk": -0.465, "qr": 0.885}, "euler": {"roll": 0.03, "pitch": 3.64, "yaw": 53.28, "north_offset_deg": 108.7379}, "hz": 47.6, "heading": {"raw": 355.528, "deg": 104.266, "dir": "ESE"}, "ts": 4794717, "game_rot": {"qi": -0.001, "qj": 0.032, "qk": 0.039, "qr": 0.999}, "accel": {"x": -0.64, "y": 0.02, "z": 9.85}, "lin_accel": {"x": -0.01, "y": 0.02, "z": -0.01}, "gravity": {"x": -0.62, "y": 0.0, "z": 9.85}, "gyro": {"x": 0.0, "y": 0.0, "z": 0.0}, "mag": {"x": -16.3, "y": 5.9, "z": 11.1}, "steps": 0, "cal": 0}, "rtk_raw": {"type": "rtk_frame", "version": 1, "lat": 38.94125210666667, "lon": -92.318909635, "alt": 236.786, "fix_quality": 4, "num_sats": 19, "hdop": 1.0, "speed_knots": 0.06, "track_deg": 286.25, "rtk_ts": 1777441994.628285, "server_ts": 1777441994.743412, "source": "rtk"}}
{"type": "autonav_status", "version": 1, "state": "idle", "current_wp_idx": 0, "total_wp": 7, "heading_deg": 104.266, "target_bearing_deg": 95.2, "bearing_error_deg": -9.0, "dist_to_wp_m": 5.29, "linear": 0.0, "angular": 0.0, "gps_age_s": 0.2, "gps_packet_age_s": 0.2, "gps_fix_quality": 4, "sensor_block_reason": null, "imu_age_s": 0.01, "speed_ratio": 1.0, "manual_speed": 0.4, "calib": {"mark": {"lat": 38.94125072166667, "lon": -92.318902375}, "offset_applied": 108.73791110065343}, "waypoints_window": [{"idx": 0, "lat": 38.94124777, "lon": -92.31884882, "current": true}, {"idx": 1, "lat": 38.9412436, "lon": -92.31878981, "current": false}, {"idx": 2, "lat": 38.94120606, "lon": -92.3187308, "current": false}, {"idx": 3, "lat": 38.94124047, "lon": -92.31867984, "current": false}, {"idx": 4, "lat": 38.94124047, "lon": -92.31856987, "current": false}, {"idx": 5, "lat": 38.94121959, "lon": -92.31852293, "current": false}, {"idx": 6, "lat": 38.94114243, "lon": -92.31852159, "current": false}], "waiting_at_wp": false, "waiting_wp_idx": null, "imu_raw": {"type": "imu_frame", "version": 1, "rot": {"qi": 0.015, "qj": 0.028, "qk": -0.465, "qr": 0.885}, "euler": {"roll": 0.03, "pitch": 3.64, "yaw": 53.28, "north_offset_deg": 108.7379}, "hz": 47.7, "heading": {"raw": 355.528, "deg": 104.266, "dir": "ESE"}, "ts": 4794918, "game_rot": {"qi": -0.001, "qj": 0.032, "qk": 0.039, "qr": 0.999}, "accel": {"x": -0.64, "y": -0.02, "z": 9.88}, "lin_accel": {"x": -0.01, "y": -0.03, "z": 0.02}, "gravity": {"x": -0.62, "y": 0.01, "z": 9.86}, "gyro": {"x": 0.0, "y": 0.0, "z": 0.0}, "mag": {"x": -15.6, "y": 6.0, "z": 12.3}, "steps": 0, "cal": 0}, "rtk_raw": {"type": "rtk_frame", "version": 1, "lat": 38.94125210666667, "lon": -92.318909635, "alt": 236.786, "fix_quality": 4, "num_sats": 19, "hdop": 1.0, "speed_knots": 0.06, "track_deg": 286.25, "rtk_ts": 1777441994.628285, "server_ts": 1777441994.743412, "source": "rtk"}}
{"type": "autonav_status", "version": 1, "state": "idle", "current_wp_idx": 0, "total_wp": 7, "heading_deg": 104.266, "target_bearing_deg": 95.2, "bearing_error_deg": -9.0, "dist_to_wp_m": 5.29, "linear": 0.0, "angular": 0.0, "gps_age_s": 0.2, "gps_packet_age_s": 0.2, "gps_fix_quality": 4, "sensor_block_reason": null, "imu_age_s": 0.02, "speed_ratio": 1.0, "manual_speed": 0.4, "calib": {"mark": {"lat": 38.94125072166667, "lon": -92.318902375}, "offset_applied": 108.73791110065343}, "waypoints_window": [{"idx": 0, "lat": 38.94124777, "lon": -92.31884882, "current": true}, {"idx": 1, "lat": 38.9412436, "lon": -92.31878981, "current": false}, {"idx": 2, "lat": 38.94120606, "lon": -92.3187308, "current": false}, {"idx": 3, "lat": 38.94124047, "lon": -92.31867984, "current": false}, {"idx": 4, "lat": 38.94124047, "lon": -92.31856987, "current": false}, {"idx": 5, "lat": 38.94121959, "lon": -92.31852293, "current": false}, {"idx": 6, "lat": 38.94114243, "lon": -92.31852159, "current": false}], "waiting_at_wp": false, "waiting_wp_idx": null, "imu_raw": {"type": "imu_frame", "version": 1, "rot": {"qi": 0.015, "qj": 0.028, "qk": -0.465, "qr": 0.885}, "euler": {"roll": 0.03, "pitch": 3.64, "yaw": 53.28, "north_offset_deg": 108.7379}, "hz": 47.5, "heading": {"raw": 355.528, "deg": 104.266, "dir": "ESE"}, "ts": 4795108, "game_rot": {"qi": -0.001, "qj": 0.032, "qk": 0.039, "qr": 0.999}, "accel": {"x": -0.64, "y": -0.02, "z": 9.84}, "lin_accel": {"x": -0.01, "y": -0.03, "z": -0.01}, "gravity": {"x": -0.62, "y": 0.01, "z": 9.85}, "gyro": {"x": 0.0, "y": 0.0, "z": 0.0}, "mag": {"x": -14.9, "y": 6.4, "z": 11.1}, "steps": 0, "cal": 0}, "rtk_raw": {"type": "rtk_frame", "version": 1, "lat": 38.94125210666667, "lon": -92.318909635, "alt": 236.786, "fix_quality": 4, "num_sats": 19, "hdop": 1.0, "speed_knots": 0.06, "track_deg": 286.25, "rtk_ts": 1777441994.628285, "server_ts": 1777441994.9445848, "source": "rtk"}}
{"type": "autonav_status", "version": 1, "state": "idle", "current_wp_idx": 0, "total_wp": 7, "heading_deg": 104.266, "target_bearing_deg": 95.2, "bearing_error_deg": -9.0, "dist_to_wp_m": 5.29, "linear": 0.0, "angular": 0.0, "gps_age_s": 0.2, "gps_packet_age_s": 0.2, "gps_fix_quality": 4, "sensor_block_reason": null, "imu_age_s": 0.02, "speed_ratio": 1.0, "manual_speed": 0.4, "calib": {"mark": {"lat": 38.94125072166667, "lon": -92.318902375}, "offset_applied": 108.73791110065343}, "waypoints_window": [{"idx": 0, "lat": 38.94124777, "lon": -92.31884882, "current": true}, {"idx": 1, "lat": 38.9412436, "lon": -92.31878981, "current": false}, {"idx": 2, "lat": 38.94120606, "lon": -92.3187308, "current": false}, {"idx": 3, "lat": 38.94124047, "lon": -92.31867984, "current": false}, {"idx": 4, "lat": 38.94124047, "lon": -92.31856987, "current": false}, {"idx": 5, "lat": 38.94121959, "lon": -92.31852293, "current": false}, {"idx": 6, "lat": 38.94114243, "lon": -92.31852159, "current": false}], "waiting_at_wp": false, "waiting_wp_idx": null, "imu_raw": {"type": "imu_frame", "version": 1, "rot": {"qi": 0.015, "qj": 0.028, "qk": -0.465, "qr": 0.885}, "euler": {"roll": 0.03, "pitch": 3.64, "yaw": 53.28, "north_offset_deg": 108.7379}, "hz": 47.4, "heading": {"raw": 355.528, "deg": 104.266, "dir": "ESE"}, "ts": 4795304, "game_rot": {"qi": -0.001, "qj": 0.032, "qk": 0.039, "qr": 0.999}, "accel": {"x": -0.64, "y": 0.02, "z": 9.89}, "lin_accel": {"x": -0.01, "y": -0.03, "z": -0.01}, "gravity": {"x": -0.62, "y": 0.01, "z": 9.85}, "gyro": {"x": 0.0, "y": 0.0, "z": 0.0}, "mag": {"x": -15.6, "y": 6.8, "z": 12.3}, "steps": 0, "cal": 0}, "rtk_raw": {"type": "rtk_frame", "version": 1, "lat": 38.94125210666667, "lon": -92.318909635, "alt": 236.786, "fix_quality": 4, "num_sats": 19, "hdop": 1.0, "speed_knots": 0.06, "track_deg": 286.25, "rtk_ts": 1777441994.628285, "server_ts": 1777441995.1457431, "source": "rtk"}}
{"type": "autonav_status", "version": 1, "state": "idle", "current_wp_idx": 0, "total_wp": 7, "heading_deg": 104.266, "target_bearing_deg": 95.2, "bearing_error_deg": -9.0, "dist_to_wp_m": 5.29, "linear": 0.0, "angular": 0.0, "gps_age_s": 0.2, "gps_packet_age_s": 0.2, "gps_fix_quality": 4, "sensor_block_reason": null, "imu_age_s": 0.01, "speed_ratio": 1.0, "manual_speed": 0.4, "calib": {"mark": {"lat": 38.94125072166667, "lon": -92.318902375}, "offset_applied": 108.73791110065343}, "waypoints_window": [{"idx": 0, "lat": 38.94124777, "lon": -92.31884882, "current": true}, {"idx": 1, "lat": 38.9412436, "lon": -92.31878981, "current": false}, {"idx": 2, "lat": 38.94120606, "lon": -92.3187308, "current": false}, {"idx": 3, "lat": 38.94124047, "lon": -92.31867984, "current": false}, {"idx": 4, "lat": 38.94124047, "lon": -92.31856987, "current": false}, {"idx": 5, "lat": 38.94121959, "lon": -92.31852293, "current": false}, {"idx": 6, "lat": 38.94114243, "lon": -92.31852159, "current": false}], "waiting_at_wp": false, "waiting_wp_idx": null, "imu_raw": {"type": "imu_frame", "version": 1, "rot": {"qi": 0.015, "qj": 0.028, "qk": -0.465, "qr": 0.885}, "euler": {"roll": 0.03, "pitch": 3.64, "yaw": 53.28, "north_offset_deg": 108.7379}, "hz": 47.3, "heading": {"raw": 355.528, "deg": 104.266, "dir": "ESE"}, "ts": 4795519, "game_rot": {"qi": -0.001, "qj": 0.032, "qk": 0.039, "qr": 0.999}, "accel": {"x": -0.64, "y": 0.02, "z": 9.85}, "lin_accel": {"x": -0.01, "y": 0.02, "z": -0.02}, "gravity": {"x": -0.62, "y": 0.0, "z": 9.86}, "gyro": {"x": 0.0, "y": 0.0, "z": 0.0}, "mag": {"x": -16.3, "y": 6.2, "z": 11.1}, "steps": 0, "cal": 0}, "rtk_raw": {"type": "rtk_frame", "version": 1, "lat": 38.94125210666667, "lon": -92.318909635, "alt": 236.786, "fix_quality": 4, "num_sats": 19, "hdop": 1.0, "speed_knots": 0.06, "track_deg": 286.25, "rtk_ts": 1777441994.628285, "server_ts": 1777441995.3469388, "source": "rtk"}}
{"type": "autonav_status", "version": 1, "state": "idle", "current_wp_idx": 0, "total_wp": 7, "heading_deg": 104.266, "target_bearing_deg": 95.2, "bearing_error_deg": -9.0, "dist_to_wp_m": 5.29, "linear": 0.0, "angular": 0.0, "gps_age_s": 0.0, "gps_packet_age_s": 0.0, "gps_fix_quality": 4, "sensor_block_reason": null, "imu_age_s": 0.02, "speed_ratio": 1.0, "manual_speed": 0.4, "calib": {"mark": {"lat": 38.94125072166667, "lon": -92.318902375}, "offset_applied": 108.73791110065343}, "waypoints_window": [{"idx": 0, "lat": 38.94124777, "lon": -92.31884882, "current": true}, {"idx": 1, "lat": 38.9412436, "lon": -92.31878981, "current": false}, {"idx": 2, "lat": 38.94120606, "lon": -92.3187308, "current": false}, {"idx": 3, "lat": 38.94124047, "lon": -92.31867984, "current": false}, {"idx": 4, "lat": 38.94124047, "lon": -92.31856987, "current": false}, {"idx": 5, "lat": 38.94121959, "lon": -92.31852293, "current": false}, {"idx": 6, "lat": 38.94114243, "lon": -92.31852159, "current": false}], "waiting_at_wp": false, "waiting_wp_idx": null, "imu_raw": {"type": "imu_frame", "version": 1, "rot": {"qi": 0.015, "qj": 0.028, "qk": -0.465, "qr": 0.885}, "euler": {"roll": 0.03, "pitch": 3.64, "yaw": 53.28, "north_offset_deg": 108.7379}, "hz": 47.2, "heading": {"raw": 355.528, "deg": 104.266, "dir": "ESE"}, "ts": 4795710, "game_rot": {"qi": -0.001, "qj": 0.032, "qk": 0.039, "qr": 0.999}, "accel": {"x": -0.64, "y": -0.02, "z": 9.88}, "lin_accel": {"x": -0.01, "y": -0.03, "z": 0.02}, "gravity": {"x": -0.62, "y": 0.01, "z": 9.86}, "gyro": {"x": 0.0, "y": 0.0, "z": 0.0}, "mag": {"x": -14.9, "y": 7.5, "z": 11.2}, "steps": 0, "cal": 0}, "rtk_raw": {"type": "rtk_frame", "version": 1, "lat": 38.941252111666664, "lon": -92.31890963166667, "alt": 236.782, "fix_quality": 4, "num_sats": 19, "hdop": 1.0, "speed_knots": 0.02, "track_deg": 286.25, "rtk_ts": 1777441995.6146932, "server_ts": 1777441995.749509, "source": "rtk"}}
{"type": "autonav_status", "version": 1, "state": "idle", "current_wp_idx": 0, "total_wp": 7, "heading_deg": 104.266, "target_bearing_deg": 95.2, "bearing_error_deg": -9.0, "dist_to_wp_m": 5.29, "linear": 0.0, "angular": 0.0, "gps_age_s": 0.0, "gps_packet_age_s": 0.0, "gps_fix_quality": 4, "sensor_block_reason": null, "imu_age_s": 0.0, "speed_ratio": 1.0, "manual_speed": 0.4, "calib": {"mark": {"lat": 38.94125072166667, "lon": -92.318902375}, "offset_applied": 108.73791110065343}, "waypoints_window": [{"idx": 0, "lat": 38.94124777, "lon": -92.31884882, "current": true}, {"idx": 1, "lat": 38.9412436, "lon": -92.31878981, "current": false}, {"idx": 2, "lat": 38.94120606, "lon": -92.3187308, "current": false}, {"idx": 3, "lat": 38.94124047, "lon": -92.31867984, "current": false}, {"idx": 4, "lat": 38.94124047, "lon": -92.31856987, "current": false}, {"idx": 5, "lat": 38.94121959, "lon": -92.31852293, "current": false}, {"idx": 6, "lat": 38.94114243, "lon": -92.31852159, "current": false}], "waiting_at_wp": false, "waiting_wp_idx": null, "imu_raw": {"type": "imu_frame", "version": 1, "rot": {"qi": 0.015, "qj": 0.028, "qk": -0.465, "qr": 0.885}, "euler": {"roll": 0.03, "pitch": 3.64, "yaw": 53.28, "north_offset_deg": 108.7379}, "hz": 47.4, "heading": {"raw": 355.528, "deg": 104.266, "dir": "ESE"}, "ts": 4795931, "game_rot": {"qi": -0.001, "qj": 0.032, "qk": 0.039, "qr": 0.999}, "accel": {"x": -0.64, "y": 0.02, "z": 9.85}, "lin_accel": {"x": -0.01, "y": 0.01, "z": -0.02}, "gravity": {"x": -0.62, "y": 0.01, "z": 9.86}, "gyro": {"x": 0.0, "y": 0.0, "z": 0.0}, "mag": {"x": -15.9, "y": 7.5, "z": 11.6}, "steps": 0, "cal": 0}, "rtk_raw": {"type": "rtk_frame", "version": 1, "lat": 38.941252111666664, "lon": -92.31890963166667, "alt": 236.782, "fix_quality": 4, "num_sats": 19, "hdop": 1.0, "speed_knots": 0.02, "track_deg": 286.25, "rtk_ts": 1777441995.6146932, "server_ts": 1777441995.9499369, "source": "rtk"}}
{"type": "autonav_status", "version": 1, "state": "idle", "current_wp_idx": 0, "total_wp": 7, "heading_deg": 104.266, "target_bearing_deg": 95.2, "bearing_error_deg": -9.0, "dist_to_wp_m": 5.29, "linear": 0.0, "angular": 0.0, "gps_age_s": 0.0, "gps_packet_age_s": 0.0, "gps_fix_quality": 4, "sensor_block_reason": null, "imu_age_s": 0.02, "speed_ratio": 1.0, "manual_speed": 0.4, "calib": {"mark": {"lat": 38.94125072166667, "lon": -92.318902375}, "offset_applied": 108.73791110065343}, "waypoints_window": [{"idx": 0, "lat": 38.94124777, "lon": -92.31884882, "current": true}, {"idx": 1, "lat": 38.9412436, "lon": -92.31878981, "current": false}, {"idx": 2, "lat": 38.94120606, "lon": -92.3187308, "current": false}, {"idx": 3, "lat": 38.94124047, "lon": -92.31867984, "current": false}, {"idx": 4, "lat": 38.94124047, "lon": -92.31856987, "current": false}, {"idx": 5, "lat": 38.94121959, "lon": -92.31852293, "current": false}, {"idx": 6, "lat": 38.94114243, "lon": -92.31852159, "current": false}], "waiting_at_wp": false, "waiting_wp_idx": null, "imu_raw": {"type": "imu_frame", "version": 1, "rot": {"qi": 0.015, "qj": 0.028, "qk": -0.465, "qr": 0.885}, "euler": {"roll": 0.03, "pitch": 3.64, "yaw": 53.28, "north_offset_deg": 108.7379}, "hz": 48.0, "heading": {"raw": 355.528, "deg": 104.266, "dir": "ESE"}, "ts": 4796111, "game_rot": {"qi": -0.001, "qj": 0.032, "qk": 0.039, "qr": 0.999}, "accel": {"x": -0.6, "y": -0.02, "z": 9.84}, "lin_accel": {"x": 0.03, "y": -0.03, "z": -0.02}, "gravity": {"x": -0.62, "y": 0.01, "z": 9.86}, "gyro": {"x": 0.0, "y": 0.0, "z": 0.0}, "mag": {"x": -16.7, "y": 5.5, "z": 11.1}, "steps": 0, "cal": 0}, "rtk_raw": {"type": "rtk_frame", "version": 1, "lat": 38.941252111666664, "lon": -92.31890963166667, "alt": 236.782, "fix_quality": 4, "num_sats": 19, "hdop": 1.0, "speed_knots": 0.02, "track_deg": 286.25, "rtk_ts": 1777441995.6146932, "server_ts": 1777441996.151188, "source": "rtk"}}
{"type": "autonav_status", "version": 1, "state": "idle", "current_wp_idx": 0, "total_wp": 7, "heading_deg": 104.266, "target_bearing_deg": 95.2, "bearing_error_deg": -9.0, "dist_to_wp_m": 5.29, "linear": 0.0, "angular": 0.0, "gps_age_s": 0.0, "gps_packet_age_s": 0.0, "gps_fix_quality": 4, "sensor_block_reason": null, "imu_age_s": 0.01, "speed_ratio": 1.0, "manual_speed": 0.4, "calib": {"mark": {"lat": 38.94125072166667, "lon": -92.318902375}, "offset_applied": 108.73791110065343}, "waypoints_window": [{"idx": 0, "lat": 38.94124777, "lon": -92.31884882, "current": true}, {"idx": 1, "lat": 38.9412436, "lon": -92.31878981, "current": false}, {"idx": 2, "lat": 38.94120606, "lon": -92.3187308, "current": false}, {"idx": 3, "lat": 38.94124047, "lon": -92.31867984, "current": false}, {"idx": 4, "lat": 38.94124047, "lon": -92.31856987, "current": false}, {"idx": 5, "lat": 38.94121959, "lon": -92.31852293, "current": false}, {"idx": 6, "lat": 38.94114243, "lon": -92.31852159, "current": false}], "waiting_at_wp": false, "waiting_wp_idx": null, "imu_raw": {"type": "imu_frame", "version": 1, "rot": {"qi": 0.015, "qj": 0.028, "qk": -0.465, "qr": 0.885}, "euler": {"roll": 0.03, "pitch": 3.64, "yaw": 53.28, "north_offset_deg": 108.7379}, "hz": 47.9, "heading": {"raw": 355.528, "deg": 104.266, "dir": "ESE"}, "ts": 4796327, "game_rot": {"qi": -0.001, "qj": 0.032, "qk": 0.039, "qr": 0.999}, "accel": {"x": -0.6, "y": 0.02, "z": 9.89}, "lin_accel": {"x": -0.01, "y": 0.01, "z": 0.02}, "gravity": {"x": -0.62, "y": 0.01, "z": 9.86}, "gyro": {"x": 0.0, "y": 0.0, "z": 0.0}, "mag": {"x": -15.0, "y": 5.6, "z": 11.4}, "steps": 0, "cal": 0}, "rtk_raw": {"type": "rtk_frame", "version": 1, "lat": 38.941252111666664, "lon": -92.31890963166667, "alt": 236.782, "fix_quality": 4, "num_sats": 19, "hdop": 1.0, "speed_knots": 0.02, "track_deg": 286.25, "rtk_ts": 1777441995.6146932, "server_ts": 1777441996.3515258, "source": "rtk"}}
{"type": "autonav_status", "version": 1, "state": "running", "current_wp_idx": 0, "total_wp": 7, "heading_deg": 104.266, "target_bearing_deg": 95.2, "bearing_error_deg": -9.0, "dist_to_wp_m": 5.29, "linear": 0.0, "angular": 0.18, "gps_age_s": 0.0, "gps_packet_age_s": 0.0, "gps_fix_quality": 4, "sensor_block_reason": null, "imu_age_s": 0.02, "speed_ratio": 1.0, "manual_speed": 0.4, "calib": {"mark": {"lat": 38.94125072166667, "lon": -92.318902375}, "offset_applied": 108.73791110065343}, "waypoints_window": [{"idx": 0, "lat": 38.94124777, "lon": -92.31884882, "current": true}, {"idx": 1, "lat": 38.9412436, "lon": -92.31878981, "current": false}, {"idx": 2, "lat": 38.94120606, "lon": -92.3187308, "current": false}, {"idx": 3, "lat": 38.94124047, "lon": -92.31867984, "current": false}, {"idx": 4, "lat": 38.94124047, "lon": -92.31856987, "current": false}, {"idx": 5, "lat": 38.94121959, "lon": -92.31852293, "current": false}, {"idx": 6, "lat": 38.94114243, "lon": -92.31852159, "current": false}], "waiting_at_wp": false, "waiting_wp_idx": null, "imu_raw": {"type": "imu_frame", "version": 1, "rot": {"qi": 0.015, "qj": 0.028, "qk": -0.465, "qr": 0.885}, "euler": {"roll": 0.03, "pitch": 3.64, "yaw": 53.28, "north_offset_deg": 108.7379}, "hz": 48.1, "heading": {"raw": 355.528, "deg": 104.266, "dir": "ESE"}, "ts": 4796517, "game_rot": {"qi": -0.001, "qj": 0.032, "qk": 0.039, "qr": 0.999}, "accel": {"x": -0.64, "y": -0.02, "z": 9.84}, "lin_accel": {"x": -0.01, "y": -0.03, "z": -0.02}, "gravity": {"x": -0.62, "y": 0.01, "z": 9.86}, "gyro": {"x": 0.0, "y": 0.0, "z": 0.0}, "mag": {"x": -16.3, "y": 6.8, "z": 12.3}, "steps": 0, "cal": 0}, "rtk_raw": {"type": "rtk_frame", "version": 1, "lat": 38.941252111666664, "lon": -92.31890963166667, "alt": 236.782, "fix_quality": 4, "num_sats": 19, "hdop": 1.0, "speed_knots": 0.02, "track_deg": 286.25, "rtk_ts": 1777441995.6146932, "server_ts": 1777441996.5519922, "source": "rtk"}}
{"type": "autonav_status", "version": 1, "state": "running", "current_wp_idx": 0, "total_wp": 7, "heading_deg": 104.266, "target_bearing_deg": 95.3, "bearing_error_deg": -9.0, "dist_to_wp_m": 5.29, "linear": 0.0, "angular": 0.18, "gps_age_s": 0.0, "gps_packet_age_s": 0.0, "gps_fix_quality": 4, "sensor_block_reason": null, "imu_age_s": 0.0, "speed_ratio": 1.0, "manual_speed": 0.4, "calib": {"mark": {"lat": 38.94125072166667, "lon": -92.318902375}, "offset_applied": 108.73791110065343}, "waypoints_window": [{"idx": 0, "lat": 38.94124777, "lon": -92.31884882, "current": true}, {"idx": 1, "lat": 38.9412436, "lon": -92.31878981, "current": false}, {"idx": 2, "lat": 38.94120606, "lon": -92.3187308, "current": false}, {"idx": 3, "lat": 38.94124047, "lon": -92.31867984, "current": false}, {"idx": 4, "lat": 38.94124047, "lon": -92.31856987, "current": false}, {"idx": 5, "lat": 38.94121959, "lon": -92.31852293, "current": false}, {"idx": 6, "lat": 38.94114243, "lon": -92.31852159, "current": false}], "waiting_at_wp": false, "waiting_wp_idx": null, "imu_raw": {"type": "imu_frame", "version": 1, "rot": {"qi": 0.014, "qj": 0.028, "qk": -0.465, "qr": 0.885}, "euler": {"roll": -0.07, "pitch": 3.59, "yaw": 53.28, "north_offset_deg": 108.7379}, "hz": 48.1, "heading": {"raw": 355.528, "deg": 104.266, "dir": "ESE"}, "ts": 4796728, "game_rot": {"qi": -0.001, "qj": 0.031, "qk": 0.039, "qr": 0.999}, "accel": {"x": -0.64, "y": 0.74, "z": 11.45}, "lin_accel": {"x": -0.06, "y": 0.66, "z": 1.55}, "gravity": {"x": -0.58, "y": 0.08, "z": 9.91}, "gyro": {"x": -0.014, "y": -0.004, "z": 0.061}, "mag": {"x": -16.2, "y": 7.9, "z": 13.2}, "steps": 0, "cal": 0}, "rtk_raw": {"type": "rtk_frame", "version": 1, "lat": 38.941252123333335, "lon": -92.31890964, "alt": 236.779, "fix_quality": 4, "num_sats": 19, "hdop": 1.0, "speed_knots": 0.01, "track_deg": 286.25, "rtk_ts": 1777441996.609479, "server_ts": 1777441996.753324, "source": "rtk"}}
{"type": "autonav_status", "version": 1, "state": "running", "current_wp_idx": 0, "total_wp": 7, "heading_deg": 104.044, "target_bearing_deg": 95.3, "bearing_error_deg": -8.8, "dist_to_wp_m": 5.29, "linear": 0.0, "angular": 0.176, "gps_age_s": 0.0, "gps_packet_age_s": 0.0, "gps_fix_quality": 4, "sensor_block_reason": null, "imu_age_s": 0.02, "speed_ratio": 1.0, "manual_speed": 0.4, "calib": {"mark": {"lat": 38.94125072166667, "lon": -92.318902375}, "offset_applied": 108.73791110065343}, "waypoints_window": [{"idx": 0, "lat": 38.94124777, "lon": -92.31884882, "current": true}, {"idx": 1, "lat": 38.9412436, "lon": -92.31878981, "current": false}, {"idx": 2, "lat": 38.94120606, "lon": -92.3187308, "current": false}, {"idx": 3, "lat": 38.94124047, "lon": -92.31867984, "current": false}, {"idx": 4, "lat": 38.94124047, "lon": -92.31856987, "current": false}, {"idx": 5, "lat": 38.94121959, "lon": -92.31852293, "current": false}, {"idx": 6, "lat": 38.94114243, "lon": -92.31852159, "current": false}], "waiting_at_wp": false, "waiting_wp_idx": null, "imu_raw": {"type": "imu_frame", "version": 1, "rot": {"qi": 0.013, "qj": 0.027, "qk": -0.463, "qr": 0.886}, "euler": {"roll": -0.11, "pitch": 3.43, "yaw": 53.54, "north_offset_deg": 108.7379}, "hz": 47.7, "heading": {"raw": 355.306, "deg": 104.044, "dir": "ESE"}, "ts": 4796918, "game_rot": {"qi": -0.003, "qj": 0.03, "qk": 0.041, "qr": 0.999}, "accel": {"x": -0.56, "y": -0.21, "z": 10.69}, "lin_accel": {"x": 0.11, "y": -0.15, "z": 0.83}, "gravity": {"x": -0.66, "y": -0.06, "z": 9.86}, "gyro": {"x": -0.014, "y": -0.018, "z": -0.008}, "mag": {"x": -16.6, "y": 6.3, "z": 11.6}, "steps": 0, "cal": 0}, "rtk_raw": {"type": "rtk_frame", "version": 1, "lat": 38.941252123333335, "lon": -92.31890964, "alt": 236.779, "fix_quality": 4, "num_sats": 19, "hdop": 1.0, "speed_knots": 0.01, "track_deg": 286.25, "rtk_ts": 1777441996.609479, "server_ts": 1777441996.9537878, "source": "rtk"}}
{"type": "autonav_status", "version": 1, "state": "running", "current_wp_idx": 0, "total_wp": 7, "heading_deg": 103.933, "target_bearing_deg": 95.3, "bearing_error_deg": -8.7, "dist_to_wp_m": 5.29, "linear": 0.0, "angular": 0.174, "gps_age_s": 0.0, "gps_packet_age_s": 0.0, "gps_fix_quality": 4, "sensor_block_reason": null, "imu_age_s": 0.01, "speed_ratio": 1.0, "manual_speed": 0.4, "calib": {"mark": {"lat": 38.94125072166667, "lon": -92.318902375}, "offset_applied": 108.73791110065343}, "waypoints_window": [{"idx": 0, "lat": 38.94124777, "lon": -92.31884882, "current": true}, {"idx": 1, "lat": 38.9412436, "lon": -92.31878981, "current": false}, {"idx": 2, "lat": 38.94120606, "lon": -92.3187308, "current": false}, {"idx": 3, "lat": 38.94124047, "lon": -92.31867984, "current": false}, {"idx": 4, "lat": 38.94124047, "lon": -92.31856987, "current": false}, {"idx": 5, "lat": 38.94121959, "lon": -92.31852293, "current": false}, {"idx": 6, "lat": 38.94114243, "lon": -92.31852159, "current": false}], "waiting_at_wp": false, "waiting_wp_idx": null, "imu_raw": {"type": "imu_frame", "version": 1, "rot": {"qi": 0.011, "qj": 0.028, "qk": -0.462, "qr": 0.886}, "euler": {"roll": -0.37, "pitch": 3.43, "yaw": 53.68, "north_offset_deg": 108.7379}, "hz": 47.7, "heading": {"raw": 355.195, "deg": 103.933, "dir": "ESE"}, "ts": 4797120, "game_rot": {"qi": -0.004, "qj": 0.03, "qk": 0.042, "qr": 0.999}, "accel": {"x": -0.45, "y": -0.06, "z": 10.57}, "lin_accel": {"x": 0.12, "y": -0.01, "z": 0.72}, "gravity": {"x": -0.57, "y": -0.05, "z": 9.85}, "gyro": {"x": -0.008, "y": -0.014, "z": 0.01}, "mag": {"x": -17.0, "y": 5.9, "z": 12.4}, "steps": 0, "cal": 0}, "rtk_raw": {"type": "rtk_frame", "version": 1, "lat": 38.941252123333335, "lon": -92.31890964, "alt": 236.779, "fix_quality": 4, "num_sats": 19, "hdop": 1.0, "speed_knots": 0.01, "track_deg": 286.25, "rtk_ts": 1777441996.609479, "server_ts": 1777441997.155046, "source": "rtk"}}
{"type": "autonav_status", "version": 1, "state": "running", "current_wp_idx": 0, "total_wp": 7, "heading_deg": 103.821, "target_bearing_deg": 95.3, "bearing_error_deg": -8.6, "dist_to_wp_m": 5.29, "linear": 0.0, "angular": 0.171, "gps_age_s": 0.2, "gps_packet_age_s": 0.2, "gps_fix_quality": 4, "sensor_block_reason": null, "imu_age_s": 0.0, "speed_ratio": 1.0, "manual_speed": 0.4, "calib": {"mark": {"lat": 38.94125072166667, "lon": -92.318902375}, "offset_applied": 108.73791110065343}, "waypoints_window": [{"idx": 0, "lat": 38.94124777, "lon": -92.31884882, "current": true}, {"idx": 1, "lat": 38.9412436, "lon": -92.31878981, "current": false}, {"idx": 2, "lat": 38.94120606, "lon": -92.3187308, "current": false}, {"idx": 3, "lat": 38.94124047, "lon": -92.31867984, "current": false}, {"idx": 4, "lat": 38.94124047, "lon": -92.31856987, "current": false}, {"idx": 5, "lat": 38.94121959, "lon": -92.31852293, "current": false}, {"idx": 6, "lat": 38.94114243, "lon": -92.31852159, "current": false}], "waiting_at_wp": false, "waiting_wp_idx": null, "imu_raw": {"type": "imu_frame", "version": 1, "rot": {"qi": 0.011, "qj": 0.028, "qk": -0.462, "qr": 0.887}, "euler": {"roll": -0.36, "pitch": 3.43, "yaw": 53.65, "north_offset_deg": 108.7379}, "hz": 47.7, "heading": {"raw": 355.083, "deg": 103.821, "dir": "ESE"}, "ts": 4797331, "game_rot": {"qi": -0.005, "qj": 0.029, "qk": 0.043, "qr": 0.999}, "accel": {"x": -0.64, "y": -0.14, "z": 9.92}, "lin_accel": {"x": -0.03, "y": -0.03, "z": 0.08}, "gravity": {"x": -0.61, "y": -0.11, "z": 9.84}, "gyro": {"x": 0.018, "y": 0.004, "z": 0.002}, "mag": {"x": -16.0, "y": 5.9, "z": 11.9}, "steps": 0, "cal": 0}, "rtk_raw": {"type": "rtk_frame", "version": 1, "lat": 38.941252123333335, "lon": -92.31890964, "alt": 236.779, "fix_quality": 4, "num_sats": 19, "hdop": 1.0, "speed_knots": 0.01, "track_deg": 286.25, "rtk_ts": 1777441996.609479, "server_ts": 1777441997.155046, "source": "rtk"}}
{"type": "autonav_status", "version": 1, "state": "running", "current_wp_idx": 0, "total_wp": 7, "heading_deg": 103.707, "target_bearing_deg": 95.3, "bearing_error_deg": -8.4, "dist_to_wp_m": 5.29, "linear": 0.0, "angular": 0.169, "gps_age_s": 0.0, "gps_packet_age_s": 0.0, "gps_fix_quality": 4, "sensor_block_reason": null, "imu_age_s": 0.02, "speed_ratio": 1.0, "manual_speed": 0.4, "calib": {"mark": {"lat": 38.94125072166667, "lon": -92.318902375}, "offset_applied": 108.73791110065343}, "waypoints_window": [{"idx": 0, "lat": 38.94124777, "lon": -92.31884882, "current": true}, {"idx": 1, "lat": 38.9412436, "lon": -92.31878981, "current": false}, {"idx": 2, "lat": 38.94120606, "lon": -92.3187308, "current": false}, {"idx": 3, "lat": 38.94124047, "lon": -92.31867984, "current": false}, {"idx": 4, "lat": 38.94124047, "lon": -92.31856987, "current": false}, {"idx": 5, "lat": 38.94121959, "lon": -92.31852293, "current": false}, {"idx": 6, "lat": 38.94114243, "lon": -92.31852159, "current": false}], "waiting_at_wp": false, "waiting_wp_idx": null, "imu_raw": {"type": "imu_frame", "version": 1, "rot": {"qi": 0.011, "qj": 0.028, "qk": -0.461, "qr": 0.887}, "euler": {"roll": -0.36, "pitch": 3.43, "yaw": 53.79, "north_offset_deg": 108.7379}, "hz": 47.8, "heading": {"raw": 354.969, "deg": 103.707, "dir": "ESE"}, "ts": 4797516, "game_rot": {"qi": -0.005, "qj": 0.029, "qk": 0.044, "qr": 0.999}, "accel": {"x": -0.6, "y": -0.1, "z": 9.42}, "lin_accel": {"x": 0.24, "y": 0.05, "z": 0.09}, "gravity": {"x": -0.61, "y": -0.07, "z": 9.88}, "gyro": {"x": -0.008, "y": 0.0, "z": 0.004}, "mag": {"x": -15.6, "y": 7.9, "z": 12.0}, "steps": 0, "cal": 0}, "rtk_raw": {"type": "rtk_frame", "version": 1, "lat": 38.941252123333335, "lon": -92.31890964, "alt": 236.779, "fix_quality": 4, "num_sats": 19, "hdop": 1.0, "speed_knots": 0.01, "track_deg": 286.25, "rtk_ts": 1777441996.609479, "server_ts": 1777441997.5567648, "source": "rtk"}}
{"type": "autonav_status", "version": 1, "state": "running", "current_wp_idx": 0, "total_wp": 7, "heading_deg": 103.707, "target_bearing_deg": 95.6, "bearing_error_deg": -8.1, "dist_to_wp_m": 5.29, "linear": 0.0, "angular": 0.161, "gps_age_s": 0.0, "gps_packet_age_s": 0.0, "gps_fix_quality": 4, "sensor_block_reason": null, "imu_age_s": 0.02, "speed_ratio": 1.0, "manual_speed": 0.4, "calib": {"mark": {"lat": 38.94125072166667, "lon": -92.318902375}, "offset_applied": 108.73791110065343}, "waypoints_window": [{"idx": 0, "lat": 38.94124777, "lon": -92.31884882, "current": true}, {"idx": 1, "lat": 38.9412436, "lon": -92.31878981, "current": false}, {"idx": 2, "lat": 38.94120606, "lon": -92.3187308, "current": false}, {"idx": 3, "lat": 38.94124047, "lon": -92.31867984, "current": false}, {"idx": 4, "lat": 38.94124047, "lon": -92.31856987, "current": false}, {"idx": 5, "lat": 38.94121959, "lon": -92.31852293, "current": false}, {"idx": 6, "lat": 38.94114243, "lon": -92.31852159, "current": false}], "waiting_at_wp": false, "waiting_wp_idx": null, "imu_raw": {"type": "imu_frame", "version": 1, "rot": {"qi": 0.01, "qj": 0.028, "qk": -0.46, "qr": 0.887}, "euler": {"roll": -0.46, "pitch": 3.38, "yaw": 53.94, "north_offset_deg": 108.7379}, "hz": 48.4, "heading": {"raw": 354.969, "deg": 103.707, "dir": "ESE"}, "ts": 4797721, "game_rot": {"qi": -0.005, "qj": 0.029, "qk": 0.044, "qr": 0.999}, "accel": {"x": -0.68, "y": -0.18, "z": 9.35}, "lin_accel": {"x": -0.42, "y": 0.04, "z": 1.23}, "gravity": {"x": -0.52, "y": -0.05, "z": 9.84}, "gyro": {"x": -0.006, "y": 0.004, "z": 0.023}, "mag": {"x": -15.9, "y": 7.4, "z": 11.2}, "steps": 0, "cal": 0}, "rtk_raw": {"type": "rtk_frame", "version": 1, "lat": 38.941252445, "lon": -92.318909655, "alt": 236.794, "fix_quality": 4, "num_sats": 19, "hdop": 1.0, "speed_knots": 0.06, "track_deg": 286.25, "rtk_ts": 1777441997.6257238, "server_ts": 1777441997.758067, "source": "rtk"}}
{"type": "autonav_status", "version": 1, "state": "running", "current_wp_idx": 0, "total_wp": 7, "heading_deg": 103.481, "target_bearing_deg": 95.6, "bearing_error_deg": -7.8, "dist_to_wp_m": 5.29, "linear": 0.0, "angular": 0.157, "gps_age_s": 0.0, "gps_packet_age_s": 0.0, "gps_fix_quality": 4, "sensor_block_reason": null, "imu_age_s": 0.01, "speed_ratio": 1.0, "manual_speed": 0.4, "calib": {"mark": {"lat": 38.94125072166667, "lon": -92.318902375}, "offset_applied": 108.73791110065343}, "waypoints_window": [{"idx": 0, "lat": 38.94124777, "lon": -92.31884882, "current": true}, {"idx": 1, "lat": 38.9412436, "lon": -92.31878981, "current": false}, {"idx": 2, "lat": 38.94120606, "lon": -92.3187308, "current": false}, {"idx": 3, "lat": 38.94124047, "lon": -92.31867984, "current": false}, {"idx": 4, "lat": 38.94124047, "lon": -92.31856987, "current": false}, {"idx": 5, "lat": 38.94121959, "lon": -92.31852293, "current": false}, {"idx": 6, "lat": 38.94114243, "lon": -92.31852159, "current": false}], "waiting_at_wp": false, "waiting_wp_idx": null, "imu_raw": {"type": "imu_frame", "version": 1, "rot": {"qi": 0.009, "qj": 0.028, "qk": -0.459, "qr": 0.888}, "euler": {"roll": -0.56, "pitch": 3.32, "yaw": 54.05, "north_offset_deg": 108.7379}, "hz": 48.4, "heading": {"raw": 354.743, "deg": 103.481, "dir": "ESE"}, "ts": 4797931, "game_rot": {"qi": -0.006, "qj": 0.029, "qk": 0.046, "qr": 0.999}, "accel": {"x": -0.68, "y": -0.18, "z": 9.77}, "lin_accel": {"x": 0.24, "y": 0.18, "z": 1.2}, "gravity": {"x": -0.62, "y": -0.09, "z": 9.84}, "gyro": {"x": 0.004, "y": -0.002, "z": 0.02}, "mag": {"x": -15.9, "y": 8.3, "z": 13.3}, "steps": 0, "cal": 0}, "rtk_raw": {"type": "rtk_frame", "version": 1, "lat": 38.941252445, "lon": -92.318909655, "alt": 236.794, "fix_quality": 4, "num_sats": 19, "hdop": 1.0, "speed_knots": 0.06, "track_deg": 286.25, "rtk_ts": 1777441997.6257238, "server_ts": 1777441997.959378, "source": "rtk"}}
{"type": "autonav_status", "version": 1, "state": "running", "current_wp_idx": 0, "total_wp": 7, "heading_deg": 103.361, "target_bearing_deg": 95.6, "bearing_error_deg": -7.7, "dist_to_wp_m": 5.29, "linear": 0.0, "angular": 0.154, "gps_age_s": 0.0, "gps_packet_age_s": 0.0, "gps_fix_quality": 4, "sensor_block_reason": null, "imu_age_s": 0.01, "speed_ratio": 1.0, "manual_speed": 0.4, "calib": {"mark": {"lat": 38.94125072166667, "lon": -92.318902375}, "offset_applied": 108.73791110065343}, "waypoints_window": [{"idx": 0, "lat": 38.94124777, "lon": -92.31884882, "current": true}, {"idx": 1, "lat": 38.9412436, "lon": -92.31878981, "current": false}, {"idx": 2, "lat": 38.94120606, "lon": -92.3187308, "current": false}, {"idx": 3, "lat": 38.94124047, "lon": -92.31867984, "current": false}, {"idx": 4, "lat": 38.94124047, "lon": -92.31856987, "current": false}, {"idx": 5, "lat": 38.94121959, "lon": -92.31852293, "current": false}, {"idx": 6, "lat": 38.94114243, "lon": -92.31852159, "current": false}], "waiting_at_wp": false, "waiting_wp_idx": null, "imu_raw": {"type": "imu_frame", "version": 1, "rot": {"qi": 0.01, "qj": 0.028, "qk": -0.458, "qr": 0.888}, "euler": {"roll": -0.45, "pitch": 3.38, "yaw": 54.2, "north_offset_deg": 108.7379}, "hz": 48.4, "heading": {"raw": 354.623, "deg": 103.361, "dir": "ESE"}, "ts": 4798131, "game_rot": {"qi": -0.006, "qj": 0.029, "qk": 0.047, "qr": 0.998}, "accel": {"x": -0.33, "y": 0.13, "z": 9.54}, "lin_accel": {"x": -0.07, "y": 0.1, "z": 0.48}, "gravity": {"x": -0.59, "y": -0.09, "z": 9.87}, "gyro": {"x": 0.004, "y": -0.012, "z": 0.01}, "mag": {"x": -16.9, "y": 7.4, "z": 12.0}, "steps": 0, "cal": 0}, "rtk_raw": {"type": "rtk_frame", "version": 1, "lat": 38.941252445, "lon": -92.318909655, "alt": 236.794, "fix_quality": 4, "num_sats": 19, "hdop": 1.0, "speed_knots": 0.06, "track_deg": 286.25, "rtk_ts": 1777441997.6257238, "server_ts": 1777441998.160528, "source": "rtk"}}
{"type": "autonav_status", "version": 1, "state": "running", "current_wp_idx": 0, "total_wp": 7, "heading_deg": 103.246, "target_bearing_deg": 95.6, "bearing_error_deg": -7.6, "dist_to_wp_m": 5.29, "linear": 0.0, "angular": 0.152, "gps_age_s": 0.0, "gps_packet_age_s": 0.0, "gps_fix_quality": 4, "sensor_block_reason": null, "imu_age_s": 0.0, "speed_ratio": 1.0, "manual_speed": 0.4, "calib": {"mark": {"lat": 38.94125072166667, "lon": -92.318902375}, "offset_applied": 108.73791110065343}, "waypoints_window": [{"idx": 0, "lat": 38.94124777, "lon": -92.31884882, "current": true}, {"idx": 1, "lat": 38.9412436, "lon": -92.31878981, "current": false}, {"idx": 2, "lat": 38.94120606, "lon": -92.3187308, "current": false}, {"idx": 3, "lat": 38.94124047, "lon": -92.31867984, "current": false}, {"idx": 4, "lat": 38.94124047, "lon": -92.31856987, "current": false}, {"idx": 5, "lat": 38.94121959, "lon": -92.31852293, "current": false}, {"idx": 6, "lat": 38.94114243, "lon": -92.31852159, "current": false}], "waiting_at_wp": false, "waiting_wp_idx": null, "imu_raw": {"type": "imu_frame", "version": 1, "rot": {"qi": 0.01, "qj": 0.028, "qk": -0.457, "qr": 0.889}, "euler": {"roll": -0.45, "pitch": 3.38, "yaw": 54.31, "north_offset_deg": 108.7379}, "hz": 48.6, "heading": {"raw": 354.508, "deg": 103.246, "dir": "ESE"}, "ts": 4798339, "game_rot": {"qi": -0.006, "qj": 0.029, "qk": 0.048, "qr": 0.998}, "accel": {"x": -0.52, "y": -0.21, "z": 9.12}, "lin_accel": {"x": 0.05, "y": -0.14, "z": -0.77}, "gravity": {"x": -0.57, "y": -0.07, "z": 9.88}, "gyro": {"x": -0.004, "y": -0.01, "z": 0.01}, "mag": {"x": -15.9, "y": 6.6, "z": 10.4}, "steps": 0, "cal": 0}, "rtk_raw": {"type": "rtk_frame", "version": 1, "lat": 38.941252445, "lon": -92.318909655, "alt": 236.794, "fix_quality": 4, "num_sats": 19, "hdop": 1.0, "speed_knots": 0.06, "track_deg": 286.25, "rtk_ts": 1777441997.6257238, "server_ts": 1777441998.361404, "source": "rtk"}}
{"type": "autonav_status", "version": 1, "state": "running", "current_wp_idx": 0, "total_wp": 7, "heading_deg": 103.017, "target_bearing_deg": 95.6, "bearing_error_deg": -7.4, "dist_to_wp_m": 5.29, "linear": 0.0, "angular": 0.147, "gps_age_s": 0.0, "gps_packet_age_s": 0.0, "gps_fix_quality": 4, "sensor_block_reason": null, "imu_age_s": 0.01, "speed_ratio": 1.0, "manual_speed": 0.4, "calib": {"mark": {"lat": 38.94125072166667, "lon": -92.318902375}, "offset_applied": 108.73791110065343}, "waypoints_window": [{"idx": 0, "lat": 38.94124777, "lon": -92.31884882, "current": true}, {"idx": 1, "lat": 38.9412436, "lon": -92.31878981, "current": false}, {"idx": 2, "lat": 38.94120606, "lon": -92.3187308, "current": false}, {"idx": 3, "lat": 38.94124047, "lon": -92.31867984, "current": false}, {"idx": 4, "lat": 38.94124047, "lon": -92.31856987, "current": false}, {"idx": 5, "lat": 38.94121959, "lon": -92.31852293, "current": false}, {"idx": 6, "lat": 38.94114243, "lon": -92.31852159, "current": false}], "waiting_at_wp": false, "waiting_wp_idx": null, "imu_raw": {"type": "imu_frame", "version": 1, "rot": {"qi": 0.009, "qj": 0.028, "qk": -0.456, "qr": 0.89}, "euler": {"roll": -0.55, "pitch": 3.33, "yaw": 54.42, "north_offset_deg": 108.7379}, "hz": 48.3, "heading": {"raw": 354.279, "deg": 103.017, "dir": "ESE"}, "ts": 4798531, "game_rot": {"qi": -0.006, "qj": 0.029, "qk": 0.05, "qr": 0.998}, "accel": {"x": -0.48, "y": 0.17, "z": 10.91}, "lin_accel": {"x": 0.08, "y": 0.25, "z": 0.97}, "gravity": {"x": -0.56, "y": -0.09, "z": 9.95}, "gyro": {"x": -0.002, "y": 0.014, "z": 0.023}, "mag": {"x": -15.2, "y": 7.9, "z": 11.6}, "steps": 0, "cal": 0}, "rtk_raw": {"type": "rtk_frame", "version": 1, "lat": 38.941252445, "lon": -92.318909655, "alt": 236.794, "fix_quality": 4, "num_sats": 19, "hdop": 1.0, "speed_knots": 0.06, "track_deg": 286.25, "rtk_ts": 1777441997.6257238, "server_ts": 1777441998.562697, "source": "rtk"}}
{"type": "autonav_status", "version": 1, "state": "running", "current_wp_idx": 0, "total_wp": 7, "heading_deg": 102.787, "target_bearing_deg": 95.7, "bearing_error_deg": -7.1, "dist_to_wp_m": 5.28, "linear": 0.0, "angular": 0.141, "gps_age_s": 0.0, "gps_packet_age_s": 0.0, "gps_fix_quality": 4, "sensor_block_reason": null, "imu_age_s": 0.01, "speed_ratio": 1.0, "manual_speed": 0.4, "calib": {"mark": {"lat": 38.94125072166667, "lon": -92.318902375}, "offset_applied": 108.73791110065343}, "waypoints_window": [{"idx": 0, "lat": 38.94124777, "lon": -92.31884882, "current": true}, {"idx": 1, "lat": 38.9412436, "lon": -92.31878981, "current": false}, {"idx": 2, "lat": 38.94120606, "lon": -92.3187308, "current": false}, {"idx": 3, "lat": 38.94124047, "lon": -92.31867984, "current": false}, {"idx": 4, "lat": 38.94124047, "lon": -92.31856987, "current": false}, {"idx": 5, "lat": 38.94121959, "lon": -92.31852293, "current": false}, {"idx": 6, "lat": 38.94114243, "lon": -92.31852159, "current": false}], "waiting_at_wp": false, "waiting_wp_idx": null, "imu_raw": {"type": "imu_frame", "version": 1, "rot": {"qi": 0.009, "qj": 0.027, "qk": -0.454, "qr": 0.891}, "euler": {"roll": -0.49, "pitch": 3.23, "yaw": 54.69, "north_offset_deg": 108.7379}, "hz": 48.5, "heading": {"raw": 354.049, "deg": 102.787, "dir": "ESE"}, "ts": 4798732, "game_rot": {"qi": -0.006, "qj": 0.028, "qk": 0.052, "qr": 0.998}, "accel": {"x": -0.48, "y": 0.21, "z": 8.62}, "lin_accel": {"x": 0.0, "y": 0.28, "z": -1.29}, "gravity": {"x": -0.48, "y": -0.07, "z": 9.91}, "gyro": {"x": 0.004, "y": -0.002, "z": 0.033}, "mag": {"x": -16.0, "y": 5.2, "z": 11.4}, "steps": 0, "cal": 0}, "rtk_raw": {"type": "rtk_frame", "version": 1, "lat": 38.94125250333333, "lon": -92.31890947166667, "alt": 236.795, "fix_quality": 4, "num_sats": 19, "hdop": 1.0, "speed_knots": 0.03, "track_deg": 286.25, "rtk_ts": 1777441998.6170251, "server_ts": 1777441998.763977, "source": "rtk"}}
{"type": "autonav_status", "version": 1, "state": "running", "current_wp_idx": 0, "total_wp": 7, "heading_deg": 102.444, "target_bearing_deg": 95.7, "bearing_error_deg": -6.7, "dist_to_wp_m": 5.28, "linear": 0.0, "angular": 0.134, "gps_age_s": 0.0, "gps_packet_age_s": 0.0, "gps_fix_quality": 4, "sensor_block_reason": null, "imu_age_s": 0.0, "speed_ratio": 1.0, "manual_speed": 0.4, "calib": {"mark": {"lat": 38.94125072166667, "lon": -92.318902375}, "offset_applied": 108.73791110065343}, "waypoints_window": [{"idx": 0, "lat": 38.94124777, "lon": -92.31884882, "current": true}, {"idx": 1, "lat": 38.9412436, "lon": -92.31878981, "current": false}, {"idx": 2, "lat": 38.94120606, "lon": -92.3187308, "current": false}, {"idx": 3, "lat": 38.94124047, "lon": -92.31867984, "current": false}, {"idx": 4, "lat": 38.94124047, "lon": -92.31856987, "current": false}, {"idx": 5, "lat": 38.94121959, "lon": -92.31852293, "current": false}, {"idx": 6, "lat": 38.94114243, "lon": -92.31852159, "current": false}], "waiting_at_wp": false, "waiting_wp_idx": null, "imu_raw": {"type": "imu_frame", "version": 1, "rot": {"qi": 0.009, "qj": 0.027, "qk": -0.451, "qr": 0.892}, "euler": {"roll": -0.48, "pitch": 3.23, "yaw": 55.09, "north_offset_deg": 108.7379}, "hz": 48.4, "heading": {"raw": 353.706, "deg": 102.444, "dir": "ESE"}, "ts": 4798943, "game_rot": {"qi": -0.006, "qj": 0.028, "qk": 0.055, "qr": 0.998}, "accel": {"x": -0.71, "y": -0.06, "z": 9.35}, "lin_accel": {"x": -0.15, "y": 0.02, "z": -0.54}, "gravity": {"x": -0.56, "y": -0.09, "z": 9.88}, "gyro": {"x": -0.002, "y": -0.006, "z": 0.023}, "mag": {"x": -16.3, "y": 6.3, "z": 12.3}, "steps": 0, "cal": 0}, "rtk_raw": {"type": "rtk_frame", "version": 1, "lat": 38.94125250333333, "lon": -92.31890947166667, "alt": 236.795, "fix_quality": 4, "num_sats": 19, "hdop": 1.0, "speed_knots": 0.03, "track_deg": 286.25, "rtk_ts": 1777441998.6170251, "server_ts": 1777441998.964735, "source": "rtk"}}
{"type": "autonav_status", "version": 1, "state": "running", "current_wp_idx": 0, "total_wp": 7, "heading_deg": 102.214, "target_bearing_deg": 95.7, "bearing_error_deg": -6.5, "dist_to_wp_m": 5.28, "linear": 0.0, "angular": 0.13, "gps_age_s": 0.0, "gps_packet_age_s": 0.0, "gps_fix_quality": 4, "sensor_block_reason": null, "imu_age_s": 0.01, "speed_ratio": 1.0, "manual_speed": 0.4, "calib": {"mark": {"lat": 38.94125072166667, "lon": -92.318902375}, "offset_applied": 108.73791110065343}, "waypoints_window": [{"idx": 0, "lat": 38.94124777, "lon": -92.31884882, "current": true}, {"idx": 1, "lat": 38.9412436, "lon": -92.31878981, "current": false}, {"idx": 2, "lat": 38.94120606, "lon": -92.3187308, "current": false}, {"idx": 3, "lat": 38.94124047, "lon": -92.31867984, "current": false}, {"idx": 4, "lat": 38.94124047, "lon": -92.31856987, "current": false}, {"idx": 5, "lat": 38.94121959, "lon": -92.31852293, "current": false}, {"idx": 6, "lat": 38.94114243, "lon": -92.31852159, "current": false}], "waiting_at_wp": false, "waiting_wp_idx": null, "imu_raw": {"type": "imu_frame", "version": 1, "rot": {"qi": 0.009, "qj": 0.027, "qk": -0.449, "qr": 0.893}, "euler": {"roll": -0.47, "pitch": 3.23, "yaw": 55.34, "north_offset_deg": 108.7379}, "hz": 48.0, "heading": {"raw": 353.477, "deg": 102.214, "dir": "ESE"}, "ts": 4799132, "game_rot": {"qi": -0.006, "qj": 0.028, "qk": 0.057, "qr": 0.998}, "accel": {"x": -0.52, "y": -0.18, "z": 9.92}, "lin_accel": {"x": 0.08, "y": -0.09, "z": 0.05}, "gravity": {"x": -0.6, "y": -0.09, "z": 9.87}, "gyro": {"x": -0.008, "y": 0.0, "z": 0.02}, "mag": {"x": -15.9, "y": 6.8, "z": 12.8}, "steps": 0, "cal": 0}, "rtk_raw": {"type": "rtk_frame", "version": 1, "lat": 38.94125250333333, "lon": -92.31890947166667, "alt": 236.795, "fix_quality": 4, "num_sats": 19, "hdop": 1.0, "speed_knots": 0.03, "track_deg": 286.25, "rtk_ts": 1777441998.6170251, "server_ts": 1777441999.166036, "source": "rtk"}}
{"type": "autonav_status", "version": 1, "state": "running", "current_wp_idx": 0, "total_wp": 7, "heading_deg": 101.985, "target_bearing_deg": 95.7, "bearing_error_deg": -6.3, "dist_to_wp_m": 5.28, "linear": 0.0, "angular": 0.125, "gps_age_s": 0.2, "gps_packet_age_s": 0.2, "gps_fix_quality": 4, "sensor_block_reason": null, "imu_age_s": 0.0, "speed_ratio": 1.0, "manual_speed": 0.4, "calib": {"mark": {"lat": 38.94125072166667, "lon": -92.318902375}, "offset_applied": 108.73791110065343}, "waypoints_window": [{"idx": 0, "lat": 38.94124777, "lon": -92.31884882, "current": true}, {"idx": 1, "lat": 38.9412436, "lon": -92.31878981, "current": false}, {"idx": 2, "lat": 38.94120606, "lon": -92.3187308, "current": false}, {"idx": 3, "lat": 38.94124047, "lon": -92.31867984, "current": false}, {"idx": 4, "lat": 38.94124047, "lon": -92.31856987, "current": false}, {"idx": 5, "lat": 38.94121959, "lon": -92.31852293, "current": false}, {"idx": 6, "lat": 38.94114243, "lon": -92.31852159, "current": false}], "waiting_at_wp": false, "waiting_wp_idx": null, "imu_raw": {"type": "imu_frame", "version": 1, "rot": {"qi": 0.009, "qj": 0.027, "qk": -0.447, "qr": 0.894}, "euler": {"roll": -0.46, "pitch": 3.23, "yaw": 55.6, "north_offset_deg": 108.7379}, "hz": 47.7, "heading": {"raw": 353.248, "deg": 101.985, "dir": "ESE"}, "ts": 4799343, "game_rot": {"qi": -0.006, "qj": 0.028, "qk": 0.059, "qr": 0.998}, "accel": {"x": -0.94, "y": -0.14, "z": 10.3}, "lin_accel": {"x": -0.16, "y": 0.18, "z": -0.51}, "gravity": {"x": -0.55, "y": -0.09, "z": 9.84}, "gyro": {"x": -0.006, "y": 0.021, "z": 0.023}, "mag": {"x": -15.6, "y": 6.8, "z": 12.3}, "steps": 0, "cal": 0}, "rtk_raw": {"type": "rtk_frame", "version": 1, "lat": 38.94125250333333, "lon": -92.31890947166667, "alt": 236.795, "fix_quality": 4, "num_sats": 19, "hdop": 1.0, "speed_knots": 0.03, "track_deg": 286.25, "rtk_ts": 1777441998.6170251, "server_ts": 1777441999.166036, "source": "rtk"}}
{"type": "autonav_status", "version": 1, "state": "running", "current_wp_idx": 0, "total_wp": 7, "heading_deg": 101.756, "target_bearing_deg": 95.7, "bearing_error_deg": -6.0, "dist_to_wp_m": 5.28, "linear": 0.0, "angular": 0.121, "gps_age_s": 0.0, "gps_packet_age_s": 0.0, "gps_fix_quality": 4, "sensor_block_reason": null, "imu_age_s": 0.02, "speed_ratio": 1.0, "manual_speed": 0.4, "calib": {"mark": {"lat": 38.94125072166667, "lon": -92.318902375}, "offset_applied": 108.73791110065343}, "waypoints_window": [{"idx": 0, "lat": 38.94124777, "lon": -92.31884882, "current": true}, {"idx": 1, "lat": 38.9412436, "lon": -92.31878981, "current": false}, {"idx": 2, "lat": 38.94120606, "lon": -92.3187308, "current": false}, {"idx": 3, "lat": 38.94124047, "lon": -92.31867984, "current": false}, {"idx": 4, "lat": 38.94124047, "lon": -92.31856987, "current": false}, {"idx": 5, "lat": 38.94121959, "lon": -92.31852293, "current": false}, {"idx": 6, "lat": 38.94114243, "lon": -92.31852159, "current": false}], "waiting_at_wp": false, "waiting_wp_idx": null, "imu_raw": {"type": "imu_frame", "version": 1, "rot": {"qi": 0.009, "qj": 0.027, "qk": -0.445, "qr": 0.895}, "euler": {"roll": -0.45, "pitch": 3.23, "yaw": 55.86, "north_offset_deg": 108.7379}, "hz": 48.0, "heading": {"raw": 353.019, "deg": 101.756, "dir": "ESE"}, "ts": 4799533, "game_rot": {"qi": -0.006, "qj": 0.028, "qk": 0.061, "qr": 0.998}, "accel": {"x": -0.6, "y": -0.33, "z": 10.34}, "lin_accel": {"x": -0.15, "y": -0.02, "z": -0.34}, "gravity": {"x": -0.56, "y": -0.08, "z": 9.84}, "gyro": {"x": 0.002, "y": 0.0, "z": 0.02}, "mag": {"x": -17.1, "y": 5.2, "z": 12.6}, "steps": 0, "cal": 0}, "rtk_raw": {"type": "rtk_frame", "version": 1, "lat": 38.94125250333333, "lon": -92.31890947166667, "alt": 236.795, "fix_quality": 4, "num_sats": 19, "hdop": 1.0, "speed_knots": 0.03, "track_deg": 286.25, "rtk_ts": 1777441998.6170251, "server_ts": 1777441999.568707, "source": "rtk"}}
{"type": "autonav_status", "version": 1, "state": "running", "current_wp_idx": 0, "total_wp": 7, "heading_deg": 101.642, "target_bearing_deg": 95.8, "bearing_error_deg": -5.8, "dist_to_wp_m": 5.25, "linear": 0.0, "angular": 0.116, "gps_age_s": 0.0, "gps_packet_age_s": 0.0, "gps_fix_quality": 4, "sensor_block_reason": null, "imu_age_s": 0.02, "speed_ratio": 1.0, "manual_speed": 0.4, "calib": {"mark": {"lat": 38.94125072166667, "lon": -92.318902375}, "offset_applied": 108.73791110065343}, "waypoints_window": [{"idx": 0, "lat": 38.94124777, "lon": -92.31884882, "current": true}, {"idx": 1, "lat": 38.9412436, "lon": -92.31878981, "current": false}, {"idx": 2, "lat": 38.94120606, "lon": -92.3187308, "current": false}, {"idx": 3, "lat": 38.94124047, "lon": -92.31867984, "current": false}, {"idx": 4, "lat": 38.94124047, "lon": -92.31856987, "current": false}, {"idx": 5, "lat": 38.94121959, "lon": -92.31852293, "current": false}, {"idx": 6, "lat": 38.94114243, "lon": -92.31852159, "current": false}], "waiting_at_wp": false, "waiting_wp_idx": null, "imu_raw": {"type": "imu_frame", "version": 1, "rot": {"qi": 0.009, "qj": 0.027, "qk": -0.444, "qr": 0.896}, "euler": {"roll": -0.45, "pitch": 3.23, "yaw": 55.97, "north_offset_deg": 108.7379}, "hz": 47.9, "heading": {"raw": 352.904, "deg": 101.642, "dir": "ESE"}, "ts": 4799733, "game_rot": {"qi": -0.006, "qj": 0.028, "qk": 0.062, "qr": 0.998}, "accel": {"x": -0.52, "y": -0.14, "z": 8.96}, "lin_accel": {"x": -0.03, "y": -0.26, "z": 0.35}, "gravity": {"x": -0.57, "y": -0.07, "z": 9.85}, "gyro": {"x": 0.002, "y": -0.002, "z": 0.014}, "mag": {"x": -15.9, "y": 7.1, "z": 12.8}, "steps": 0, "cal": 0}, "rtk_raw": {"type": "rtk_frame", "version": 1, "lat": 38.94125256833333, "lon": -92.31890916666667, "alt": 236.809, "fix_quality": 4, "num_sats": 19, "hdop": 1.0, "speed_knots": 0.05, "track_deg": 286.25, "rtk_ts": 1777441999.632704, "server_ts": 1777441999.769972, "source": "rtk"}}
{"type": "autonav_status", "version": 1, "state": "running", "current_wp_idx": 0, "total_wp": 7, "heading_deg": 101.527, "target_bearing_deg": 95.8, "bearing_error_deg": -5.7, "dist_to_wp_m": 5.25, "linear": 0.0, "angular": 0.114, "gps_age_s": 0.0, "gps_packet_age_s": 0.0, "gps_fix_quality": 4, "sensor_block_reason": null, "imu_age_s": 0.01, "speed_ratio": 1.0, "manual_speed": 0.4, "calib": {"mark": {"lat": 38.94125072166667, "lon": -92.318902375}, "offset_applied": 108.73791110065343}, "waypoints_window": [{"idx": 0, "lat": 38.94124777, "lon": -92.31884882, "current": true}, {"idx": 1, "lat": 38.9412436, "lon": -92.31878981, "current": false}, {"idx": 2, "lat": 38.94120606, "lon": -92.3187308, "current": false}, {"idx": 3, "lat": 38.94124047, "lon": -92.31867984, "current": false}, {"idx": 4, "lat": 38.94124047, "lon": -92.31856987, "current": false}, {"idx": 5, "lat": 38.94121959, "lon": -92.31852293, "current": false}, {"idx": 6, "lat": 38.94114243, "lon": -92.31852159, "current": false}], "waiting_at_wp": false, "waiting_wp_idx": null, "imu_raw": {"type": "imu_frame", "version": 1, "rot": {"qi": 0.009, "qj": 0.027, "qk": -0.443, "qr": 0.896}, "euler": {"roll": -0.45, "pitch": 3.23, "yaw": 56.11, "north_offset_deg": 108.7379}, "hz": 48.3, "heading": {"raw": 352.79, "deg": 101.527, "dir": "ESE"}, "ts": 4799936, "game_rot": {"qi": -0.006, "qj": 0.028, "qk": 0.063, "qr": 0.998}, "accel": {"x": -0.1, "y": 0.13, "z": 9.73}, "lin_accel": {"x": 0.47, "y": 0.2, "z": -0.12}, "gravity": {"x": -0.57, "y": -0.07, "z": 9.85}, "gyro": {"x": 0.01, "y": -0.004, "z": 0.018}, "mag": {"x": -15.2, "y": 7.9, "z": 12.4}, "steps": 0, "cal": 0}, "rtk_raw": {"type": "rtk_frame", "version": 1, "lat": 38.94125256833333, "lon": -92.31890916666667, "alt": 236.809, "fix_quality": 4, "num_sats": 19, "hdop": 1.0, "speed_knots": 0.05, "track_deg": 286.25, "rtk_ts": 1777441999.632704, "server_ts": 1777441999.970635, "source": "rtk"}}
