{"type": "autonav_status", "version": 1, "state": "running", "current_wp_idx": 1, "total_wp": 7, "heading_deg": 93.669, "target_bearing_deg": 95.0, "bearing_error_deg": 1.3, "dist_to_wp_m": 4.37, "linear": 1.0, "angular": 0.0, "gps_age_s": 0.15, "gps_packet_age_s": 0.15, "gps_fix_quality": 4, "sensor_block_reason": null, "imu_age_s": 0.02, "speed_ratio": 1.0, "manual_speed": 0.4, "calib": {"mark": {"lat": 38.94125199, "lon": -92.3189048}, "offset_applied": 109.76716443329491}, "waypoints_window": [{"idx": 0, "lat": 38.94124777, "lon": -92.31884882, "current": false}, {"idx": 1, "lat": 38.9412436, "lon": -92.31878981, "current": true}, {"idx": 2, "lat": 38.94120606, "lon": -92.3187308, "current": false}, {"idx": 3, "lat": 38.94124047, "lon": -92.31867984, "current": false}, {"idx": 4, "lat": 38.94124047, "lon": -92.31856987, "current": false}, {"idx": 5, "lat": 38.94121959, "lon": -92.31852293, "current": false}, {"idx": 6, "lat": 38.94114243, "lon": -92.31852159, "current": false}], "waiting_at_wp": false, "waiting_wp_idx": null, "imu_raw": {"type": "imu_frame", "version": 1, "rot": {"qi": 0.008, "qj": 0.019, "qk": -0.375, "qr": 0.927}, "euler": {"roll": 0.03, "pitch": 2.36, "yaw": 65.7, "north_offset_deg": 109.7672}, "hz": 48.1, "heading": {"raw": 343.902, "deg": 93.669, "dir": "E"}, "ts": 4176495, "game_rot": {"qi": -0.003, "qj": 0.02, "qk": 0.14, "qr": 0.99}, "accel": {"x": -0.64, "y": 0.21, "z": 10.23}, "lin_accel": {"x": -0.79, "y": 0.18, "z": 0.35}, "gravity": {"x": 0.16, "y": 0.02, "z": 9.88}, "gyro": {"x": -0.004, "y": -0.012, "z": 0.002}, "mag": {"x": -13.9, "y": 9.0, "z": 16.5}, "steps": 0, "cal": 0}, "rtk_raw": {"type": "rtk_frame", "version": 1, "lat": 38.941247018333335, "lon": -92.318840055, "alt": 236.752, "fix_quality": 4, "num_sats": 19, "hdop": 1.0, "speed_knots": 0.02, "track_deg": 94.8, "rtk_ts": 1777441375.568934, "server_ts": 1777441376.336628, "source": "rtk"}}
{"type": "autonav_status", "version": 1, "state": "running", "current_wp_idx": 1, "total_wp": 7, "heading_deg": 93.67, "target_bearing_deg": 95.0, "bearing_error_deg": 1.3, "dist_to_wp_m": 4.37, "linear": 1.0, "angular": 0.0, "gps_age_s": 0.15, "gps_packet_age_s": 0.15, "gps_fix_quality": 4, "sensor_block_reason": null, "imu_age_s": 0.01, "speed_ratio": 1.0, "manual_speed": 0.4, "calib": {"mark": {"lat": 38.94125199, "lon": -92.3189048}, "offset_applied": 109.76716443329491}, "waypoints_window": [{"idx": 0, "lat": 38.94124777, "lon": -92.31884882, "current": false}, {"idx": 1, "lat": 38.9412436, "lon": -92.31878981, "current": true}, {"idx": 2, "lat": 38.94120606, "lon": -92.3187308, "current": false}, {"idx": 3, "lat": 38.94124047, "lon": -92.31867984, "current": false}, {"idx": 4, "lat": 38.94124047, "lon": -92.31856987, "current": false}, {"idx": 5, "lat": 38.94121959, "lon": -92.31852293, "current": false}, {"idx": 6, "lat": 38.94114243, "lon": -92.31852159, "current": false}], "waiting_at_wp": false, "waiting_wp_idx": null, "imu_raw": {"type": "imu_frame", "version": 1, "rot": {"qi": 0.007, "qj": 0.018, "qk": -0.375, "qr": 0.927}, "euler": {"roll": -0.03, "pitch": 2.21, "yaw": 65.7, "north_offset_deg": 109.7672}, "hz": 48.3, "heading": {"raw": 343.903, "deg": 93.67, "dir": "E"}, "ts": 4176701, "game_rot": {"qi": -0.003, "qj": 0.019, "qk": 0.14, "qr": 0.99}, "accel": {"x": -0.6, "y": 0.05, "z": 9.24}, "lin_accel": {"x": -0.71, "y": 0.03, "z": -0.63}, "gravity": {"x": 0.11, "y": 0.02, "z": 9.87}, "gyro": {"x": -0.002, "y": 0.021, "z": -0.004}, "mag": {"x": -13.9, "y": 9.0, "z": 16.1}, "steps": 0, "cal": 0}, "rtk_raw": {"type": "rtk_frame", "version": 1, "lat": 38.941247018333335, "lon": -92.318840055, "alt": 236.752, "fix_quality": 4, "num_sats": 19, "hdop": 1.0, "speed_knots": 0.02, "track_deg": 94.8, "rtk_ts": 1777441375.568934, "server_ts": 1777441376.536811, "source": "rtk"}}
{"type": "autonav_status", "version": 1, "state": "running", "current_wp_idx": 1, "total_wp": 7, "heading_deg": 93.669, "target_bearing_deg": 95.1, "bearing_error_deg": 1.4, "dist_to_wp_m": 3.96, "linear": 1.0, "angular": 0.0, "gps_age_s": 0.15, "gps_packet_age_s": 0.15, "gps_fix_quality": 4, "sensor_block_reason": null, "imu_age_s": 0.0, "speed_ratio": 1.0, "manual_speed": 0.4, "calib": {"mark": {"lat": 38.94125199, "lon": -92.3189048}, "offset_applied": 109.76716443329491}, "waypoints_window": [{"idx": 0, "lat": 38.94124777, "lon": -92.31884882, "current": false}, {"idx": 1, "lat": 38.9412436, "lon": -92.31878981, "current": true}, {"idx": 2, "lat": 38.94120606, "lon": -92.3187308, "current": false}, {"idx": 3, "lat": 38.94124047, "lon": -92.31867984, "current": false}, {"idx": 4, "lat": 38.94124047, "lon": -92.31856987, "current": false}, {"idx": 5, "lat": 38.94121959, "lon": -92.31852293, "current": false}, {"idx": 6, "lat": 38.94114243, "lon": -92.31852159, "current": false}], "waiting_at_wp": false, "waiting_wp_idx": null, "imu_raw": {"type": "imu_frame", "version": 1, "rot": {"qi": 0.002, "qj": 0.004, "qk": -0.375, "qr": 0.927}, "euler": {"roll": 0.04, "pitch": 0.51, "yaw": 65.72, "north_offset_deg": 109.7672}, "hz": 47.9, "heading": {"raw": 343.902, "deg": 93.669, "dir": "E"}, "ts": 4176910, "game_rot": {"qi": -0.0, "qj": 0.004, "qk": 0.14, "qr": 0.99}, "accel": {"x": -0.79, "y": 0.05, "z": 10.46}, "lin_accel": {"x": -0.84, "y": 0.03, "z": 0.6}, "gravity": {"x": 0.05, "y": 0.02, "z": 9.86}, "gyro": {"x": -0.014, "y": -0.018, "z": -0.006}, "mag": {"x": -14.6, "y": 7.8, "z": 15.6}, "steps": 0, "cal": 0}, "rtk_raw": {"type": "rtk_frame", "version": 1, "lat": 38.94124673666666, "lon": -92.318835415, "alt": 236.753, "fix_quality": 4, "num_sats": 19, "hdop": 1.0, "speed_knots": 1.02, "track_deg": 97.54, "rtk_ts": 1777441376.565449, "server_ts": 1777441376.7380211, "source": "rtk"}}
{"type": "autonav_status", "version": 1, "state": "running", "current_wp_idx": 1, "total_wp": 7, "heading_deg": 93.669, "target_bearing_deg": 95.1, "bearing_error_deg": 1.4, "dist_to_wp_m": 3.96, "linear": 1.0, "angular": 0.0, "gps_age_s": 0.15, "gps_packet_age_s": 0.15, "gps_fix_quality": 4, "sensor_block_reason": null, "imu_age_s": 0.02, "speed_ratio": 1.0, "manual_speed": 0.4, "calib": {"mark": {"lat": 38.94125199, "lon": -92.3189048}, "offset_applied": 109.76716443329491}, "waypoints_window": [{"idx": 0, "lat": 38.94124777, "lon": -92.31884882, "current": false}, {"idx": 1, "lat": 38.9412436, "lon": -92.31878981, "current": true}, {"idx": 2, "lat": 38.94120606, "lon": -92.3187308, "current": false}, {"idx": 3, "lat": 38.94124047, "lon": -92.31867984, "current": false}, {"idx": 4, "lat": 38.94124047, "lon": -92.31856987, "current": false}, {"idx": 5, "lat": 38.94121959, "lon": -92.31852293, "current": false}, {"idx": 6, "lat": 38.94114243, "lon": -92.31852159, "current": false}], "waiting_at_wp": false, "waiting_wp_idx": null, "imu_raw": {"type": "imu_frame", "version": 1, "rot": {"qi": 0.002, "qj": 0.004, "qk": -0.374, "qr": 0.927}, "euler": {"roll": 0.04, "pitch": 0.51, "yaw": 65.85, "north_offset_deg": 109.7672}, "hz": 47.6, "heading": {"raw": 343.902, "deg": 93.669, "dir": "E"}, "ts": 4177100, "game_rot": {"qi": -0.001, "qj": 0.004, "qk": 0.14, "qr": 0.99}, "accel": {"x": -0.64, "y": 0.09, "z": 9.58}, "lin_accel": {"x": -0.68, "y": -0.12, "z": 0.38}, "gravity": {"x": 0.01, "y": 0.02, "z": 9.85}, "gyro": {"x": 0.012, "y": 0.014, "z": 0.012}, "mag": {"x": -13.2, "y": 8.6, "z": 15.7}, "steps": 0, "cal": 0}, "rtk_raw": {"type": "rtk_frame", "version": 1, "lat": 38.94124673666666, "lon": -92.318835415, "alt": 236.753, "fix_quality": 4, "num_sats": 19, "hdop": 1.0, "speed_knots": 1.02, "track_deg": 97.54, "rtk_ts": 1777441376.565449, "server_ts": 1777441376.9392908, "source": "rtk"}}
{"type": "autonav_status", "version": 1, "state": "running", "current_wp_idx": 1, "total_wp": 7, "heading_deg": 93.669, "target_bearing_deg": 95.1, "bearing_error_deg": 1.4, "dist_to_wp_m": 3.96, "linear": 1.0, "angular": 0.0, "gps_age_s": 0.15, "gps_packet_age_s": 0.15, "gps_fix_quality": 4, "sensor_block_reason": null, "imu_age_s": 0.01, "speed_ratio": 1.0, "manual_speed": 0.4, "calib": {"mark": {"lat": 38.94125199, "lon": -92.3189048}, "offset_applied": 109.76716443329491}, "waypoints_window": [{"idx": 0, "lat": 38.94124777, "lon": -92.31884882, "current": false}, {"idx": 1, "lat": 38.9412436, "lon": -92.31878981, "current": true}, {"idx": 2, "lat": 38.94120606, "lon": -92.3187308, "current": false}, {"idx": 3, "lat": 38.94124047, "lon": -92.31867984, "current": false}, {"idx": 4, "lat": 38.94124047, "lon": -92.31856987, "current": false}, {"idx": 5, "lat": 38.94121959, "lon": -92.31852293, "current": false}, {"idx": 6, "lat": 38.94114243, "lon": -92.31852159, "current": false}], "waiting_at_wp": false, "waiting_wp_idx": null, "imu_raw": {"type": "imu_frame", "version": 1, "rot": {"qi": 0.002, "qj": 0.004, "qk": -0.374, "qr": 0.927}, "euler": {"roll": 0.04, "pitch": 0.51, "yaw": 65.85, "north_offset_deg": 109.7672}, "hz": 47.8, "heading": {"raw": 343.902, "deg": 93.669, "dir": "E"}, "ts": 4177306, "game_rot": {"qi": 0.0, "qj": 0.004, "qk": 0.14, "qr": 0.99}, "accel": {"x": -0.56, "y": 0.09, "z": 10.69}, "lin_accel": {"x": -0.5, "y": 0.07, "z": 0.83}, "gravity": {"x": -0.06, "y": 0.02, "z": 9.86}, "gyro": {"x": -0.002, "y": -0.01, "z": 0.008}, "mag": {"x": -13.6, "y": 7.8, "z": 15.2}, "steps": 0, "cal": 0}, "rtk_raw": {"type": "rtk_frame", "version": 1, "lat": 38.94124673666666, "lon": -92.318835415, "alt": 236.753, "fix_quality": 4, "num_sats": 19, "hdop": 1.0, "speed_knots": 1.02, "track_deg": 97.54, "rtk_ts": 1777441376.565449, "server_ts": 1777441377.1405618, "source": "rtk"}}
{"type": "autonav_status", "version": 1, "state": "running", "current_wp_idx": 1, "total_wp": 7, "heading_deg": 93.669, "target_bearing_deg": 95.1, "bearing_error_deg": 1.4, "dist_to_wp_m": 3.96, "linear": 1.0, "angular": 0.0, "gps_age_s": 0.15, "gps_packet_age_s": 0.15, "gps_fix_quality": 4, "sensor_block_reason": null, "imu_age_s": 0.01, "speed_ratio": 1.0, "manual_speed": 0.4, "calib": {"mark": {"lat": 38.94125199, "lon": -92.3189048}, "offset_applied": 109.76716443329491}, "waypoints_window": [{"idx": 0, "lat": 38.94124777, "lon": -92.31884882, "current": false}, {"idx": 1, "lat": 38.9412436, "lon": -92.31878981, "current": true}, {"idx": 2, "lat": 38.94120606, "lon": -92.3187308, "current": false}, {"idx": 3, "lat": 38.94124047, "lon": -92.31867984, "current": false}, {"idx": 4, "lat": 38.94124047, "lon": -92.31856987, "current": false}, {"idx": 5, "lat": 38.94121959, "lon": -92.31852293, "current": false}, {"idx": 6, "lat": 38.94114243, "lon": -92.31852159, "current": false}], "waiting_at_wp": false, "waiting_wp_idx": null, "imu_raw": {"type": "imu_frame", "version": 1, "rot": {"qi": 0.002, "qj": 0.003, "qk": -0.374, "qr": 0.927}, "euler": {"roll": 0.08, "pitch": 0.4, "yaw": 65.86, "north_offset_deg": 109.7672}, "hz": 48.4, "heading": {"raw": 343.902, "deg": 93.669, "dir": "E"}, "ts": 4177509, "game_rot": {"qi": -0.0, "qj": 0.004, "qk": 0.14, "qr": 0.99}, "accel": {"x": -0.64, "y": -0.18, "z": 9.77}, "lin_accel": {"x": -0.53, "y": -0.19, "z": -0.08}, "gravity": {"x": -0.11, "y": 0.02, "z": 9.85}, "gyro": {"x": 0.006, "y": 0.006, "z": -0.008}, "mag": {"x": -13.7, "y": 7.1, "z": 15.6}, "steps": 0, "cal": 0}, "rtk_raw": {"type": "rtk_frame", "version": 1, "lat": 38.94124673666666, "lon": -92.318835415, "alt": 236.753, "fix_quality": 4, "num_sats": 19, "hdop": 1.0, "speed_knots": 1.02, "track_deg": 97.54, "rtk_ts": 1777441376.565449, "server_ts": 1777441377.34197, "source": "rtk"}}
{"type": "autonav_status", "version": 1, "state": "running", "current_wp_idx": 1, "total_wp": 7, "heading_deg": 93.555, "target_bearing_deg": 95.1, "bearing_error_deg": 1.5, "dist_to_wp_m": 3.96, "linear": 1.0, "angular": 0.0, "gps_age_s": 0.15, "gps_packet_age_s": 0.15, "gps_fix_quality": 4, "sensor_block_reason": null, "imu_age_s": 0.0, "speed_ratio": 1.0, "manual_speed": 0.4, "calib": {"mark": {"lat": 38.94125199, "lon": -92.3189048}, "offset_applied": 109.76716443329491}, "waypoints_window": [{"idx": 0, "lat": 38.94124777, "lon": -92.31884882, "current": false}, {"idx": 1, "lat": 38.9412436, "lon": -92.31878981, "current": true}, {"idx": 2, "lat": 38.94120606, "lon": -92.3187308, "current": false}, {"idx": 3, "lat": 38.94124047, "lon": -92.31867984, "current": false}, {"idx": 4, "lat": 38.94124047, "lon": -92.31856987, "current": false}, {"idx": 5, "lat": 38.94121959, "lon": -92.31852293, "current": false}, {"idx": 6, "lat": 38.94114243, "lon": -92.31852159, "current": false}], "waiting_at_wp": false, "waiting_wp_idx": null, "imu_raw": {"type": "imu_frame", "version": 1, "rot": {"qi": 0.002, "qj": 0.004, "qk": -0.374, "qr": 0.927}, "euler": {"roll": 0.04, "pitch": 0.51, "yaw": 65.85, "north_offset_deg": 109.7672}, "hz": 48.2, "heading": {"raw": 343.788, "deg": 93.555, "dir": "E"}, "ts": 4177719, "game_rot": {"qi": -0.0, "qj": 0.004, "qk": 0.141, "qr": 0.99}, "accel": {"x": -0.68, "y": -0.25, "z": 10.0}, "lin_accel": {"x": -0.51, "y": 0.01, "z": -0.07}, "gravity": {"x": -0.17, "y": 0.01, "z": 9.85}, "gyro": {"x": -0.016, "y": -0.012, "z": -0.002}, "mag": {"x": -13.2, "y": 9.4, "z": 15.8}, "steps": 0, "cal": 0}, "rtk_raw": {"type": "rtk_frame", "version": 1, "lat": 38.94124673666666, "lon": -92.318835415, "alt": 236.753, "fix_quality": 4, "num_sats": 19, "hdop": 1.0, "speed_knots": 1.02, "track_deg": 97.54, "rtk_ts": 1777441376.565449, "server_ts": 1777441377.542836, "source": "rtk"}}
{"type": "autonav_status", "version": 1, "state": "running", "current_wp_idx": 1, "total_wp": 7, "heading_deg": 93.556, "target_bearing_deg": 95.4, "bearing_error_deg": 1.8, "dist_to_wp_m": 3.47, "linear": 1.0, "angular": 0.0, "gps_age_s": 0.15, "gps_packet_age_s": 0.15, "gps_fix_quality": 4, "sensor_block_reason": null, "imu_age_s": 0.02, "speed_ratio": 1.0, "manual_speed": 0.4, "calib": {"mark": {"lat": 38.94125199, "lon": -92.3189048}, "offset_applied": 109.76716443329491}, "waypoints_window": [{"idx": 0, "lat": 38.94124777, "lon": -92.31884882, "current": false}, {"idx": 1, "lat": 38.9412436, "lon": -92.31878981, "current": true}, {"idx": 2, "lat": 38.94120606, "lon": -92.3187308, "current": false}, {"idx": 3, "lat": 38.94124047, "lon": -92.31867984, "current": false}, {"idx": 4, "lat": 38.94124047, "lon": -92.31856987, "current": false}, {"idx": 5, "lat": 38.94121959, "lon": -92.31852293, "current": false}, {"idx": 6, "lat": 38.94114243, "lon": -92.31852159, "current": false}], "waiting_at_wp": false, "waiting_wp_idx": null, "imu_raw": {"type": "imu_frame", "version": 1, "rot": {"qi": 0.002, "qj": 0.004, "qk": -0.374, "qr": 0.927}, "euler": {"roll": 0.04, "pitch": 0.51, "yaw": 65.85, "north_offset_deg": 109.7672}, "hz": 48.5, "heading": {"raw": 343.789, "deg": 93.556, "dir": "E"}, "ts": 4177901, "game_rot": {"qi": -0.001, "qj": 0.004, "qk": 0.141, "qr": 0.99}, "accel": {"x": -0.52, "y": -0.1, "z": 9.43}, "lin_accel": {"x": -0.3, "y": -0.09, "z": -0.43}, "gravity": {"x": -0.22, "y": -0.01, "z": 9.85}, "gyro": {"x": -0.021, "y": -0.033, "z": -0.004}, "mag": {"x": -14.0, "y": 7.1, "z": 16.4}, "steps": 0, "cal": 0}, "rtk_raw": {"type": "rtk_frame", "version": 1, "lat": 38.94124651166667, "lon": -92.318829765, "alt": 236.745, "fix_quality": 4, "num_sats": 19, "hdop": 1.0, "speed_knots": 0.91, "track_deg": 97.54, "rtk_ts": 1777441377.557049, "server_ts": 1777441377.743477, "source": "rtk"}}
{"type": "autonav_status", "version": 1, "state": "running", "current_wp_idx": 1, "total_wp": 7, "heading_deg": 93.556, "target_bearing_deg": 95.4, "bearing_error_deg": 1.8, "dist_to_wp_m": 3.47, "linear": 1.0, "angular": 0.0, "gps_age_s": 0.15, "gps_packet_age_s": 0.15, "gps_fix_quality": 4, "sensor_block_reason": null, "imu_age_s": 0.02, "speed_ratio": 1.0, "manual_speed": 0.4, "calib": {"mark": {"lat": 38.94125199, "lon": -92.3189048}, "offset_applied": 109.76716443329491}, "waypoints_window": [{"idx": 0, "lat": 38.94124777, "lon": -92.31884882, "current": false}, {"idx": 1, "lat": 38.9412436, "lon": -92.31878981, "current": true}, {"idx": 2, "lat": 38.94120606, "lon": -92.3187308, "current": false}, {"idx": 3, "lat": 38.94124047, "lon": -92.31867984, "current": false}, {"idx": 4, "lat": 38.94124047, "lon": -92.31856987, "current": false}, {"idx": 5, "lat": 38.94121959, "lon": -92.31852293, "current": false}, {"idx": 6, "lat": 38.94114243, "lon": -92.31852159, "current": false}], "waiting_at_wp": false, "waiting_wp_idx": null, "imu_raw": {"type": "imu_frame", "version": 1, "rot": {"qi": 0.001, "qj": 0.005, "qk": -0.374, "qr": 0.928}, "euler": {"roll": -0.11, "pitch": 0.57, "yaw": 65.82, "north_offset_deg": 109.7672}, "hz": 48.9, "heading": {"raw": 343.789, "deg": 93.556, "dir": "E"}, "ts": 4178103, "game_rot": {"qi": -0.001, "qj": 0.005, "qk": 0.141, "qr": 0.99}, "accel": {"x": -0.52, "y": -0.06, "z": 9.12}, "lin_accel": {"x": -0.26, "y": -0.04, "z": -0.73}, "gravity": {"x": -0.27, "y": -0.02, "z": 9.85}, "gyro": {"x": 0.012, "y": 0.01, "z": 0.014}, "mag": {"x": -13.6, "y": 7.9, "z": 16.4}, "steps": 0, "cal": 0}, "rtk_raw": {"type": "rtk_frame", "version": 1, "lat": 38.94124651166667, "lon": -92.318829765, "alt": 236.745, "fix_quality": 4, "num_sats": 19, "hdop": 1.0, "speed_knots": 0.91, "track_deg": 97.54, "rtk_ts": 1777441377.557049, "server_ts": 1777441377.944818, "source": "rtk"}}
{"type": "autonav_status", "version": 1, "state": "running", "current_wp_idx": 1, "total_wp": 7, "heading_deg": 93.556, "target_bearing_deg": 95.4, "bearing_error_deg": 1.8, "dist_to_wp_m": 3.47, "linear": 1.0, "angular": 0.0, "gps_age_s": 0.15, "gps_packet_age_s": 0.15, "gps_fix_quality": 4, "sensor_block_reason": null, "imu_age_s": 0.01, "speed_ratio": 1.0, "manual_speed": 0.4, "calib": {"mark": {"lat": 38.94125199, "lon": -92.3189048}, "offset_applied": 109.76716443329491}, "waypoints_window": [{"idx": 0, "lat": 38.94124777, "lon": -92.31884882, "current": false}, {"idx": 1, "lat": 38.9412436, "lon": -92.31878981, "current": true}, {"idx": 2, "lat": 38.94120606, "lon": -92.3187308, "current": false}, {"idx": 3, "lat": 38.94124047, "lon": -92.31867984, "current": false}, {"idx": 4, "lat": 38.94124047, "lon": -92.31856987, "current": false}, {"idx": 5, "lat": 38.94121959, "lon": -92.31852293, "current": false}, {"idx": 6, "lat": 38.94114243, "lon": -92.31852159, "current": false}], "waiting_at_wp": false, "waiting_wp_idx": null, "imu_raw": {"type": "imu_frame", "version": 1, "rot": {"qi": 0.003, "qj": 0.007, "qk": -0.373, "qr": 0.928}, "euler": {"roll": 0.02, "pitch": 0.87, "yaw": 65.96, "north_offset_deg": 109.7672}, "hz": 48.7, "heading": {"raw": 343.788, "deg": 93.556, "dir": "E"}, "ts": 4178312, "game_rot": {"qi": -0.001, "qj": 0.007, "qk": 0.141, "qr": 0.99}, "accel": {"x": -0.68, "y": -0.06, "z": 9.88}, "lin_accel": {"x": -0.35, "y": -0.05, "z": 0.03}, "gravity": {"x": -0.33, "y": -0.01, "z": 9.85}, "gyro": {"x": 0.002, "y": 0.012, "z": 0.006}, "mag": {"x": -14.0, "y": 7.5, "z": 17.6}, "steps": 0, "cal": 0}, "rtk_raw": {"type": "rtk_frame", "version": 1, "lat": 38.94124651166667, "lon": -92.318829765, "alt": 236.745, "fix_quality": 4, "num_sats": 19, "hdop": 1.0, "speed_knots": 0.91, "track_deg": 97.54, "rtk_ts": 1777441377.557049, "server_ts": 1777441378.146048, "source": "rtk"}}
{"type": "autonav_status", "version": 1, "state": "running", "current_wp_idx": 1, "total_wp": 7, "heading_deg": 93.442, "target_bearing_deg": 95.4, "bearing_error_deg": 1.9, "dist_to_wp_m": 3.47, "linear": 1.0, "angular": 0.0, "gps_age_s": 0.15, "gps_packet_age_s": 0.15, "gps_fix_quality": 4, "sensor_block_reason": null, "imu_age_s": 0.01, "speed_ratio": 1.0, "manual_speed": 0.4, "calib": {"mark": {"lat": 38.94125199, "lon": -92.3189048}, "offset_applied": 109.76716443329491}, "waypoints_window": [{"idx": 0, "lat": 38.94124777, "lon": -92.31884882, "current": false}, {"idx": 1, "lat": 38.9412436, "lon": -92.31878981, "current": true}, {"idx": 2, "lat": 38.94120606, "lon": -92.3187308, "current": false}, {"idx": 3, "lat": 38.94124047, "lon": -92.31867984, "current": false}, {"idx": 4, "lat": 38.94124047, "lon": -92.31856987, "current": false}, {"idx": 5, "lat": 38.94121959, "lon": -92.31852293, "current": false}, {"idx": 6, "lat": 38.94114243, "lon": -92.31852159, "current": false}], "waiting_at_wp": false, "waiting_wp_idx": null, "imu_raw": {"type": "imu_frame", "version": 1, "rot": {"qi": 0.004, "qj": 0.009, "qk": -0.373, "qr": 0.928}, "euler": {"roll": 0.04, "pitch": 1.13, "yaw": 65.96, "north_offset_deg": 109.7672}, "hz": 48.8, "heading": {"raw": 343.674, "deg": 93.442, "dir": "E"}, "ts": 4178513, "game_rot": {"qi": -0.001, "qj": 0.01, "qk": 0.142, "qr": 0.99}, "accel": {"x": -0.6, "y": -0.02, "z": 10.54}, "lin_accel": {"x": -0.39, "y": -0.14, "z": 0.11}, "gravity": {"x": -0.36, "y": 0.0, "z": 9.85}, "gyro": {"x": 0.018, "y": 0.021, "z": -0.002}, "mag": {"x": -13.9, "y": 8.6, "z": 16.9}, "steps": 0, "cal": 0}, "rtk_raw": {"type": "rtk_frame", "version": 1, "lat": 38.94124651166667, "lon": -92.318829765, "alt": 236.745, "fix_quality": 4, "num_sats": 19, "hdop": 1.0, "speed_knots": 0.91, "track_deg": 97.54, "rtk_ts": 1777441377.557049, "server_ts": 1777441378.347339, "source": "rtk"}}
{"type": "autonav_status", "version": 1, "state": "running", "current_wp_idx": 1, "total_wp": 7, "heading_deg": 93.442, "target_bearing_deg": 95.4, "bearing_error_deg": 1.9, "dist_to_wp_m": 3.47, "linear": 1.0, "angular": 0.0, "gps_age_s": 0.15, "gps_packet_age_s": 0.15, "gps_fix_quality": 4, "sensor_block_reason": null, "imu_age_s": 0.01, "speed_ratio": 1.0, "manual_speed": 0.4, "calib": {"mark": {"lat": 38.94125199, "lon": -92.3189048}, "offset_applied": 109.76716443329491}, "waypoints_window": [{"idx": 0, "lat": 38.94124777, "lon": -92.31884882, "current": false}, {"idx": 1, "lat": 38.9412436, "lon": -92.31878981, "current": true}, {"idx": 2, "lat": 38.94120606, "lon": -92.3187308, "current": false}, {"idx": 3, "lat": 38.94124047, "lon": -92.31867984, "current": false}, {"idx": 4, "lat": 38.94124047, "lon": -92.31856987, "current": false}, {"idx": 5, "lat": 38.94121959, "lon": -92.31852293, "current": false}, {"idx": 6, "lat": 38.94114243, "lon": -92.31852159, "current": false}], "waiting_at_wp": false, "waiting_wp_idx": null, "imu_raw": {"type": "imu_frame", "version": 1, "rot": {"qi": 0.004, "qj": 0.012, "qk": -0.373, "qr": 0.928}, "euler": {"roll": -0.09, "pitch": 1.45, "yaw": 65.95, "north_offset_deg": 109.7672}, "hz": 48.8, "heading": {"raw": 343.675, "deg": 93.442, "dir": "E"}, "ts": 4178721, "game_rot": {"qi": -0.002, "qj": 0.013, "qk": 0.142, "qr": 0.99}, "accel": {"x": -0.71, "y": -0.33, "z": 10.46}, "lin_accel": {"x": -0.31, "y": -0.31, "z": 0.61}, "gravity": {"x": -0.41, "y": -0.02, "z": 9.85}, "gyro": {"x": -0.018, "y": -0.014, "z": -0.002}, "mag": {"x": -13.9, "y": 8.8, "z": 18.9}, "steps": 0, "cal": 0}, "rtk_raw": {"type": "rtk_frame", "version": 1, "lat": 38.94124651166667, "lon": -92.318829765, "alt": 236.745, "fix_quality": 4, "num_sats": 19, "hdop": 1.0, "speed_knots": 0.91, "track_deg": 97.54, "rtk_ts": 1777441377.557049, "server_ts": 1777441378.547984, "source": "rtk"}}
{"type": "autonav_status", "version": 1, "state": "running", "current_wp_idx": 1, "total_wp": 7, "heading_deg": 93.442, "target_bearing_deg": 95.6, "bearing_error_deg": 2.2, "dist_to_wp_m": 2.99, "linear": 1.0, "angular": 0.0, "gps_age_s": 0.15, "gps_packet_age_s": 0.15, "gps_fix_quality": 4, "sensor_block_reason": null, "imu_age_s": 0.02, "speed_ratio": 1.0, "manual_speed": 0.4, "calib": {"mark": {"lat": 38.94125199, "lon": -92.3189048}, "offset_applied": 109.76716443329491}, "waypoints_window": [{"idx": 0, "lat": 38.94124777, "lon": -92.31884882, "current": false}, {"idx": 1, "lat": 38.9412436, "lon": -92.31878981, "current": true}, {"idx": 2, "lat": 38.94120606, "lon": -92.3187308, "current": false}, {"idx": 3, "lat": 38.94124047, "lon": -92.31867984, "current": false}, {"idx": 4, "lat": 38.94124047, "lon": -92.31856987, "current": false}, {"idx": 5, "lat": 38.94121959, "lon": -92.31852293, "current": false}, {"idx": 6, "lat": 38.94114243, "lon": -92.31852159, "current": false}], "waiting_at_wp": false, "waiting_wp_idx": null, "imu_raw": {"type": "imu_frame", "version": 1, "rot": {"qi": 0.005, "qj": 0.013, "qk": -0.372, "qr": 0.928}, "euler": {"roll": -0.02, "pitch": 1.6, "yaw": 66.09, "north_offset_deg": 109.7672}, "hz": 48.5, "heading": {"raw": 343.675, "deg": 93.442, "dir": "E"}, "ts": 4178910, "game_rot": {"qi": -0.002, "qj": 0.013, "qk": 0.142, "qr": 0.99}, "accel": {"x": -0.52, "y": 0.13, "z": 8.62}, "lin_accel": {"x": -0.1, "y": 0.14, "z": -1.23}, "gravity": {"x": -0.42, "y": -0.02, "z": 9.85}, "gyro": {"x": 0.004, "y": -0.018, "z": 0.0}, "mag": {"x": -13.3, "y": 7.9, "z": 16.8}, "steps": 0, "cal": 0}, "rtk_raw": {"type": "rtk_frame", "version": 1, "lat": 38.94124623333333, "lon": -92.318824125, "alt": 236.732, "fix_quality": 4, "num_sats": 19, "hdop": 1.0, "speed_knots": 0.88, "track_deg": 91.63, "rtk_ts": 1777441378.553004, "server_ts": 1777441378.7492402, "source": "rtk"}}
{"type": "autonav_status", "version": 1, "state": "running", "current_wp_idx": 1, "total_wp": 7, "heading_deg": 93.442, "target_bearing_deg": 95.6, "bearing_error_deg": 2.2, "dist_to_wp_m": 2.99, "linear": 1.0, "angular": 0.0, "gps_age_s": 0.15, "gps_packet_age_s": 0.15, "gps_fix_quality": 4, "sensor_block_reason": null, "imu_age_s": 0.02, "speed_ratio": 1.0, "manual_speed": 0.4, "calib": {"mark": {"lat": 38.94125199, "lon": -92.3189048}, "offset_applied": 109.76716443329491}, "waypoints_window": [{"idx": 0, "lat": 38.94124777, "lon": -92.31884882, "current": false}, {"idx": 1, "lat": 38.9412436, "lon": -92.31878981, "current": true}, {"idx": 2, "lat": 38.94120606, "lon": -92.3187308, "current": false}, {"idx": 3, "lat": 38.94124047, "lon": -92.31867984, "current": false}, {"idx": 4, "lat": 38.94124047, "lon": -92.31856987, "current": false}, {"idx": 5, "lat": 38.94121959, "lon": -92.31852293, "current": false}, {"idx": 6, "lat": 38.94114243, "lon": -92.31852159, "current": false}], "waiting_at_wp": false, "waiting_wp_idx": null, "imu_raw": {"type": "imu_frame", "version": 1, "rot": {"qi": 0.006, "qj": 0.013, "qk": -0.372, "qr": 0.928}, "euler": {"roll": 0.08, "pitch": 1.64, "yaw": 66.09, "north_offset_deg": 109.7672}, "hz": 48.6, "heading": {"raw": 343.675, "deg": 93.442, "dir": "E"}, "ts": 4179113, "game_rot": {"qi": -0.002, "qj": 0.014, "qk": 0.142, "qr": 0.99}, "accel": {"x": -0.68, "y": 0.25, "z": 9.92}, "lin_accel": {"x": -0.14, "y": 0.1, "z": -0.85}, "gravity": {"x": -0.45, "y": -0.01, "z": 9.85}, "gyro": {"x": -0.012, "y": 0.01, "z": 0.002}, "mag": {"x": -13.7, "y": 7.1, "z": 17.6}, "steps": 0, "cal": 0}, "rtk_raw": {"type": "rtk_frame", "version": 1, "lat": 38.94124623333333, "lon": -92.318824125, "alt": 236.732, "fix_quality": 4, "num_sats": 19, "hdop": 1.0, "speed_knots": 0.88, "track_deg": 91.63, "rtk_ts": 1777441378.553004, "server_ts": 1777441378.950519, "source": "rtk"}}
{"type": "autonav_status", "version": 1, "state": "running", "current_wp_idx": 1, "total_wp": 7, "heading_deg": 93.444, "target_bearing_deg": 95.6, "bearing_error_deg": 2.2, "dist_to_wp_m": 2.99, "linear": 1.0, "angular": 0.0, "gps_age_s": 0.15, "gps_packet_age_s": 0.15, "gps_fix_quality": 4, "sensor_block_reason": null, "imu_age_s": 0.01, "speed_ratio": 1.0, "manual_speed": 0.4, "calib": {"mark": {"lat": 38.94125199, "lon": -92.3189048}, "offset_applied": 109.76716443329491}, "waypoints_window": [{"idx": 0, "lat": 38.94124777, "lon": -92.31884882, "current": false}, {"idx": 1, "lat": 38.9412436, "lon": -92.31878981, "current": true}, {"idx": 2, "lat": 38.94120606, "lon": -92.3187308, "current": false}, {"idx": 3, "lat": 38.94124047, "lon": -92.31867984, "current": false}, {"idx": 4, "lat": 38.94124047, "lon": -92.31856987, "current": false}, {"idx": 5, "lat": 38.94121959, "lon": -92.31852293, "current": false}, {"idx": 6, "lat": 38.94114243, "lon": -92.31852159, "current": false}], "waiting_at_wp": false, "waiting_wp_idx": null, "imu_raw": {"type": "imu_frame", "version": 1, "rot": {"qi": 0.006, "qj": 0.015, "qk": -0.372, "qr": 0.928}, "euler": {"roll": -0.0, "pitch": 1.85, "yaw": 66.09, "north_offset_deg": 109.7672}, "hz": 48.5, "heading": {"raw": 343.676, "deg": 93.444, "dir": "E"}, "ts": 4179322, "game_rot": {"qi": -0.003, "qj": 0.015, "qk": 0.142, "qr": 0.99}, "accel": {"x": -0.71, "y": -0.14, "z": 9.8}, "lin_accel": {"x": -0.25, "y": -0.13, "z": -0.04}, "gravity": {"x": -0.47, "y": -0.01, "z": 9.85}, "gyro": {"x": 0.012, "y": 0.014, "z": 0.004}, "mag": {"x": -12.9, "y": 9.1, "z": 17.3}, "steps": 0, "cal": 0}, "rtk_raw": {"type": "rtk_frame", "version": 1, "lat": 38.94124623333333, "lon": -92.318824125, "alt": 236.732, "fix_quality": 4, "num_sats": 19, "hdop": 1.0, "speed_knots": 0.88, "track_deg": 91.63, "rtk_ts": 1777441378.553004, "server_ts": 1777441379.151086, "source": "rtk"}}
{"type": "autonav_status", "version": 1, "state": "running", "current_wp_idx": 1, "total_wp": 7, "heading_deg": 93.443, "target_bearing_deg": 95.6, "bearing_error_deg": 2.2, "dist_to_wp_m": 2.99, "linear": 1.0, "angular": 0.0, "gps_age_s": 0.15, "gps_packet_age_s": 0.15, "gps_fix_quality": 4, "sensor_block_reason": null, "imu_age_s": 0.0, "speed_ratio": 1.0, "manual_speed": 0.4, "calib": {"mark": {"lat": 38.94125199, "lon": -92.3189048}, "offset_applied": 109.76716443329491}, "waypoints_window": [{"idx": 0, "lat": 38.94124777, "lon": -92.31884882, "current": false}, {"idx": 1, "lat": 38.9412436, "lon": -92.31878981, "current": true}, {"idx": 2, "lat": 38.94120606, "lon": -92.3187308, "current": false}, {"idx": 3, "lat": 38.94124047, "lon": -92.31867984, "current": false}, {"idx": 4, "lat": 38.94124047, "lon": -92.31856987, "current": false}, {"idx": 5, "lat": 38.94121959, "lon": -92.31852293, "current": false}, {"idx": 6, "lat": 38.94114243, "lon": -92.31852159, "current": false}], "waiting_at_wp": false, "waiting_wp_idx": null, "imu_raw": {"type": "imu_frame", "version": 1, "rot": {"qi": 0.007, "qj": 0.017, "qk": -0.372, "qr": 0.928}, "euler": {"roll": 0.02, "pitch": 2.11, "yaw": 66.08, "north_offset_deg": 109.7672}, "hz": 48.1, "heading": {"raw": 343.676, "deg": 93.443, "dir": "E"}, "ts": 4179530, "game_rot": {"qi": -0.003, "qj": 0.018, "qk": 0.142, "qr": 0.99}, "accel": {"x": -0.56, "y": 0.05, "z": 10.11}, "lin_accel": {"x": -0.07, "y": 0.06, "z": 0.26}, "gravity": {"x": -0.49, "y": -0.01, "z": 9.85}, "gyro": {"x": -0.021, "y": -0.006, "z": -0.008}, "mag": {"x": -13.6, "y": 8.3, "z": 17.2}, "steps": 0, "cal": 0}, "rtk_raw": {"type": "rtk_frame", "version": 1, "lat": 38.94124623333333, "lon": -92.318824125, "alt": 236.732, "fix_quality": 4, "num_sats": 19, "hdop": 1.0, "speed_knots": 0.88, "track_deg": 91.63, "rtk_ts": 1777441378.553004, "server_ts": 1777441379.3522382, "source": "rtk"}}
{"type": "autonav_status", "version": 1, "state": "running", "current_wp_idx": 1, "total_wp": 7, "heading_deg": 93.445, "target_bearing_deg": 95.6, "bearing_error_deg": 2.2, "dist_to_wp_m": 2.99, "linear": 1.0, "angular": 0.0, "gps_age_s": 0.15, "gps_packet_age_s": 0.15, "gps_fix_quality": 4, "sensor_block_reason": null, "imu_age_s": 0.02, "speed_ratio": 1.0, "manual_speed": 0.4, "calib": {"mark": {"lat": 38.94125199, "lon": -92.3189048}, "offset_applied": 109.76716443329491}, "waypoints_window": [{"idx": 0, "lat": 38.94124777, "lon": -92.31884882, "current": false}, {"idx": 1, "lat": 38.9412436, "lon": -92.31878981, "current": true}, {"idx": 2, "lat": 38.94120606, "lon": -92.3187308, "current": false}, {"idx": 3, "lat": 38.94124047, "lon": -92.31867984, "current": false}, {"idx": 4, "lat": 38.94124047, "lon": -92.31856987, "current": false}, {"idx": 5, "lat": 38.94121959, "lon": -92.31852293, "current": false}, {"idx": 6, "lat": 38.94114243, "lon": -92.31852159, "current": false}], "waiting_at_wp": false, "waiting_wp_idx": null, "imu_raw": {"type": "imu_frame", "version": 1, "rot": {"qi": 0.006, "qj": 0.017, "qk": -0.372, "qr": 0.928}, "euler": {"roll": -0.09, "pitch": 2.06, "yaw": 66.08, "north_offset_deg": 109.7672}, "hz": 48.4, "heading": {"raw": 343.678, "deg": 93.445, "dir": "E"}, "ts": 4179713, "game_rot": {"qi": -0.004, "qj": 0.018, "qk": 0.142, "qr": 0.99}, "accel": {"x": -0.56, "y": -0.02, "z": 9.92}, "lin_accel": {"x": -0.06, "y": -0.01, "z": 0.06}, "gravity": {"x": -0.5, "y": -0.02, "z": 9.86}, "gyro": {"x": -0.021, "y": -0.01, "z": -0.002}, "mag": {"x": -13.9, "y": 9.0, "z": 16.5}, "steps": 0, "cal": 0}, "rtk_raw": {"type": "rtk_frame", "version": 1, "lat": 38.94124623333333, "lon": -92.318824125, "alt": 236.732, "fix_quality": 4, "num_sats": 19, "hdop": 1.0, "speed_knots": 0.88, "track_deg": 91.63, "rtk_ts": 1777441378.553004, "server_ts": 1777441379.55344, "source": "rtk"}}
{"type": "autonav_status", "version": 1, "state": "running", "current_wp_idx": 1, "total_wp": 7, "heading_deg": 93.33, "target_bearing_deg": 96.0, "bearing_error_deg": 2.7, "dist_to_wp_m": 2.5, "linear": 1.0, "angular": 0.0, "gps_age_s": 0.15, "gps_packet_age_s": 0.15, "gps_fix_quality": 4, "sensor_block_reason": null, "imu_age_s": 0.02, "speed_ratio": 1.0, "manual_speed": 0.4, "calib": {"mark": {"lat": 38.94125199, "lon": -92.3189048}, "offset_applied": 109.76716443329491}, "waypoints_window": [{"idx": 0, "lat": 38.94124777, "lon": -92.31884882, "current": false}, {"idx": 1, "lat": 38.9412436, "lon": -92.31878981, "current": true}, {"idx": 2, "lat": 38.94120606, "lon": -92.3187308, "current": false}, {"idx": 3, "lat": 38.94124047, "lon": -92.31867984, "current": false}, {"idx": 4, "lat": 38.94124047, "lon": -92.31856987, "current": false}, {"idx": 5, "lat": 38.94121959, "lon": -92.31852293, "current": false}, {"idx": 6, "lat": 38.94114243, "lon": -92.31852159, "current": false}], "waiting_at_wp": false, "waiting_wp_idx": null, "imu_raw": {"type": "imu_frame", "version": 1, "rot": {"qi": 0.006, "qj": 0.017, "qk": -0.372, "qr": 0.928}, "euler": {"roll": -0.09, "pitch": 2.06, "yaw": 66.08, "north_offset_deg": 109.7672}, "hz": 48.8, "heading": {"raw": 343.563, "deg": 93.33, "dir": "E"}, "ts": 4179915, "game_rot": {"qi": -0.003, "qj": 0.017, "qk": 0.143, "qr": 0.99}, "accel": {"x": -0.48, "y": -0.02, "z": 9.73}, "lin_accel": {"x": 0.01, "y": -0.01, "z": -0.13}, "gravity": {"x": -0.49, "y": -0.02, "z": 9.86}, "gyro": {"x": 0.01, "y": -0.021, "z": -0.008}, "mag": {"x": -13.9, "y": 8.2, "z": 16.4}, "steps": 0, "cal": 0}, "rtk_raw": {"type": "rtk_frame", "version": 1, "lat": 38.94124596333333, "lon": -92.31881856333334, "alt": 236.715, "fix_quality": 4, "num_sats": 19, "hdop": 1.0, "speed_knots": 0.92, "track_deg": 90.74, "rtk_ts": 1777441379.564895, "server_ts": 1777441379.755011, "source": "rtk"}}
{"type": "autonav_status", "version": 1, "state": "running", "current_wp_idx": 1, "total_wp": 7, "heading_deg": 93.332, "target_bearing_deg": 96.0, "bearing_error_deg": 2.7, "dist_to_wp_m": 2.5, "linear": 1.0, "angular": 0.0, "gps_age_s": 0.15, "gps_packet_age_s": 0.15, "gps_fix_quality": 4, "sensor_block_reason": null, "imu_age_s": 0.01, "speed_ratio": 1.0, "manual_speed": 0.4, "calib": {"mark": {"lat": 38.94125199, "lon": -92.3189048}, "offset_applied": 109.76716443329491}, "waypoints_window": [{"idx": 0, "lat": 38.94124777, "lon": -92.31884882, "current": false}, {"idx": 1, "lat": 38.9412436, "lon": -92.31878981, "current": true}, {"idx": 2, "lat": 38.94120606, "lon": -92.3187308, "current": false}, {"idx": 3, "lat": 38.94124047, "lon": -92.31867984, "current": false}, {"idx": 4, "lat": 38.94124047, "lon": -92.31856987, "current": false}, {"idx": 5, "lat": 38.94121959, "lon": -92.31852293, "current": false}, {"idx": 6, "lat": 38.94114243, "lon": -92.31852159, "current": false}], "waiting_at_wp": false, "waiting_wp_idx": null, "imu_raw": {"type": "imu_frame", "version": 1, "rot": {"qi": 0.005, "qj": 0.016, "qk": -0.372, "qr": 0.928}, "euler": {"roll": -0.15, "pitch": 1.91, "yaw": 66.08, "north_offset_deg": 109.7672}, "hz": 48.1, "heading": {"raw": 343.565, "deg": 93.332, "dir": "E"}, "ts": 4180129, "game_rot": {"qi": -0.004, "qj": 0.016, "qk": 0.143, "qr": 0.99}, "accel": {"x": -0.37, "y": -0.02, "z": 9.85}, "lin_accel": {"x": 0.12, "y": 0.0, "z": -0.02}, "gravity": {"x": -0.48, "y": -0.02, "z": 9.86}, "gyro": {"x": -0.02, "y": -0.016, "z": 0.01}, "mag": {"x": -12.9, "y": 7.9, "z": 16.4}, "steps": 0, "cal": 0}, "rtk_raw": {"type": "rtk_frame", "version": 1, "lat": 38.94124596333333, "lon": -92.31881856333334, "alt": 236.715, "fix_quality": 4, "num_sats": 19, "hdop": 1.0, "speed_knots": 0.92, "track_deg": 90.74, "rtk_ts": 1777441379.564895, "server_ts": 1777441379.9560902, "source": "rtk"}}
{"type": "autonav_status", "version": 1, "state": "running", "current_wp_idx": 1, "total_wp": 7, "heading_deg": 93.332, "target_bearing_deg": 96.0, "bearing_error_deg": 2.7, "dist_to_wp_m": 2.5, "linear": 1.0, "angular": 0.0, "gps_age_s": 0.15, "gps_packet_age_s": 0.15, "gps_fix_quality": 4, "sensor_block_reason": null, "imu_age_s": 0.0, "speed_ratio": 1.0, "manual_speed": 0.4, "calib": {"mark": {"lat": 38.94125199, "lon": -92.3189048}, "offset_applied": 109.76716443329491}, "waypoints_window": [{"idx": 0, "lat": 38.94124777, "lon": -92.31884882, "current": false}, {"idx": 1, "lat": 38.9412436, "lon": -92.31878981, "current": true}, {"idx": 2, "lat": 38.94120606, "lon": -92.3187308, "current": false}, {"idx": 3, "lat": 38.94124047, "lon": -92.31867984, "current": false}, {"idx": 4, "lat": 38.94124047, "lon": -92.31856987, "current": false}, {"idx": 5, "lat": 38.94121959, "lon": -92.31852293, "current": false}, {"idx": 6, "lat": 38.94114243, "lon": -92.31852159, "current": false}], "waiting_at_wp": false, "waiting_wp_idx": null, "imu_raw": {"type": "imu_frame", "version": 1, "rot": {"qi": 0.005, "qj": 0.015, "qk": -0.372, "qr": 0.928}, "euler": {"roll": -0.11, "pitch": 1.81, "yaw": 66.08, "north_offset_deg": 109.7672}, "hz": 48.5, "heading": {"raw": 343.565, "deg": 93.332, "dir": "E"}, "ts": 4180332, "game_rot": {"qi": -0.004, "qj": 0.016, "qk": 0.143, "qr": 0.99}, "accel": {"x": -0.6, "y": 0.09, "z": 9.96}, "lin_accel": {"x": 0.18, "y": 0.28, "z": 0.17}, "gravity": {"x": -0.47, "y": -0.03, "z": 9.87}, "gyro": {"x": 0.012, "y": -0.014, "z": 0.01}, "mag": {"x": -13.2, "y": 8.6, "z": 16.5}, "steps": 0, "cal": 0}, "rtk_raw": {"type": "rtk_frame", "version": 1, "lat": 38.94124596333333, "lon": -92.31881856333334, "alt": 236.715, "fix_quality": 4, "num_sats": 19, "hdop": 1.0, "speed_knots": 0.92, "track_deg": 90.74, "rtk_ts": 1777441379.564895, "server_ts": 1777441380.1573372, "source": "rtk"}}
{"type": "autonav_status", "version": 1, "state": "running", "current_wp_idx": 1, "total_wp": 7, "heading_deg": 93.33, "target_bearing_deg": 96.0, "bearing_error_deg": 2.7, "dist_to_wp_m": 2.5, "linear": 1.0, "angular": 0.0, "gps_age_s": 0.15, "gps_packet_age_s": 0.15, "gps_fix_quality": 4, "sensor_block_reason": null, "imu_age_s": 0.0, "speed_ratio": 1.0, "manual_speed": 0.4, "calib": {"mark": {"lat": 38.94125199, "lon": -92.3189048}, "offset_applied": 109.76716443329491}, "waypoints_window": [{"idx": 0, "lat": 38.94124777, "lon": -92.31884882, "current": false}, {"idx": 1, "lat": 38.9412436, "lon": -92.31878981, "current": true}, {"idx": 2, "lat": 38.94120606, "lon": -92.3187308, "current": false}, {"idx": 3, "lat": 38.94124047, "lon": -92.31867984, "current": false}, {"idx": 4, "lat": 38.94124047, "lon": -92.31856987, "current": false}, {"idx": 5, "lat": 38.94121959, "lon": -92.31852293, "current": false}, {"idx": 6, "lat": 38.94114243, "lon": -92.31852159, "current": false}], "waiting_at_wp": false, "waiting_wp_idx": null, "imu_raw": {"type": "imu_frame", "version": 1, "rot": {"qi": 0.004, "qj": 0.014, "qk": -0.371, "qr": 0.928}, "euler": {"roll": -0.17, "pitch": 1.66, "yaw": 66.22, "north_offset_deg": 109.7672}, "hz": 48.8, "heading": {"raw": 343.563, "deg": 93.33, "dir": "E"}, "ts": 4180534, "game_rot": {"qi": -0.003, "qj": 0.015, "qk": 0.143, "qr": 0.99}, "accel": {"x": -0.56, "y": -0.06, "z": 10.11}, "lin_accel": {"x": -0.11, "y": -0.03, "z": 0.25}, "gravity": {"x": -0.45, "y": -0.03, "z": 9.87}, "gyro": {"x": -0.006, "y": 0.01, "z": 0.0}, "mag": {"x": -13.6, "y": 7.4, "z": 15.2}, "steps": 0, "cal": 0}, "rtk_raw": {"type": "rtk_frame", "version": 1, "lat": 38.94124596333333, "lon": -92.31881856333334, "alt": 236.715, "fix_quality": 4, "num_sats": 19, "hdop": 1.0, "speed_knots": 0.92, "track_deg": 90.74, "rtk_ts": 1777441379.564895, "server_ts": 1777441380.358645, "source": "rtk"}}
{"type": "autonav_status", "version": 1, "state": "running", "current_wp_idx": 1, "total_wp": 7, "heading_deg": 93.332, "target_bearing_deg": 96.9, "bearing_error_deg": 3.6, "dist_to_wp_m": 2.05, "linear": 1.0, "angular": -0.072, "gps_age_s": 0.15, "gps_packet_age_s": 0.15, "gps_fix_quality": 4, "sensor_block_reason": null, "imu_age_s": 0.01, "speed_ratio": 1.0, "manual_speed": 0.4, "calib": {"mark": {"lat": 38.94125199, "lon": -92.3189048}, "offset_applied": 109.76716443329491}, "waypoints_window": [{"idx": 0, "lat": 38.94124777, "lon": -92.31884882, "current": false}, {"idx": 1, "lat": 38.9412436, "lon": -92.31878981, "current": true}, {"idx": 2, "lat": 38.94120606, "lon": -92.3187308, "current": false}, {"idx": 3, "lat": 38.94124047, "lon": -92.31867984, "current": false}, {"idx": 4, "lat": 38.94124047, "lon": -92.31856987, "current": false}, {"idx": 5, "lat": 38.94121959, "lon": -92.31852293, "current": false}, {"idx": 6, "lat": 38.94114243, "lon": -92.31852159, "current": false}], "waiting_at_wp": false, "waiting_wp_idx": null, "imu_raw": {"type": "imu_frame", "version": 1, "rot": {"qi": 0.004, "qj": 0.015, "qk": -0.371, "qr": 0.928}, "euler": {"roll": -0.21, "pitch": 1.77, "yaw": 66.22, "north_offset_deg": 109.7672}, "hz": 48.3, "heading": {"raw": 343.565, "deg": 93.332, "dir": "E"}, "ts": 4180727, "game_rot": {"qi": -0.004, "qj": 0.015, "qk": 0.143, "qr": 0.99}, "accel": {"x": -0.79, "y": 0.09, "z": 10.39}, "lin_accel": {"x": -0.03, "y": 0.15, "z": -0.44}, "gravity": {"x": -0.45, "y": -0.02, "z": 9.87}, "gyro": {"x": -0.02, "y": -0.002, "z": 0.0}, "mag": {"x": -13.9, "y": 7.8, "z": 14.8}, "steps": 0, "cal": 0}, "rtk_raw": {"type": "rtk_frame", "version": 1, "lat": 38.941245826666666, "lon": -92.31881332833333, "alt": 236.734, "fix_quality": 4, "num_sats": 18, "hdop": 1.0, "speed_knots": 0.75, "track_deg": 96.51, "rtk_ts": 1777441380.555138, "server_ts": 1777441380.5598552, "source": "rtk"}}
{"type": "autonav_status", "version": 1, "state": "running", "current_wp_idx": 1, "total_wp": 7, "heading_deg": 93.332, "target_bearing_deg": 96.9, "bearing_error_deg": 3.6, "dist_to_wp_m": 2.05, "linear": 1.0, "angular": -0.072, "gps_age_s": 0.15, "gps_packet_age_s": 0.15, "gps_fix_quality": 4, "sensor_block_reason": null, "imu_age_s": 0.0, "speed_ratio": 1.0, "manual_speed": 0.4, "calib": {"mark": {"lat": 38.94125199, "lon": -92.3189048}, "offset_applied": 109.76716443329491}, "waypoints_window": [{"idx": 0, "lat": 38.94124777, "lon": -92.31884882, "current": false}, {"idx": 1, "lat": 38.9412436, "lon": -92.31878981, "current": true}, {"idx": 2, "lat": 38.94120606, "lon": -92.3187308, "current": false}, {"idx": 3, "lat": 38.94124047, "lon": -92.31867984, "current": false}, {"idx": 4, "lat": 38.94124047, "lon": -92.31856987, "current": false}, {"idx": 5, "lat": 38.94121959, "lon": -92.31852293, "current": false}, {"idx": 6, "lat": 38.94114243, "lon": -92.31852159, "current": false}], "waiting_at_wp": false, "waiting_wp_idx": null, "imu_raw": {"type": "imu_frame", "version": 1, "rot": {"qi": 0.004, "qj": 0.015, "qk": -0.371, "qr": 0.928}, "euler": {"roll": -0.21, "pitch": 1.77, "yaw": 66.22, "north_offset_deg": 109.7672}, "hz": 48.0, "heading": {"raw": 343.565, "deg": 93.332, "dir": "E"}, "ts": 4180936, "game_rot": {"qi": -0.004, "qj": 0.014, "qk": 0.143, "qr": 0.99}, "accel": {"x": -0.37, "y": -0.06, "z": 9.69}, "lin_accel": {"x": 0.08, "y": -0.02, "z": -0.18}, "gravity": {"x": -0.45, "y": -0.05, "z": 9.87}, "gyro": {"x": 0.025, "y": -0.01, "z": -0.002}, "mag": {"x": -14.2, "y": 9.3, "z": 15.8}, "steps": 0, "cal": 0}, "rtk_raw": {"type": "rtk_frame", "version": 1, "lat": 38.941245826666666, "lon": -92.31881332833333, "alt": 236.734, "fix_quality": 4, "num_sats": 18, "hdop": 1.0, "speed_knots": 0.75, "track_deg": 96.51, "rtk_ts": 1777441380.555138, "server_ts": 1777441380.76037, "source": "rtk"}}
{"type": "autonav_status", "version": 1, "state": "running", "current_wp_idx": 1, "total_wp": 7, "heading_deg": 93.444, "target_bearing_deg": 96.9, "bearing_error_deg": 3.5, "dist_to_wp_m": 2.05, "linear": 1.0, "angular": -0.07, "gps_age_s": 0.15, "gps_packet_age_s": 0.15, "gps_fix_quality": 4, "sensor_block_reason": null, "imu_age_s": 0.01, "speed_ratio": 1.0, "manual_speed": 0.4, "calib": {"mark": {"lat": 38.94125199, "lon": -92.3189048}, "offset_applied": 109.76716443329491}, "waypoints_window": [{"idx": 0, "lat": 38.94124777, "lon": -92.31884882, "current": false}, {"idx": 1, "lat": 38.9412436, "lon": -92.31878981, "current": true}, {"idx": 2, "lat": 38.94120606, "lon": -92.3187308, "current": false}, {"idx": 3, "lat": 38.94124047, "lon": -92.31867984, "current": false}, {"idx": 4, "lat": 38.94124047, "lon": -92.31856987, "current": false}, {"idx": 5, "lat": 38.94121959, "lon": -92.31852293, "current": false}, {"idx": 6, "lat": 38.94114243, "lon": -92.31852159, "current": false}], "waiting_at_wp": false, "waiting_wp_idx": null, "imu_raw": {"type": "imu_frame", "version": 1, "rot": {"qi": 0.005, "qj": 0.015, "qk": -0.372, "qr": 0.928}, "euler": {"roll": -0.11, "pitch": 1.81, "yaw": 66.08, "north_offset_deg": 109.7672}, "hz": 48.0, "heading": {"raw": 343.676, "deg": 93.444, "dir": "E"}, "ts": 4181126, "game_rot": {"qi": -0.003, "qj": 0.015, "qk": 0.142, "qr": 0.99}, "accel": {"x": -0.29, "y": 0.44, "z": 9.58}, "lin_accel": {"x": 0.15, "y": 0.46, "z": -0.29}, "gravity": {"x": -0.45, "y": -0.02, "z": 9.87}, "gyro": {"x": 0.004, "y": 0.002, "z": 0.004}, "mag": {"x": -13.9, "y": 8.1, "z": 14.4}, "steps": 0, "cal": 0}, "rtk_raw": {"type": "rtk_frame", "version": 1, "lat": 38.941245826666666, "lon": -92.31881332833333, "alt": 236.734, "fix_quality": 4, "num_sats": 18, "hdop": 1.0, "speed_knots": 0.75, "track_deg": 96.51, "rtk_ts": 1777441380.555138, "server_ts": 1777441380.961598, "source": "rtk"}}
{"type": "autonav_status", "version": 1, "state": "running", "current_wp_idx": 1, "total_wp": 7, "heading_deg": 93.442, "target_bearing_deg": 96.9, "bearing_error_deg": 3.5, "dist_to_wp_m": 2.05, "linear": 1.0, "angular": -0.07, "gps_age_s": 0.15, "gps_packet_age_s": 0.15, "gps_fix_quality": 4, "sensor_block_reason": null, "imu_age_s": 0.0, "speed_ratio": 1.0, "manual_speed": 0.4, "calib": {"mark": {"lat": 38.94125199, "lon": -92.3189048}, "offset_applied": 109.76716443329491}, "waypoints_window": [{"idx": 0, "lat": 38.94124777, "lon": -92.31884882, "current": false}, {"idx": 1, "lat": 38.9412436, "lon": -92.31878981, "current": true}, {"idx": 2, "lat": 38.94120606, "lon": -92.3187308, "current": false}, {"idx": 3, "lat": 38.94124047, "lon": -92.31867984, "current": false}, {"idx": 4, "lat": 38.94124047, "lon": -92.31856987, "current": false}, {"idx": 5, "lat": 38.94121959, "lon": -92.31852293, "current": false}, {"idx": 6, "lat": 38.94114243, "lon": -92.31852159, "current": false}], "waiting_at_wp": false, "waiting_wp_idx": null, "imu_raw": {"type": "imu_frame", "version": 1, "rot": {"qi": 0.006, "qj": 0.014, "qk": -0.372, "qr": 0.928}, "euler": {"roll": 0.04, "pitch": 1.74, "yaw": 66.09, "north_offset_deg": 109.7672}, "hz": 47.9, "heading": {"raw": 343.675, "deg": 93.442, "dir": "E"}, "ts": 4181335, "game_rot": {"qi": -0.002, "qj": 0.015, "qk": 0.142, "qr": 0.99}, "accel": {"x": -0.37, "y": -0.52, "z": 9.85}, "lin_accel": {"x": 0.09, "y": -0.5, "z": -0.02}, "gravity": {"x": -0.45, "y": -0.02, "z": 9.86}, "gyro": {"x": 0.037, "y": 0.014, "z": 0.014}, "mag": {"x": -13.2, "y": 7.7, "z": 13.2}, "steps": 0, "cal": 0}, "rtk_raw": {"type": "rtk_frame", "version": 1, "lat": 38.941245826666666, "lon": -92.31881332833333, "alt": 236.734, "fix_quality": 4, "num_sats": 18, "hdop": 1.0, "speed_knots": 0.75, "track_deg": 96.51, "rtk_ts": 1777441380.555138, "server_ts": 1777441381.16255, "source": "rtk"}}
{"type": "autonav_status", "version": 1, "state": "running", "current_wp_idx": 1, "total_wp": 7, "heading_deg": 93.553, "target_bearing_deg": 96.9, "bearing_error_deg": 3.4, "dist_to_wp_m": 2.05, "linear": 1.0, "angular": -0.068, "gps_age_s": 0.15, "gps_packet_age_s": 0.15, "gps_fix_quality": 4, "sensor_block_reason": null, "imu_age_s": 0.01, "speed_ratio": 1.0, "manual_speed": 0.4, "calib": {"mark": {"lat": 38.94125199, "lon": -92.3189048}, "offset_applied": 109.76716443329491}, "waypoints_window": [{"idx": 0, "lat": 38.94124777, "lon": -92.31884882, "current": false}, {"idx": 1, "lat": 38.9412436, "lon": -92.31878981, "current": true}, {"idx": 2, "lat": 38.94120606, "lon": -92.3187308, "current": false}, {"idx": 3, "lat": 38.94124047, "lon": -92.31867984, "current": false}, {"idx": 4, "lat": 38.94124047, "lon": -92.31856987, "current": false}, {"idx": 5, "lat": 38.94121959, "lon": -92.31852293, "current": false}, {"idx": 6, "lat": 38.94114243, "lon": -92.31852159, "current": false}], "waiting_at_wp": false, "waiting_wp_idx": null, "imu_raw": {"type": "imu_frame", "version": 1, "rot": {"qi": 0.007, "qj": 0.015, "qk": -0.373, "qr": 0.928}, "euler": {"roll": 0.1, "pitch": 1.89, "yaw": 65.95, "north_offset_deg": 109.7672}, "hz": 47.4, "heading": {"raw": 343.786, "deg": 93.553, "dir": "E"}, "ts": 4181525, "game_rot": {"qi": -0.001, "qj": 0.017, "qk": 0.141, "qr": 0.99}, "accel": {"x": -0.68, "y": -0.06, "z": 10.57}, "lin_accel": {"x": -0.21, "y": -0.07, "z": 0.71}, "gravity": {"x": -0.46, "y": 0.01, "z": 9.86}, "gyro": {"x": 0.0, "y": -0.01, "z": -0.008}, "mag": {"x": -14.6, "y": 9.2, "z": 14.1}, "steps": 0, "cal": 0}, "rtk_raw": {"type": "rtk_frame", "version": 1, "lat": 38.941245826666666, "lon": -92.31881332833333, "alt": 236.734, "fix_quality": 4, "num_sats": 18, "hdop": 1.0, "speed_knots": 0.75, "track_deg": 96.51, "rtk_ts": 1777441380.555138, "server_ts": 1777441381.363807, "source": "rtk"}}
{"type": "autonav_status", "version": 1, "state": "running", "current_wp_idx": 1, "total_wp": 7, "heading_deg": 93.668, "target_bearing_deg": 97.3, "bearing_error_deg": 3.7, "dist_to_wp_m": 1.58, "linear": 1.0, "angular": -0.073, "gps_age_s": 0.15, "gps_packet_age_s": 0.15, "gps_fix_quality": 4, "sensor_block_reason": null, "imu_age_s": 0.01, "speed_ratio": 1.0, "manual_speed": 0.4, "calib": {"mark": {"lat": 38.94125199, "lon": -92.3189048}, "offset_applied": 109.76716443329491}, "waypoints_window": [{"idx": 0, "lat": 38.94124777, "lon": -92.31884882, "current": false}, {"idx": 1, "lat": 38.9412436, "lon": -92.31878981, "current": true}, {"idx": 2, "lat": 38.94120606, "lon": -92.3187308, "current": false}, {"idx": 3, "lat": 38.94124047, "lon": -92.31867984, "current": false}, {"idx": 4, "lat": 38.94124047, "lon": -92.31856987, "current": false}, {"idx": 5, "lat": 38.94121959, "lon": -92.31852293, "current": false}, {"idx": 6, "lat": 38.94114243, "lon": -92.31852159, "current": false}], "waiting_at_wp": false, "waiting_wp_idx": null, "imu_raw": {"type": "imu_frame", "version": 1, "rot": {"qi": 0.008, "qj": 0.017, "qk": -0.374, "qr": 0.927}, "euler": {"roll": 0.12, "pitch": 2.15, "yaw": 65.84, "north_offset_deg": 109.7672}, "hz": 47.6, "heading": {"raw": 343.901, "deg": 93.668, "dir": "E"}, "ts": 4181735, "game_rot": {"qi": -0.002, "qj": 0.018, "qk": 0.14, "qr": 0.99}, "accel": {"x": -0.64, "y": -0.29, "z": 10.0}, "lin_accel": {"x": -0.16, "y": -0.3, "z": 0.14}, "gravity": {"x": -0.48, "y": 0.01, "z": 9.86}, "gyro": {"x": 0.006, "y": 0.023, "z": -0.014}, "mag": {"x": -13.6, "y": 8.1, "z": 14.4}, "steps": 0, "cal": 0}, "rtk_raw": {"type": "rtk_frame", "version": 1, "lat": 38.941245413333334, "lon": -92.318807935, "alt": 236.731, "fix_quality": 4, "num_sats": 19, "hdop": 1.0, "speed_knots": 1.1, "track_deg": 98.01, "rtk_ts": 1777441381.555265, "server_ts": 1777441381.565022, "source": "rtk"}}
{"type": "autonav_status", "version": 1, "state": "running", "current_wp_idx": 1, "total_wp": 7, "heading_deg": 93.778, "target_bearing_deg": 97.3, "bearing_error_deg": 3.6, "dist_to_wp_m": 1.58, "linear": 1.0, "angular": -0.071, "gps_age_s": 0.15, "gps_packet_age_s": 0.15, "gps_fix_quality": 4, "sensor_block_reason": null, "imu_age_s": 0.01, "speed_ratio": 1.0, "manual_speed": 0.4, "calib": {"mark": {"lat": 38.94125199, "lon": -92.3189048}, "offset_applied": 109.76716443329491}, "waypoints_window": [{"idx": 0, "lat": 38.94124777, "lon": -92.31884882, "current": false}, {"idx": 1, "lat": 38.9412436, "lon": -92.31878981, "current": true}, {"idx": 2, "lat": 38.94120606, "lon": -92.3187308, "current": false}, {"idx": 3, "lat": 38.94124047, "lon": -92.31867984, "current": false}, {"idx": 4, "lat": 38.94124047, "lon": -92.31856987, "current": false}, {"idx": 5, "lat": 38.94121959, "lon": -92.31852293, "current": false}, {"idx": 6, "lat": 38.94114243, "lon": -92.31852159, "current": false}], "waiting_at_wp": false, "waiting_wp_idx": null, "imu_raw": {"type": "imu_frame", "version": 1, "rot": {"qi": 0.009, "qj": 0.018, "qk": -0.375, "qr": 0.927}, "euler": {"roll": 0.18, "pitch": 2.3, "yaw": 65.71, "north_offset_deg": 109.7672}, "hz": 47.4, "heading": {"raw": 344.011, "deg": 93.778, "dir": "E"}, "ts": 4181927, "game_rot": {"qi": -0.001, "qj": 0.02, "qk": 0.139, "qr": 0.99}, "accel": {"x": -0.83, "y": 0.05, "z": 9.23}, "lin_accel": {"x": -0.32, "y": 0.03, "z": -0.62}, "gravity": {"x": -0.51, "y": 0.02, "z": 9.86}, "gyro": {"x": -0.029, "y": 0.016, "z": -0.02}, "mag": {"x": -14.9, "y": 8.5, "z": 15.3}, "steps": 0, "cal": 0}, "rtk_raw": {"type": "rtk_frame", "version": 1, "lat": 38.941245413333334, "lon": -92.318807935, "alt": 236.731, "fix_quality": 4, "num_sats": 19, "hdop": 1.0, "speed_knots": 1.1, "track_deg": 98.01, "rtk_ts": 1777441381.555265, "server_ts": 1777441381.76545, "source": "rtk"}}
{"type": "autonav_status", "version": 1, "state": "running", "current_wp_idx": 1, "total_wp": 7, "heading_deg": 94.01, "target_bearing_deg": 97.3, "bearing_error_deg": 3.3, "dist_to_wp_m": 1.58, "linear": 1.0, "angular": -0.066, "gps_age_s": 0.15, "gps_packet_age_s": 0.15, "gps_fix_quality": 4, "sensor_block_reason": null, "imu_age_s": 0.0, "speed_ratio": 1.0, "manual_speed": 0.4, "calib": {"mark": {"lat": 38.94125199, "lon": -92.3189048}, "offset_applied": 109.76716443329491}, "waypoints_window": [{"idx": 0, "lat": 38.94124777, "lon": -92.31884882, "current": false}, {"idx": 1, "lat": 38.9412436, "lon": -92.31878981, "current": true}, {"idx": 2, "lat": 38.94120606, "lon": -92.3187308, "current": false}, {"idx": 3, "lat": 38.94124047, "lon": -92.31867984, "current": false}, {"idx": 4, "lat": 38.94124047, "lon": -92.31856987, "current": false}, {"idx": 5, "lat": 38.94121959, "lon": -92.31852293, "current": false}, {"idx": 6, "lat": 38.94114243, "lon": -92.31852159, "current": false}], "waiting_at_wp": false, "waiting_wp_idx": null, "imu_raw": {"type": "imu_frame", "version": 1, "rot": {"qi": 0.008, "qj": 0.02, "qk": -0.377, "qr": 0.926}, "euler": {"roll": -0.02, "pitch": 2.47, "yaw": 65.46, "north_offset_deg": 109.7672}, "hz": 47.2, "heading": {"raw": 344.242, "deg": 94.01, "dir": "E"}, "ts": 4182143, "game_rot": {"qi": -0.003, "qj": 0.022, "qk": 0.137, "qr": 0.99}, "accel": {"x": -0.56, "y": -0.37, "z": 9.62}, "lin_accel": {"x": -0.03, "y": -0.36, "z": -0.24}, "gravity": {"x": -0.53, "y": -0.01, "z": 9.86}, "gyro": {"x": 0.006, "y": 0.016, "z": -0.027}, "mag": {"x": -13.2, "y": 8.5, "z": 13.7}, "steps": 0, "cal": 0}, "rtk_raw": {"type": "rtk_frame", "version": 1, "lat": 38.941245413333334, "lon": -92.318807935, "alt": 236.731, "fix_quality": 4, "num_sats": 19, "hdop": 1.0, "speed_knots": 1.1, "track_deg": 98.01, "rtk_ts": 1777441381.555265, "server_ts": 1777441381.966744, "source": "rtk"}}
{"type": "autonav_status", "version": 1, "state": "running", "current_wp_idx": 1, "total_wp": 7, "heading_deg": 94.252, "target_bearing_deg": 97.3, "bearing_error_deg": 3.1, "dist_to_wp_m": 1.58, "linear": 1.0, "angular": -0.062, "gps_age_s": 0.15, "gps_packet_age_s": 0.15, "gps_fix_quality": 4, "sensor_block_reason": null, "imu_age_s": 0.02, "speed_ratio": 1.0, "manual_speed": 0.4, "calib": {"mark": {"lat": 38.94125199, "lon": -92.3189048}, "offset_applied": 109.76716443329491}, "waypoints_window": [{"idx": 0, "lat": 38.94124777, "lon": -92.31884882, "current": false}, {"idx": 1, "lat": 38.9412436, "lon": -92.31878981, "current": true}, {"idx": 2, "lat": 38.94120606, "lon": -92.3187308, "current": false}, {"idx": 3, "lat": 38.94124047, "lon": -92.31867984, "current": false}, {"idx": 4, "lat": 38.94124047, "lon": -92.31856987, "current": false}, {"idx": 5, "lat": 38.94121959, "lon": -92.31852293, "current": false}, {"idx": 6, "lat": 38.94114243, "lon": -92.31852159, "current": false}], "waiting_at_wp": false, "waiting_wp_idx": null, "imu_raw": {"type": "imu_frame", "version": 1, "rot": {"qi": 0.009, "qj": 0.021, "qk": -0.379, "qr": 0.925}, "euler": {"roll": 0.04, "pitch": 2.62, "yaw": 65.22, "north_offset_deg": 109.7672}, "hz": 47.5, "heading": {"raw": 344.485, "deg": 94.252, "dir": "E"}, "ts": 4182326, "game_rot": {"qi": -0.003, "qj": 0.023, "qk": 0.135, "qr": 0.991}, "accel": {"x": -0.71, "y": 0.13, "z": 10.23}, "lin_accel": {"x": -0.16, "y": 0.13, "z": 0.38}, "gravity": {"x": -0.55, "y": 0.0, "z": 9.85}, "gyro": {"x": 0.016, "y": 0.012, "z": -0.02}, "mag": {"x": -14.6, "y": 7.8, "z": 15.6}, "steps": 0, "cal": 0}, "rtk_raw": {"type": "rtk_frame", "version": 1, "lat": 38.941245413333334, "lon": -92.318807935, "alt": 236.731, "fix_quality": 4, "num_sats": 19, "hdop": 1.0, "speed_knots": 1.1, "track_deg": 98.01, "rtk_ts": 1777441381.555265, "server_ts": 1777441382.1680498, "source": "rtk"}}
{"type": "autonav_status", "version": 1, "state": "running", "current_wp_idx": 1, "total_wp": 7, "heading_deg": 94.476, "target_bearing_deg": 97.3, "bearing_error_deg": 2.9, "dist_to_wp_m": 1.58, "linear": 1.0, "angular": 0.0, "gps_age_s": 0.15, "gps_packet_age_s": 0.15, "gps_fix_quality": 4, "sensor_block_reason": null, "imu_age_s": 0.01, "speed_ratio": 1.0, "manual_speed": 0.4, "calib": {"mark": {"lat": 38.94125199, "lon": -92.3189048}, "offset_applied": 109.76716443329491}, "waypoints_window": [{"idx": 0, "lat": 38.94124777, "lon": -92.31884882, "current": false}, {"idx": 1, "lat": 38.9412436, "lon": -92.31878981, "current": true}, {"idx": 2, "lat": 38.94120606, "lon": -92.3187308, "current": false}, {"idx": 3, "lat": 38.94124047, "lon": -92.31867984, "current": false}, {"idx": 4, "lat": 38.94124047, "lon": -92.31856987, "current": false}, {"idx": 5, "lat": 38.94121959, "lon": -92.31852293, "current": false}, {"idx": 6, "lat": 38.94114243, "lon": -92.31852159, "current": false}], "waiting_at_wp": false, "waiting_wp_idx": null, "imu_raw": {"type": "imu_frame", "version": 1, "rot": {"qi": 0.01, "qj": 0.022, "qk": -0.381, "qr": 0.924}, "euler": {"roll": 0.1, "pitch": 2.77, "yaw": 64.97, "north_offset_deg": 109.7672}, "hz": 47.5, "heading": {"raw": 344.709, "deg": 94.476, "dir": "E"}, "ts": 4182535, "game_rot": {"qi": -0.002, "qj": 0.024, "qk": 0.133, "qr": 0.991}, "accel": {"x": -0.37, "y": 0.13, "z": 10.23}, "lin_accel": {"x": 0.22, "y": 0.12, "z": 0.38}, "gravity": {"x": -0.59, "y": 0.01, "z": 9.85}, "gyro": {"x": 0.002, "y": 0.014, "z": -0.014}, "mag": {"x": -13.9, "y": 8.5, "z": 14.9}, "steps": 0, "cal": 0}, "rtk_raw": {"type": "rtk_frame", "version": 1, "lat": 38.941245413333334, "lon": -92.318807935, "alt": 236.731, "fix_quality": 4, "num_sats": 19, "hdop": 1.0, "speed_knots": 1.1, "track_deg": 98.01, "rtk_ts": 1777441381.555265, "server_ts": 1777441382.36925, "source": "rtk"}}
