{"type": "autonav_status", "version": 1, "state": "idle", "current_wp_idx": 0, "total_wp": 27, "heading_deg": 358.9, "target_bearing_deg": 4.8, "bearing_error_deg": 5.9, "dist_to_wp_m": 0.24, "linear": 0.0, "angular": 0.0, "gps_age_s": 0.02, "gps_packet_age_s": 0.02, "gps_fix_quality": 5, "sensor_block_reason": null, "imu_age_s": 0.0, "speed_ratio": 1.0, "manual_speed": 0.4, "calib": {"mark": {"lat": 38.942250015, "lon": -92.31809810166666}, "offset_applied": 5.44567531067338}, "waypoints_window": [{"idx": 0, "lat": 38.942249635, "lon": -92.318097815, "current": true}, {"idx": 1, "lat": 38.9422613038, "lon": -92.318097815, "current": false}, {"idx": 2, "lat": 38.9423162156, "lon": -92.318097815, "current": false}, {"idx": 3, "lat": 38.9423278844, "lon": -92.318097815, "current": false}, {"idx": 4, "lat": 38.942382796, "lon": -92.318097815, "current": false}, {"idx": 5, "lat": 38.942394465, "lon": -92.318097815, "current": false}, {"idx": 6, "lat": 38.942449377, "lon": -92.318097815, "current": false}], "waiting_at_wp": false, "waiting_wp_idx": null, "pause_mode": "all", "imu_raw": {"type": "imu_frame", "version": 1, "rot": {"qi": 0.012, "qj": -0.006, "qk": -0.836, "qr": 0.549}, "euler": {"roll": 1.33, "pitch": 0.77, "yaw": 252.02, "north_offset_deg": 5.4457}, "hz": 47.9, "heading": {"raw": 353.454, "deg": 358.9, "dir": "N"}, "ts": 809985, "game_rot": {"qi": 0.011, "qj": 0.007, "qk": 0.057, "qr": 0.998}, "accel": {"x": -0.1, "y": 0.25, "z": 9.88}, "lin_accel": {"x": 0.02, "y": 0.01, "z": 0.01}, "gravity": {"x": -0.12, "y": 0.23, "z": 9.88}, "gyro": {"x": 0.0, "y": 0.0, "z": 0.0}, "mag": {"x": -3.4, "y": -2.5, "z": 9.2}, "steps": 0, "cal": 0}, "rtk_raw": {"type": "rtk_frame", "version": 1, "lat": 38.94224750666667, "lon": -92.31809804333334, "alt": 231.196, "fix_quality": 5, "num_sats": 16, "hdop": 1.1, "speed_knots": 0.04, "track_deg": 356.04, "rtk_ts": 1777769711.6601448, "server_ts": 1777769711.710102, "source": "rtk"}}
{"type": "autonav_status", "version": 1, "state": "idle", "current_wp_idx": 0, "total_wp": 27, "heading_deg": 358.9, "target_bearing_deg": 4.8, "bearing_error_deg": 5.9, "dist_to_wp_m": 0.24, "linear": 0.0, "angular": 0.0, "gps_age_s": 0.02, "gps_packet_age_s": 0.02, "gps_fix_quality": 5, "sensor_block_reason": null, "imu_age_s": 0.01, "speed_ratio": 1.0, "manual_speed": 0.4, "calib": {"mark": {"lat": 38.942250015, "lon": -92.31809810166666}, "offset_applied": 5.44567531067338}, "waypoints_window": [{"idx": 0, "lat": 38.942249635, "lon": -92.318097815, "current": true}, {"idx": 1, "lat": 38.9422613038, "lon": -92.318097815, "current": false}, {"idx": 2, "lat": 38.9423162156, "lon": -92.318097815, "current": false}, {"idx": 3, "lat": 38.9423278844, "lon": -92.318097815, "current": false}, {"idx": 4, "lat": 38.942382796, "lon": -92.318097815, "current": false}, {"idx": 5, "lat": 38.942394465, "lon": -92.318097815, "current": false}, {"idx": 6, "lat": 38.942449377, "lon": -92.318097815, "current": false}], "waiting_at_wp": false, "waiting_wp_idx": null, "pause_mode": "all", "imu_raw": {"type": "imu_frame", "version": 1, "rot": {"qi": 0.012, "qj": -0.006, "qk": -0.836, "qr": 0.549}, "euler": {"roll": 1.33, "pitch": 0.77, "yaw": 252.02, "north_offset_deg": 5.4457}, "hz": 47.7, "heading": {"raw": 353.454, "deg": 358.9, "dir": "N"}, "ts": 810176, "game_rot": {"qi": 0.011, "qj": 0.007, "qk": 0.057, "qr": 0.998}, "accel": {"x": -0.1, "y": 0.25, "z": 9.88}, "lin_accel": {"x": 0.02, "y": 0.01, "z": 0.01}, "gravity": {"x": -0.12, "y": 0.23, "z": 9.88}, "gyro": {"x": 0.0, "y": 0.0, "z": 0.0}, "mag": {"x": -2.4, "y": -1.2, "z": 10.5}, "steps": 0, "cal": 0}, "rtk_raw": {"type": "rtk_frame", "version": 1, "lat": 38.94224750666667, "lon": -92.31809804333334, "alt": 231.196, "fix_quality": 5, "num_sats": 16, "hdop": 1.1, "speed_knots": 0.04, "track_deg": 356.04, "rtk_ts": 1777769711.6601448, "server_ts": 1777769711.9112, "source": "rtk"}}
{"type": "autonav_status", "version": 1, "state": "idle", "current_wp_idx": 0, "total_wp": 27, "heading_deg": 358.9, "target_bearing_deg": 4.8, "bearing_error_deg": 5.9, "dist_to_wp_m": 0.24, "linear": 0.0, "angular": 0.0, "gps_age_s": 0.01, "gps_packet_age_s": 0.01, "gps_fix_quality": 5, "sensor_block_reason": null, "imu_age_s": 0.0, "speed_ratio": 1.0, "manual_speed": 0.4, "calib": {"mark": {"lat": 38.942250015, "lon": -92.31809810166666}, "offset_applied": 5.44567531067338}, "waypoints_window": [{"idx": 0, "lat": 38.942249635, "lon": -92.318097815, "current": true}, {"idx": 1, "lat": 38.9422613038, "lon": -92.318097815, "current": false}, {"idx": 2, "lat": 38.9423162156, "lon": -92.318097815, "current": false}, {"idx": 3, "lat": 38.9423278844, "lon": -92.318097815, "current": false}, {"idx": 4, "lat": 38.942382796, "lon": -92.318097815, "current": false}, {"idx": 5, "lat": 38.942394465, "lon": -92.318097815, "current": false}, {"idx": 6, "lat": 38.942449377, "lon": -92.318097815, "current": false}], "waiting_at_wp": false, "waiting_wp_idx": null, "pause_mode": "all", "imu_raw": {"type": "imu_frame", "version": 1, "rot": {"qi": 0.012, "qj": -0.006, "qk": -0.836, "qr": 0.549}, "euler": {"roll": 1.33, "pitch": 0.77, "yaw": 252.02, "north_offset_deg": 5.4457}, "hz": 47.5, "heading": {"raw": 353.454, "deg": 358.9, "dir": "N"}, "ts": 810387, "game_rot": {"qi": 0.011, "qj": 0.007, "qk": 0.057, "qr": 0.998}, "accel": {"x": -0.14, "y": 0.25, "z": 9.88}, "lin_accel": {"x": -0.01, "y": 0.01, "z": 0.01}, "gravity": {"x": -0.12, "y": 0.23, "z": 9.88}, "gyro": {"x": 0.0, "y": 0.0, "z": 0.0}, "mag": {"x": -3.1, "y": -2.4, "z": 10.1}, "steps": 0, "cal": 0}, "rtk_raw": {"type": "rtk_frame", "version": 1, "lat": 38.94224750666667, "lon": -92.31809804333334, "alt": 231.196, "fix_quality": 5, "num_sats": 16, "hdop": 1.1, "speed_knots": 0.04, "track_deg": 356.04, "rtk_ts": 1777769711.6601448, "server_ts": 1777769712.112298, "source": "rtk"}}
{"type": "autonav_status", "version": 1, "state": "idle", "current_wp_idx": 0, "total_wp": 27, "heading_deg": 358.9, "target_bearing_deg": 4.8, "bearing_error_deg": 5.9, "dist_to_wp_m": 0.24, "linear": 0.0, "angular": 0.0, "gps_age_s": 0.02, "gps_packet_age_s": 0.02, "gps_fix_quality": 5, "sensor_block_reason": null, "imu_age_s": 0.02, "speed_ratio": 1.0, "manual_speed": 0.4, "calib": {"mark": {"lat": 38.942250015, "lon": -92.31809810166666}, "offset_applied": 5.44567531067338}, "waypoints_window": [{"idx": 0, "lat": 38.942249635, "lon": -92.318097815, "current": true}, {"idx": 1, "lat": 38.9422613038, "lon": -92.318097815, "current": false}, {"idx": 2, "lat": 38.9423162156, "lon": -92.318097815, "current": false}, {"idx": 3, "lat": 38.9423278844, "lon": -92.318097815, "current": false}, {"idx": 4, "lat": 38.942382796, "lon": -92.318097815, "current": false}, {"idx": 5, "lat": 38.942394465, "lon": -92.318097815, "current": false}, {"idx": 6, "lat": 38.942449377, "lon": -92.318097815, "current": false}], "waiting_at_wp": false, "waiting_wp_idx": null, "pause_mode": "all", "imu_raw": {"type": "imu_frame", "version": 1, "rot": {"qi": 0.012, "qj": -0.006, "qk": -0.836, "qr": 0.549}, "euler": {"roll": 1.33, "pitch": 0.77, "yaw": 252.02, "north_offset_deg": 5.4457}, "hz": 47.6, "heading": {"raw": 353.454, "deg": 358.9, "dir": "N"}, "ts": 810576, "game_rot": {"qi": 0.011, "qj": 0.007, "qk": 0.057, "qr": 0.998}, "accel": {"x": -0.1, "y": 0.25, "z": 9.84}, "lin_accel": {"x": 0.02, "y": 0.01, "z": -0.03}, "gravity": {"x": -0.12, "y": 0.23, "z": 9.88}, "gyro": {"x": 0.0, "y": 0.0, "z": 0.0}, "mag": {"x": -3.4, "y": -2.1, "z": 9.7}, "steps": 0, "cal": 0}, "rtk_raw": {"type": "rtk_frame", "version": 1, "lat": 38.94224750666667, "lon": -92.31809804333334, "alt": 231.196, "fix_quality": 5, "num_sats": 16, "hdop": 1.1, "speed_knots": 0.04, "track_deg": 356.04, "rtk_ts": 1777769711.6601448, "server_ts": 1777769712.3127072, "source": "rtk"}}
{"type": "autonav_status", "version": 1, "state": "idle", "current_wp_idx": 0, "total_wp": 27, "heading_deg": 358.9, "target_bearing_deg": 4.8, "bearing_error_deg": 5.9, "dist_to_wp_m": 0.24, "linear": 0.0, "angular": 0.0, "gps_age_s": 0.01, "gps_packet_age_s": 0.01, "gps_fix_quality": 5, "sensor_block_reason": null, "imu_age_s": 0.01, "speed_ratio": 1.0, "manual_speed": 0.4, "calib": {"mark": {"lat": 38.942250015, "lon": -92.31809810166666}, "offset_applied": 5.44567531067338}, "waypoints_window": [{"idx": 0, "lat": 38.942249635, "lon": -92.318097815, "current": true}, {"idx": 1, "lat": 38.9422613038, "lon": -92.318097815, "current": false}, {"idx": 2, "lat": 38.9423162156, "lon": -92.318097815, "current": false}, {"idx": 3, "lat": 38.9423278844, "lon": -92.318097815, "current": false}, {"idx": 4, "lat": 38.942382796, "lon": -92.318097815, "current": false}, {"idx": 5, "lat": 38.942394465, "lon": -92.318097815, "current": false}, {"idx": 6, "lat": 38.942449377, "lon": -92.318097815, "current": false}], "waiting_at_wp": false, "waiting_wp_idx": null, "pause_mode": "all", "imu_raw": {"type": "imu_frame", "version": 1, "rot": {"qi": 0.012, "qj": -0.006, "qk": -0.836, "qr": 0.549}, "euler": {"roll": 1.33, "pitch": 0.77, "yaw": 252.02, "north_offset_deg": 5.4457}, "hz": 47.9, "heading": {"raw": 353.454, "deg": 358.9, "dir": "N"}, "ts": 810779, "game_rot": {"qi": 0.011, "qj": 0.007, "qk": 0.057, "qr": 0.998}, "accel": {"x": -0.1, "y": 0.25, "z": 9.88}, "lin_accel": {"x": 0.02, "y": 0.01, "z": 0.01}, "gravity": {"x": -0.12, "y": 0.23, "z": 9.88}, "gyro": {"x": 0.0, "y": 0.0, "z": 0.0}, "mag": {"x": -3.4, "y": -1.8, "z": 9.3}, "steps": 0, "cal": 0}, "rtk_raw": {"type": "rtk_frame", "version": 1, "lat": 38.94224750666667, "lon": -92.31809804333334, "alt": 231.196, "fix_quality": 5, "num_sats": 16, "hdop": 1.1, "speed_knots": 0.04, "track_deg": 356.04, "rtk_ts": 1777769711.6601448, "server_ts": 1777769712.513886, "source": "rtk"}}
{"type": "autonav_status", "version": 1, "state": "idle", "current_wp_idx": 0, "total_wp": 27, "heading_deg": 358.9, "target_bearing_deg": 4.5, "bearing_error_deg": 5.6, "dist_to_wp_m": 0.24, "linear": 0.0, "angular": 0.0, "gps_age_s": 0.01, "gps_packet_age_s": 0.01, "gps_fix_quality": 5, "sensor_block_reason": null, "imu_age_s": 0.0, "speed_ratio": 1.0, "manual_speed": 0.4, "calib": {"mark": {"lat": 38.942250015, "lon": -92.31809810166666}, "offset_applied": 5.44567531067338}, "waypoints_window": [{"idx": 0, "lat": 38.942249635, "lon": -92.318097815, "current": true}, {"idx": 1, "lat": 38.9422613038, "lon": -92.318097815, "current": false}, {"idx": 2, "lat": 38.9423162156, "lon": -92.318097815, "current": false}, {"idx": 3, "lat": 38.9423278844, "lon": -92.318097815, "current": false}, {"idx": 4, "lat": 38.942382796, "lon": -92.318097815, "current": false}, {"idx": 5, "lat": 38.942394465, "lon": -92.318097815, "current": false}, {"idx": 6, "lat": 38.942449377, "lon": -92.318097815, "current": false}], "waiting_at_wp": false, "waiting_wp_idx": null, "pause_mode": "all", "imu_raw": {"type": "imu_frame", "version": 1, "rot": {"qi": 0.012, "qj": -0.006, "qk": -0.836, "qr": 0.549}, "euler": {"roll": 1.33, "pitch": 0.77, "yaw": 252.02, "north_offset_deg": 5.4457}, "hz": 47.9, "heading": {"raw": 353.454, "deg": 358.9, "dir": "N"}, "ts": 810988, "game_rot": {"qi": 0.011, "qj": 0.007, "qk": 0.057, "qr": 0.998}, "accel": {"x": -0.14, "y": 0.25, "z": 9.88}, "lin_accel": {"x": -0.01, "y": 0.01, "z": 0.01}, "gravity": {"x": -0.12, "y": 0.23, "z": 9.88}, "gyro": {"x": 0.0, "y": 0.0, "z": 0.0}, "mag": {"x": -4.1, "y": -1.4, "z": 8.9}, "steps": 0, "cal": 0}, "rtk_raw": {"type": "rtk_frame", "version": 1, "lat": 38.94224749833333, "lon": -92.31809803333333, "alt": 231.205, "fix_quality": 5, "num_sats": 16, "hdop": 1.0, "speed_knots": 0.02, "track_deg": 356.04, "rtk_ts": 1777769712.6303492, "server_ts": 1777769712.714985, "source": "rtk"}}
{"type": "autonav_status", "version": 1, "state": "idle", "current_wp_idx": 0, "total_wp": 27, "heading_deg": 358.9, "target_bearing_deg": 4.5, "bearing_error_deg": 5.6, "dist_to_wp_m": 0.24, "linear": 0.0, "angular": 0.0, "gps_age_s": 0.01, "gps_packet_age_s": 0.01, "gps_fix_quality": 5, "sensor_block_reason": null, "imu_age_s": 0.02, "speed_ratio": 1.0, "manual_speed": 0.4, "calib": {"mark": {"lat": 38.942250015, "lon": -92.31809810166666}, "offset_applied": 5.44567531067338}, "waypoints_window": [{"idx": 0, "lat": 38.942249635, "lon": -92.318097815, "current": true}, {"idx": 1, "lat": 38.9422613038, "lon": -92.318097815, "current": false}, {"idx": 2, "lat": 38.9423162156, "lon": -92.318097815, "current": false}, {"idx": 3, "lat": 38.9423278844, "lon": -92.318097815, "current": false}, {"idx": 4, "lat": 38.942382796, "lon": -92.318097815, "current": false}, {"idx": 5, "lat": 38.942394465, "lon": -92.318097815, "current": false}, {"idx": 6, "lat": 38.942449377, "lon": -92.318097815, "current": false}], "waiting_at_wp": false, "waiting_wp_idx": null, "pause_mode": "all", "imu_raw": {"type": "imu_frame", "version": 1, "rot": {"qi": 0.012, "qj": -0.006, "qk": -0.836, "qr": 0.549}, "euler": {"roll": 1.33, "pitch": 0.77, "yaw": 252.02, "north_offset_deg": 5.4457}, "hz": 47.8, "heading": {"raw": 353.454, "deg": 358.9, "dir": "N"}, "ts": 811177, "game_rot": {"qi": 0.011, "qj": 0.007, "qk": 0.057, "qr": 0.998}, "accel": {"x": -0.14, "y": 0.21, "z": 9.88}, "lin_accel": {"x": -0.01, "y": 0.01, "z": 0.01}, "gravity": {"x": -0.12, "y": 0.23, "z": 9.88}, "gyro": {"x": 0.0, "y": 0.0, "z": 0.0}, "mag": {"x": -3.4, "y": -2.1, "z": 9.7}, "steps": 0, "cal": 0}, "rtk_raw": {"type": "rtk_frame", "version": 1, "lat": 38.94224749833333, "lon": -92.31809803333333, "alt": 231.205, "fix_quality": 5, "num_sats": 16, "hdop": 1.0, "speed_knots": 0.02, "track_deg": 356.04, "rtk_ts": 1777769712.6303492, "server_ts": 1777769712.916022, "source": "rtk"}}
{"type": "autonav_status", "version": 1, "state": "idle", "current_wp_idx": 0, "total_wp": 27, "heading_deg": 358.9, "target_bearing_deg": 4.5, "bearing_error_deg": 5.6, "dist_to_wp_m": 0.24, "linear": 0.0, "angular": 0.0, "gps_age_s": 0.02, "gps_packet_age_s": 0.02, "gps_fix_quality": 5, "sensor_block_reason": null, "imu_age_s": 0.02, "speed_ratio": 1.0, "manual_speed": 0.4, "calib": {"mark": {"lat": 38.942250015, "lon": -92.31809810166666}, "offset_applied": 5.44567531067338}, "waypoints_window": [{"idx": 0, "lat": 38.942249635, "lon": -92.318097815, "current": true}, {"idx": 1, "lat": 38.9422613038, "lon": -92.318097815, "current": false}, {"idx": 2, "lat": 38.9423162156, "lon": -92.318097815, "current": false}, {"idx": 3, "lat": 38.9423278844, "lon": -92.318097815, "current": false}, {"idx": 4, "lat": 38.942382796, "lon": -92.318097815, "current": false}, {"idx": 5, "lat": 38.942394465, "lon": -92.318097815, "current": false}, {"idx": 6, "lat": 38.942449377, "lon": -92.318097815, "current": false}], "waiting_at_wp": false, "waiting_wp_idx": null, "pause_mode": "all", "imu_raw": {"type": "imu_frame", "version": 1, "rot": {"qi": 0.012, "qj": -0.006, "qk": -0.836, "qr": 0.549}, "euler": {"roll": 1.33, "pitch": 0.77, "yaw": 252.02, "north_offset_deg": 5.4457}, "hz": 48.4, "heading": {"raw": 353.454, "deg": 358.9, "dir": "N"}, "ts": 811379, "game_rot": {"qi": 0.011, "qj": 0.007, "qk": 0.057, "qr": 0.998}, "accel": {"x": -0.14, "y": 0.21, "z": 9.88}, "lin_accel": {"x": -0.01, "y": -0.03, "z": 0.01}, "gravity": {"x": -0.12, "y": 0.23, "z": 9.88}, "gyro": {"x": 0.0, "y": 0.0, "z": 0.0}, "mag": {"x": -2.8, "y": -2.5, "z": 9.2}, "steps": 0, "cal": 0}, "rtk_raw": {"type": "rtk_frame", "version": 1, "lat": 38.94224749833333, "lon": -92.31809803333333, "alt": 231.205, "fix_quality": 5, "num_sats": 16, "hdop": 1.0, "speed_knots": 0.02, "track_deg": 356.04, "rtk_ts": 1777769712.6303492, "server_ts": 1777769713.11626, "source": "rtk"}}
{"type": "autonav_status", "version": 1, "state": "idle", "current_wp_idx": 0, "total_wp": 27, "heading_deg": 358.9, "target_bearing_deg": 4.5, "bearing_error_deg": 5.6, "dist_to_wp_m": 0.24, "linear": 0.0, "angular": 0.0, "gps_age_s": 0.02, "gps_packet_age_s": 0.02, "gps_fix_quality": 5, "sensor_block_reason": null, "imu_age_s": 0.01, "speed_ratio": 1.0, "manual_speed": 0.4, "calib": {"mark": {"lat": 38.942250015, "lon": -92.31809810166666}, "offset_applied": 5.44567531067338}, "waypoints_window": [{"idx": 0, "lat": 38.942249635, "lon": -92.318097815, "current": true}, {"idx": 1, "lat": 38.9422613038, "lon": -92.318097815, "current": false}, {"idx": 2, "lat": 38.9423162156, "lon": -92.318097815, "current": false}, {"idx": 3, "lat": 38.9423278844, "lon": -92.318097815, "current": false}, {"idx": 4, "lat": 38.942382796, "lon": -92.318097815, "current": false}, {"idx": 5, "lat": 38.942394465, "lon": -92.318097815, "current": false}, {"idx": 6, "lat": 38.942449377, "lon": -92.318097815, "current": false}], "waiting_at_wp": false, "waiting_wp_idx": null, "pause_mode": "all", "imu_raw": {"type": "imu_frame", "version": 1, "rot": {"qi": 0.012, "qj": -0.006, "qk": -0.836, "qr": 0.549}, "euler": {"roll": 1.33, "pitch": 0.77, "yaw": 252.02, "north_offset_deg": 5.4457}, "hz": 48.5, "heading": {"raw": 353.454, "deg": 358.9, "dir": "N"}, "ts": 811587, "game_rot": {"qi": 0.011, "qj": 0.007, "qk": 0.057, "qr": 0.998}, "accel": {"x": -0.1, "y": 0.25, "z": 9.93}, "lin_accel": {"x": 0.02, "y": 0.01, "z": 0.05}, "gravity": {"x": -0.12, "y": 0.23, "z": 9.88}, "gyro": {"x": 0.0, "y": 0.0, "z": 0.0}, "mag": {"x": -3.4, "y": -2.5, "z": 9.2}, "steps": 0, "cal": 0}, "rtk_raw": {"type": "rtk_frame", "version": 1, "lat": 38.94224749833333, "lon": -92.31809803333333, "alt": 231.205, "fix_quality": 5, "num_sats": 16, "hdop": 1.0, "speed_knots": 0.02, "track_deg": 356.04, "rtk_ts": 1777769712.6303492, "server_ts": 1777769713.316611, "source": "rtk"}}
{"type": "autonav_status", "version": 1, "state": "idle", "current_wp_idx": 0, "total_wp": 27, "heading_deg": 358.9, "target_bearing_deg": 4.5, "bearing_error_deg": 5.6, "dist_to_wp_m": 0.24, "linear": 0.0, "angular": 0.0, "gps_age_s": 0.02, "gps_packet_age_s": 0.02, "gps_fix_quality": 5, "sensor_block_reason": null, "imu_age_s": 0.0, "speed_ratio": 1.0, "manual_speed": 0.4, "calib": {"mark": {"lat": 38.942250015, "lon": -92.31809810166666}, "offset_applied": 5.44567531067338}, "waypoints_window": [{"idx": 0, "lat": 38.942249635, "lon": -92.318097815, "current": true}, {"idx": 1, "lat": 38.9422613038, "lon": -92.318097815, "current": false}, {"idx": 2, "lat": 38.9423162156, "lon": -92.318097815, "current": false}, {"idx": 3, "lat": 38.9423278844, "lon": -92.318097815, "current": false}, {"idx": 4, "lat": 38.942382796, "lon": -92.318097815, "current": false}, {"idx": 5, "lat": 38.942394465, "lon": -92.318097815, "current": false}, {"idx": 6, "lat": 38.942449377, "lon": -92.318097815, "current": false}], "waiting_at_wp": false, "waiting_wp_idx": null, "pause_mode": "all", "imu_raw": {"type": "imu_frame", "version": 1, "rot": {"qi": 0.012, "qj": -0.006, "qk": -0.836, "qr": 0.549}, "euler": {"roll": 1.33, "pitch": 0.77, "yaw": 252.02, "north_offset_deg": 5.4457}, "hz": 48.2, "heading": {"raw": 353.454, "deg": 358.9, "dir": "N"}, "ts": 811795, "game_rot": {"qi": 0.011, "qj": 0.007, "qk": 0.057, "qr": 0.998}, "accel": {"x": -0.1, "y": 0.25, "z": 9.84}, "lin_accel": {"x": 0.02, "y": 0.01, "z": -0.03}, "gravity": {"x": -0.12, "y": 0.23, "z": 9.88}, "gyro": {"x": 0.0, "y": 0.0, "z": 0.0}, "mag": {"x": -3.8, "y": -2.1, "z": 9.7}, "steps": 0, "cal": 0}, "rtk_raw": {"type": "rtk_frame", "version": 1, "lat": 38.94224749833333, "lon": -92.31809803333333, "alt": 231.205, "fix_quality": 5, "num_sats": 16, "hdop": 1.0, "speed_knots": 0.02, "track_deg": 356.04, "rtk_ts": 1777769712.6303492, "server_ts": 1777769713.51771, "source": "rtk"}}
{"type": "autonav_status", "version": 1, "state": "idle", "current_wp_idx": 0, "total_wp": 27, "heading_deg": 358.9, "target_bearing_deg": 3.4, "bearing_error_deg": 4.5, "dist_to_wp_m": 0.24, "linear": 0.0, "angular": 0.0, "gps_age_s": 0.01, "gps_packet_age_s": 0.01, "gps_fix_quality": 5, "sensor_block_reason": null, "imu_age_s": 0.01, "speed_ratio": 1.0, "manual_speed": 0.4, "calib": {"mark": {"lat": 38.942250015, "lon": -92.31809810166666}, "offset_applied": 5.44567531067338}, "waypoints_window": [{"idx": 0, "lat": 38.942249635, "lon": -92.318097815, "current": true}, {"idx": 1, "lat": 38.9422613038, "lon": -92.318097815, "current": false}, {"idx": 2, "lat": 38.9423162156, "lon": -92.318097815, "current": false}, {"idx": 3, "lat": 38.9423278844, "lon": -92.318097815, "current": false}, {"idx": 4, "lat": 38.942382796, "lon": -92.318097815, "current": false}, {"idx": 5, "lat": 38.942394465, "lon": -92.318097815, "current": false}, {"idx": 6, "lat": 38.942449377, "lon": -92.318097815, "current": false}], "waiting_at_wp": false, "waiting_wp_idx": null, "pause_mode": "all", "imu_raw": {"type": "imu_frame", "version": 1, "rot": {"qi": 0.012, "qj": -0.006, "qk": -0.836, "qr": 0.549}, "euler": {"roll": 1.33, "pitch": 0.77, "yaw": 252.02, "north_offset_deg": 5.4457}, "hz": 48.0, "heading": {"raw": 353.454, "deg": 358.9, "dir": "N"}, "ts": 811988, "game_rot": {"qi": 0.011, "qj": 0.007, "qk": 0.057, "qr": 0.998}, "accel": {"x": -0.14, "y": 0.25, "z": 9.88}, "lin_accel": {"x": -0.01, "y": 0.01, "z": -0.03}, "gravity": {"x": -0.12, "y": 0.23, "z": 9.87}, "gyro": {"x": 0.0, "y": 0.0, "z": 0.0}, "mag": {"x": -3.4, "y": -2.8, "z": 9.6}, "steps": 0, "cal": 0}, "rtk_raw": {"type": "rtk_frame", "version": 1, "lat": 38.942247495, "lon": -92.31809797833333, "alt": 231.201, "fix_quality": 5, "num_sats": 15, "hdop": 1.0, "speed_knots": 0.04, "track_deg": 356.04, "rtk_ts": 1777769713.6445608, "server_ts": 1777769713.7184699, "source": "rtk"}}
{"type": "autonav_status", "version": 1, "state": "idle", "current_wp_idx": 0, "total_wp": 27, "heading_deg": 358.9, "target_bearing_deg": 3.4, "bearing_error_deg": 4.5, "dist_to_wp_m": 0.24, "linear": 0.0, "angular": 0.0, "gps_age_s": 0.01, "gps_packet_age_s": 0.01, "gps_fix_quality": 5, "sensor_block_reason": null, "imu_age_s": 0.02, "speed_ratio": 1.0, "manual_speed": 0.4, "calib": {"mark": {"lat": 38.942250015, "lon": -92.31809810166666}, "offset_applied": 5.44567531067338}, "waypoints_window": [{"idx": 0, "lat": 38.942249635, "lon": -92.318097815, "current": true}, {"idx": 1, "lat": 38.9422613038, "lon": -92.318097815, "current": false}, {"idx": 2, "lat": 38.9423162156, "lon": -92.318097815, "current": false}, {"idx": 3, "lat": 38.9423278844, "lon": -92.318097815, "current": false}, {"idx": 4, "lat": 38.942382796, "lon": -92.318097815, "current": false}, {"idx": 5, "lat": 38.942394465, "lon": -92.318097815, "current": false}, {"idx": 6, "lat": 38.942449377, "lon": -92.318097815, "current": false}], "waiting_at_wp": false, "waiting_wp_idx": null, "pause_mode": "all", "imu_raw": {"type": "imu_frame", "version": 1, "rot": {"qi": 0.012, "qj": -0.006, "qk": -0.836, "qr": 0.549}, "euler": {"roll": 1.33, "pitch": 0.77, "yaw": 252.02, "north_offset_deg": 5.4457}, "hz": 48.1, "heading": {"raw": 353.454, "deg": 358.9, "dir": "N"}, "ts": 812175, "game_rot": {"qi": 0.011, "qj": 0.007, "qk": 0.057, "qr": 0.998}, "accel": {"x": -0.1, "y": 0.25, "z": 9.88}, "lin_accel": {"x": -0.01, "y": 0.01, "z": -0.03}, "gravity": {"x": -0.12, "y": 0.23, "z": 9.88}, "gyro": {"x": 0.0, "y": 0.0, "z": 0.0}, "mag": {"x": -3.8, "y": -2.6, "z": 8.4}, "steps": 0, "cal": 0}, "rtk_raw": {"type": "rtk_frame", "version": 1, "lat": 38.942247495, "lon": -92.31809797833333, "alt": 231.201, "fix_quality": 5, "num_sats": 15, "hdop": 1.0, "speed_knots": 0.04, "track_deg": 356.04, "rtk_ts": 1777769713.6445608, "server_ts": 1777769713.9195788, "source": "rtk"}}
{"type": "autonav_status", "version": 1, "state": "idle", "current_wp_idx": 0, "total_wp": 27, "heading_deg": 358.9, "target_bearing_deg": 3.4, "bearing_error_deg": 4.5, "dist_to_wp_m": 0.24, "linear": 0.0, "angular": 0.0, "gps_age_s": 0.01, "gps_packet_age_s": 0.01, "gps_fix_quality": 5, "sensor_block_reason": null, "imu_age_s": 0.01, "speed_ratio": 1.0, "manual_speed": 0.4, "calib": {"mark": {"lat": 38.942250015, "lon": -92.31809810166666}, "offset_applied": 5.44567531067338}, "waypoints_window": [{"idx": 0, "lat": 38.942249635, "lon": -92.318097815, "current": true}, {"idx": 1, "lat": 38.9422613038, "lon": -92.318097815, "current": false}, {"idx": 2, "lat": 38.9423162156, "lon": -92.318097815, "current": false}, {"idx": 3, "lat": 38.9423278844, "lon": -92.318097815, "current": false}, {"idx": 4, "lat": 38.942382796, "lon": -92.318097815, "current": false}, {"idx": 5, "lat": 38.942394465, "lon": -92.318097815, "current": false}, {"idx": 6, "lat": 38.942449377, "lon": -92.318097815, "current": false}], "waiting_at_wp": false, "waiting_wp_idx": null, "pause_mode": "all", "imu_raw": {"type": "imu_frame", "version": 1, "rot": {"qi": 0.012, "qj": -0.006, "qk": -0.836, "qr": 0.549}, "euler": {"roll": 1.33, "pitch": 0.77, "yaw": 252.02, "north_offset_deg": 5.4457}, "hz": 47.6, "heading": {"raw": 353.454, "deg": 358.9, "dir": "N"}, "ts": 812389, "game_rot": {"qi": 0.011, "qj": 0.007, "qk": 0.057, "qr": 0.998}, "accel": {"x": -0.14, "y": 0.25, "z": 9.88}, "lin_accel": {"x": -0.01, "y": 0.01, "z": 0.01}, "gravity": {"x": -0.12, "y": 0.23, "z": 9.88}, "gyro": {"x": 0.0, "y": 0.0, "z": 0.0}, "mag": {"x": -3.8, "y": -2.6, "z": 9.2}, "steps": 0, "cal": 0}, "rtk_raw": {"type": "rtk_frame", "version": 1, "lat": 38.942247495, "lon": -92.31809797833333, "alt": 231.201, "fix_quality": 5, "num_sats": 15, "hdop": 1.0, "speed_knots": 0.04, "track_deg": 356.04, "rtk_ts": 1777769713.6445608, "server_ts": 1777769714.120738, "source": "rtk"}}
{"type": "autonav_status", "version": 1, "state": "idle", "current_wp_idx": 0, "total_wp": 27, "heading_deg": 358.9, "target_bearing_deg": 3.4, "bearing_error_deg": 4.5, "dist_to_wp_m": 0.24, "linear": 0.0, "angular": 0.0, "gps_age_s": 0.02, "gps_packet_age_s": 0.02, "gps_fix_quality": 5, "sensor_block_reason": null, "imu_age_s": 0.02, "speed_ratio": 1.0, "manual_speed": 0.4, "calib": {"mark": {"lat": 38.942250015, "lon": -92.31809810166666}, "offset_applied": 5.44567531067338}, "waypoints_window": [{"idx": 0, "lat": 38.942249635, "lon": -92.318097815, "current": true}, {"idx": 1, "lat": 38.9422613038, "lon": -92.318097815, "current": false}, {"idx": 2, "lat": 38.9423162156, "lon": -92.318097815, "current": false}, {"idx": 3, "lat": 38.9423278844, "lon": -92.318097815, "current": false}, {"idx": 4, "lat": 38.942382796, "lon": -92.318097815, "current": false}, {"idx": 5, "lat": 38.942394465, "lon": -92.318097815, "current": false}, {"idx": 6, "lat": 38.942449377, "lon": -92.318097815, "current": false}], "waiting_at_wp": false, "waiting_wp_idx": null, "pause_mode": "all", "imu_raw": {"type": "imu_frame", "version": 1, "rot": {"qi": 0.012, "qj": -0.006, "qk": -0.836, "qr": 0.549}, "euler": {"roll": 1.33, "pitch": 0.77, "yaw": 252.02, "north_offset_deg": 5.4457}, "hz": 47.4, "heading": {"raw": 353.454, "deg": 358.9, "dir": "N"}, "ts": 812580, "game_rot": {"qi": 0.011, "qj": 0.007, "qk": 0.057, "qr": 0.998}, "accel": {"x": -0.1, "y": 0.25, "z": 9.88}, "lin_accel": {"x": 0.02, "y": 0.01, "z": 0.01}, "gravity": {"x": -0.12, "y": 0.23, "z": 9.88}, "gyro": {"x": 0.0, "y": 0.0, "z": 0.0}, "mag": {"x": -3.1, "y": -1.8, "z": 9.7}, "steps": 0, "cal": 0}, "rtk_raw": {"type": "rtk_frame", "version": 1, "lat": 38.942247495, "lon": -92.31809797833333, "alt": 231.201, "fix_quality": 5, "num_sats": 15, "hdop": 1.0, "speed_knots": 0.04, "track_deg": 356.04, "rtk_ts": 1777769713.6445608, "server_ts": 1777769714.320864, "source": "rtk"}}
{"type": "autonav_status", "version": 1, "state": "idle", "current_wp_idx": 0, "total_wp": 27, "heading_deg": 358.9, "target_bearing_deg": 3.4, "bearing_error_deg": 4.5, "dist_to_wp_m": 0.24, "linear": 0.0, "angular": 0.0, "gps_age_s": 0.02, "gps_packet_age_s": 0.02, "gps_fix_quality": 5, "sensor_block_reason": null, "imu_age_s": 0.02, "speed_ratio": 1.0, "manual_speed": 0.4, "calib": {"mark": {"lat": 38.942250015, "lon": -92.31809810166666}, "offset_applied": 5.44567531067338}, "waypoints_window": [{"idx": 0, "lat": 38.942249635, "lon": -92.318097815, "current": true}, {"idx": 1, "lat": 38.9422613038, "lon": -92.318097815, "current": false}, {"idx": 2, "lat": 38.9423162156, "lon": -92.318097815, "current": false}, {"idx": 3, "lat": 38.9423278844, "lon": -92.318097815, "current": false}, {"idx": 4, "lat": 38.942382796, "lon": -92.318097815, "current": false}, {"idx": 5, "lat": 38.942394465, "lon": -92.318097815, "current": false}, {"idx": 6, "lat": 38.942449377, "lon": -92.318097815, "current": false}], "waiting_at_wp": false, "waiting_wp_idx": null, "pause_mode": "all", "imu_raw": {"type": "imu_frame", "version": 1, "rot": {"qi": 0.012, "qj": -0.006, "qk": -0.836, "qr": 0.549}, "euler": {"roll": 1.33, "pitch": 0.77, "yaw": 252.02, "north_offset_deg": 5.4457}, "hz": 47.5, "heading": {"raw": 353.454, "deg": 358.9, "dir": "N"}, "ts": 812786, "game_rot": {"qi": 0.011, "qj": 0.007, "qk": 0.057, "qr": 0.998}, "accel": {"x": -0.14, "y": 0.21, "z": 9.88}, "lin_accel": {"x": -0.01, "y": -0.03, "z": 0.01}, "gravity": {"x": -0.12, "y": 0.23, "z": 9.88}, "gyro": {"x": 0.0, "y": 0.0, "z": 0.0}, "mag": {"x": -2.7, "y": -1.3, "z": 9.8}, "steps": 0, "cal": 0}, "rtk_raw": {"type": "rtk_frame", "version": 1, "lat": 38.942247495, "lon": -92.31809797833333, "alt": 231.201, "fix_quality": 5, "num_sats": 15, "hdop": 1.0, "speed_knots": 0.04, "track_deg": 356.04, "rtk_ts": 1777769713.6445608, "server_ts": 1777769714.521985, "source": "rtk"}}
{"type": "autonav_status", "version": 1, "state": "idle", "current_wp_idx": 0, "total_wp": 27, "heading_deg": 358.9, "target_bearing_deg": 3.3, "bearing_error_deg": 4.4, "dist_to_wp_m": 0.23, "linear": 0.0, "angular": 0.0, "gps_age_s": 0.02, "gps_packet_age_s": 0.02, "gps_fix_quality": 5, "sensor_block_reason": null, "imu_age_s": 0.01, "speed_ratio": 1.0, "manual_speed": 0.4, "calib": {"mark": {"lat": 38.942250015, "lon": -92.31809810166666}, "offset_applied": 5.44567531067338}, "waypoints_window": [{"idx": 0, "lat": 38.942249635, "lon": -92.318097815, "current": true}, {"idx": 1, "lat": 38.9422613038, "lon": -92.318097815, "current": false}, {"idx": 2, "lat": 38.9423162156, "lon": -92.318097815, "current": false}, {"idx": 3, "lat": 38.9423278844, "lon": -92.318097815, "current": false}, {"idx": 4, "lat": 38.942382796, "lon": -92.318097815, "current": false}, {"idx": 5, "lat": 38.942394465, "lon": -92.318097815, "current": false}, {"idx": 6, "lat": 38.942449377, "lon": -92.318097815, "current": false}], "waiting_at_wp": false, "waiting_wp_idx": null, "pause_mode": "all", "imu_raw": {"type": "imu_frame", "version": 1, "rot": {"qi": 0.012, "qj": -0.006, "qk": -0.836, "qr": 0.549}, "euler": {"roll": 1.33, "pitch": 0.77, "yaw": 252.02, "north_offset_deg": 5.4457}, "hz": 47.9, "heading": {"raw": 353.454, "deg": 358.9, "dir": "N"}, "ts": 812990, "game_rot": {"qi": 0.011, "qj": 0.007, "qk": 0.057, "qr": 0.998}, "accel": {"x": -0.14, "y": 0.21, "z": 9.84}, "lin_accel": {"x": -0.01, "y": -0.03, "z": -0.03}, "gravity": {"x": -0.12, "y": 0.23, "z": 9.88}, "gyro": {"x": 0.0, "y": 0.0, "z": 0.0}, "mag": {"x": -3.8, "y": -2.2, "z": 9.3}, "steps": 0, "cal": 0}, "rtk_raw": {"type": "rtk_frame", "version": 1, "lat": 38.942247535, "lon": -92.31809797166666, "alt": 231.189, "fix_quality": 5, "num_sats": 15, "hdop": 1.0, "speed_knots": 0.01, "track_deg": 356.04, "rtk_ts": 1777769714.658657, "server_ts": 1777769714.722154, "source": "rtk"}}
{"type": "autonav_status", "version": 1, "state": "idle", "current_wp_idx": 0, "total_wp": 27, "heading_deg": 358.9, "target_bearing_deg": 3.3, "bearing_error_deg": 4.4, "dist_to_wp_m": 0.23, "linear": 0.0, "angular": 0.0, "gps_age_s": 0.02, "gps_packet_age_s": 0.02, "gps_fix_quality": 5, "sensor_block_reason": null, "imu_age_s": 0.0, "speed_ratio": 1.0, "manual_speed": 0.4, "calib": {"mark": {"lat": 38.942250015, "lon": -92.31809810166666}, "offset_applied": 5.44567531067338}, "waypoints_window": [{"idx": 0, "lat": 38.942249635, "lon": -92.318097815, "current": true}, {"idx": 1, "lat": 38.9422613038, "lon": -92.318097815, "current": false}, {"idx": 2, "lat": 38.9423162156, "lon": -92.318097815, "current": false}, {"idx": 3, "lat": 38.9423278844, "lon": -92.318097815, "current": false}, {"idx": 4, "lat": 38.942382796, "lon": -92.318097815, "current": false}, {"idx": 5, "lat": 38.942394465, "lon": -92.318097815, "current": false}, {"idx": 6, "lat": 38.942449377, "lon": -92.318097815, "current": false}], "waiting_at_wp": false, "waiting_wp_idx": null, "pause_mode": "all", "imu_raw": {"type": "imu_frame", "version": 1, "rot": {"qi": 0.012, "qj": -0.006, "qk": -0.836, "qr": 0.549}, "euler": {"roll": 1.33, "pitch": 0.77, "yaw": 252.02, "north_offset_deg": 5.4457}, "hz": 47.7, "heading": {"raw": 353.454, "deg": 358.9, "dir": "N"}, "ts": 813202, "game_rot": {"qi": 0.011, "qj": 0.007, "qk": 0.057, "qr": 0.998}, "accel": {"x": -0.14, "y": 0.25, "z": 9.88}, "lin_accel": {"x": -0.01, "y": 0.01, "z": 0.02}, "gravity": {"x": -0.12, "y": 0.23, "z": 9.87}, "gyro": {"x": 0.0, "y": 0.0, "z": 0.0}, "mag": {"x": -3.1, "y": -1.2, "z": 10.9}, "steps": 0, "cal": 0}, "rtk_raw": {"type": "rtk_frame", "version": 1, "lat": 38.942247535, "lon": -92.31809797166666, "alt": 231.189, "fix_quality": 5, "num_sats": 15, "hdop": 1.0, "speed_knots": 0.01, "track_deg": 356.04, "rtk_ts": 1777769714.658657, "server_ts": 1777769714.923249, "source": "rtk"}}
{"type": "autonav_status", "version": 1, "state": "idle", "current_wp_idx": 0, "total_wp": 27, "heading_deg": 358.9, "target_bearing_deg": 3.3, "bearing_error_deg": 4.4, "dist_to_wp_m": 0.23, "linear": 0.0, "angular": 0.0, "gps_age_s": 0.02, "gps_packet_age_s": 0.02, "gps_fix_quality": 5, "sensor_block_reason": null, "imu_age_s": 0.01, "speed_ratio": 1.0, "manual_speed": 0.4, "calib": {"mark": {"lat": 38.942250015, "lon": -92.31809810166666}, "offset_applied": 5.44567531067338}, "waypoints_window": [{"idx": 0, "lat": 38.942249635, "lon": -92.318097815, "current": true}, {"idx": 1, "lat": 38.9422613038, "lon": -92.318097815, "current": false}, {"idx": 2, "lat": 38.9423162156, "lon": -92.318097815, "current": false}, {"idx": 3, "lat": 38.9423278844, "lon": -92.318097815, "current": false}, {"idx": 4, "lat": 38.942382796, "lon": -92.318097815, "current": false}, {"idx": 5, "lat": 38.942394465, "lon": -92.318097815, "current": false}, {"idx": 6, "lat": 38.942449377, "lon": -92.318097815, "current": false}], "waiting_at_wp": false, "waiting_wp_idx": null, "pause_mode": "all", "imu_raw": {"type": "imu_frame", "version": 1, "rot": {"qi": 0.012, "qj": -0.006, "qk": -0.836, "qr": 0.549}, "euler": {"roll": 1.33, "pitch": 0.77, "yaw": 252.02, "north_offset_deg": 5.4457}, "hz": 47.9, "heading": {"raw": 353.454, "deg": 358.9, "dir": "N"}, "ts": 813391, "game_rot": {"qi": 0.011, "qj": 0.007, "qk": 0.057, "qr": 0.998}, "accel": {"x": -0.1, "y": 0.25, "z": 9.84}, "lin_accel": {"x": 0.02, "y": 0.01, "z": -0.03}, "gravity": {"x": -0.12, "y": 0.23, "z": 9.88}, "gyro": {"x": 0.0, "y": 0.0, "z": 0.0}, "mag": {"x": -2.8, "y": -3.2, "z": 9.6}, "steps": 0, "cal": 0}, "rtk_raw": {"type": "rtk_frame", "version": 1, "lat": 38.942247535, "lon": -92.31809797166666, "alt": 231.189, "fix_quality": 5, "num_sats": 15, "hdop": 1.0, "speed_knots": 0.01, "track_deg": 356.04, "rtk_ts": 1777769714.658657, "server_ts": 1777769715.124347, "source": "rtk"}}
{"type": "autonav_status", "version": 1, "state": "idle", "current_wp_idx": 0, "total_wp": 27, "heading_deg": 358.9, "target_bearing_deg": 3.3, "bearing_error_deg": 4.4, "dist_to_wp_m": 0.23, "linear": 0.0, "angular": 0.0, "gps_age_s": 0.02, "gps_packet_age_s": 0.02, "gps_fix_quality": 5, "sensor_block_reason": null, "imu_age_s": 0.0, "speed_ratio": 1.0, "manual_speed": 0.4, "calib": {"mark": {"lat": 38.942250015, "lon": -92.31809810166666}, "offset_applied": 5.44567531067338}, "waypoints_window": [{"idx": 0, "lat": 38.942249635, "lon": -92.318097815, "current": true}, {"idx": 1, "lat": 38.9422613038, "lon": -92.318097815, "current": false}, {"idx": 2, "lat": 38.9423162156, "lon": -92.318097815, "current": false}, {"idx": 3, "lat": 38.9423278844, "lon": -92.318097815, "current": false}, {"idx": 4, "lat": 38.942382796, "lon": -92.318097815, "current": false}, {"idx": 5, "lat": 38.942394465, "lon": -92.318097815, "current": false}, {"idx": 6, "lat": 38.942449377, "lon": -92.318097815, "current": false}], "waiting_at_wp": false, "waiting_wp_idx": null, "pause_mode": "all", "imu_raw": {"type": "imu_frame", "version": 1, "rot": {"qi": 0.012, "qj": -0.006, "qk": -0.836, "qr": 0.549}, "euler": {"roll": 1.33, "pitch": 0.77, "yaw": 252.02, "north_offset_deg": 5.4457}, "hz": 48.0, "heading": {"raw": 353.454, "deg": 358.9, "dir": "N"}, "ts": 813601, "game_rot": {"qi": 0.011, "qj": 0.007, "qk": 0.057, "qr": 0.998}, "accel": {"x": -0.1, "y": 0.25, "z": 9.88}, "lin_accel": {"x": 0.02, "y": 0.01, "z": 0.01}, "gravity": {"x": -0.12, "y": 0.23, "z": 9.88}, "gyro": {"x": 0.0, "y": 0.0, "z": 0.0}, "mag": {"x": -2.8, "y": -1.7, "z": 9.7}, "steps": 0, "cal": 0}, "rtk_raw": {"type": "rtk_frame", "version": 1, "lat": 38.942247535, "lon": -92.31809797166666, "alt": 231.189, "fix_quality": 5, "num_sats": 15, "hdop": 1.0, "speed_knots": 0.01, "track_deg": 356.04, "rtk_ts": 1777769714.658657, "server_ts": 1777769715.3250072, "source": "rtk"}}
{"type": "autonav_status", "version": 1, "state": "idle", "current_wp_idx": 0, "total_wp": 27, "heading_deg": 358.9, "target_bearing_deg": 3.3, "bearing_error_deg": 4.4, "dist_to_wp_m": 0.23, "linear": 0.0, "angular": 0.0, "gps_age_s": 0.02, "gps_packet_age_s": 0.02, "gps_fix_quality": 5, "sensor_block_reason": null, "imu_age_s": 0.0, "speed_ratio": 1.0, "manual_speed": 0.4, "calib": {"mark": {"lat": 38.942250015, "lon": -92.31809810166666}, "offset_applied": 5.44567531067338}, "waypoints_window": [{"idx": 0, "lat": 38.942249635, "lon": -92.318097815, "current": true}, {"idx": 1, "lat": 38.9422613038, "lon": -92.318097815, "current": false}, {"idx": 2, "lat": 38.9423162156, "lon": -92.318097815, "current": false}, {"idx": 3, "lat": 38.9423278844, "lon": -92.318097815, "current": false}, {"idx": 4, "lat": 38.942382796, "lon": -92.318097815, "current": false}, {"idx": 5, "lat": 38.942394465, "lon": -92.318097815, "current": false}, {"idx": 6, "lat": 38.942449377, "lon": -92.318097815, "current": false}], "waiting_at_wp": false, "waiting_wp_idx": null, "pause_mode": "all", "imu_raw": {"type": "imu_frame", "version": 1, "rot": {"qi": 0.012, "qj": -0.006, "qk": -0.836, "qr": 0.549}, "euler": {"roll": 1.33, "pitch": 0.77, "yaw": 252.02, "north_offset_deg": 5.4457}, "hz": 48.1, "heading": {"raw": 353.454, "deg": 358.9, "dir": "N"}, "ts": 813804, "game_rot": {"qi": 0.011, "qj": 0.007, "qk": 0.057, "qr": 0.998}, "accel": {"x": -0.14, "y": 0.25, "z": 9.88}, "lin_accel": {"x": -0.01, "y": 0.01, "z": 0.01}, "gravity": {"x": -0.12, "y": 0.23, "z": 9.88}, "gyro": {"x": 0.0, "y": 0.0, "z": 0.0}, "mag": {"x": -3.7, "y": -1.4, "z": 8.9}, "steps": 0, "cal": 0}, "rtk_raw": {"type": "rtk_frame", "version": 1, "lat": 38.942247535, "lon": -92.31809797166666, "alt": 231.189, "fix_quality": 5, "num_sats": 15, "hdop": 1.0, "speed_knots": 0.01, "track_deg": 356.04, "rtk_ts": 1777769714.658657, "server_ts": 1777769715.5253801, "source": "rtk"}}
{"type": "autonav_status", "version": 1, "state": "idle", "current_wp_idx": 0, "total_wp": 27, "heading_deg": 358.9, "target_bearing_deg": 2.9, "bearing_error_deg": 4.0, "dist_to_wp_m": 0.23, "linear": 0.0, "angular": 0.0, "gps_age_s": 0.02, "gps_packet_age_s": 0.02, "gps_fix_quality": 5, "sensor_block_reason": null, "imu_age_s": 0.02, "speed_ratio": 1.0, "manual_speed": 0.4, "calib": {"mark": {"lat": 38.942250015, "lon": -92.31809810166666}, "offset_applied": 5.44567531067338}, "waypoints_window": [{"idx": 0, "lat": 38.942249635, "lon": -92.318097815, "current": true}, {"idx": 1, "lat": 38.9422613038, "lon": -92.318097815, "current": false}, {"idx": 2, "lat": 38.9423162156, "lon": -92.318097815, "current": false}, {"idx": 3, "lat": 38.9423278844, "lon": -92.318097815, "current": false}, {"idx": 4, "lat": 38.942382796, "lon": -92.318097815, "current": false}, {"idx": 5, "lat": 38.942394465, "lon": -92.318097815, "current": false}, {"idx": 6, "lat": 38.942449377, "lon": -92.318097815, "current": false}], "waiting_at_wp": false, "waiting_wp_idx": null, "pause_mode": "all", "imu_raw": {"type": "imu_frame", "version": 1, "rot": {"qi": 0.012, "qj": -0.006, "qk": -0.836, "qr": 0.549}, "euler": {"roll": 1.33, "pitch": 0.77, "yaw": 252.02, "north_offset_deg": 5.4457}, "hz": 48.0, "heading": {"raw": 353.454, "deg": 358.9, "dir": "N"}, "ts": 813990, "game_rot": {"qi": 0.011, "qj": 0.007, "qk": 0.057, "qr": 0.998}, "accel": {"x": -0.14, "y": 0.25, "z": 9.88}, "lin_accel": {"x": -0.0, "y": 0.01, "z": 0.01}, "gravity": {"x": -0.13, "y": 0.23, "z": 9.88}, "gyro": {"x": 0.0, "y": 0.0, "z": 0.0}, "mag": {"x": -3.4, "y": -2.8, "z": 10.4}, "steps": 0, "cal": 0}, "rtk_raw": {"type": "rtk_frame", "version": 1, "lat": 38.94224752666667, "lon": -92.31809795, "alt": 231.191, "fix_quality": 5, "num_sats": 15, "hdop": 1.0, "speed_knots": 0.01, "track_deg": 356.04, "rtk_ts": 1777769715.6585119, "server_ts": 1777769715.72647, "source": "rtk"}}
{"type": "autonav_status", "version": 1, "state": "running", "current_wp_idx": 0, "total_wp": 27, "heading_deg": 358.9, "target_bearing_deg": 2.9, "bearing_error_deg": 4.0, "dist_to_wp_m": 0.23, "linear": 0.0, "angular": 0.0, "gps_age_s": 0.01, "gps_packet_age_s": 0.01, "gps_fix_quality": 5, "sensor_block_reason": null, "imu_age_s": 0.0, "speed_ratio": 1.0, "manual_speed": 0.4, "calib": {"mark": {"lat": 38.942250015, "lon": -92.31809810166666}, "offset_applied": 5.44567531067338}, "waypoints_window": [{"idx": 0, "lat": 38.942249635, "lon": -92.318097815, "current": true}, {"idx": 1, "lat": 38.9422613038, "lon": -92.318097815, "current": false}, {"idx": 2, "lat": 38.9423162156, "lon": -92.318097815, "current": false}, {"idx": 3, "lat": 38.9423278844, "lon": -92.318097815, "current": false}, {"idx": 4, "lat": 38.942382796, "lon": -92.318097815, "current": false}, {"idx": 5, "lat": 38.942394465, "lon": -92.318097815, "current": false}, {"idx": 6, "lat": 38.942449377, "lon": -92.318097815, "current": false}], "waiting_at_wp": true, "waiting_wp_idx": 0, "pause_mode": "all", "imu_raw": {"type": "imu_frame", "version": 1, "rot": {"qi": 0.012, "qj": -0.006, "qk": -0.836, "qr": 0.549}, "euler": {"roll": 1.33, "pitch": 0.77, "yaw": 252.02, "north_offset_deg": 5.4457}, "hz": 48.0, "heading": {"raw": 353.454, "deg": 358.9, "dir": "N"}, "ts": 814202, "game_rot": {"qi": 0.011, "qj": 0.007, "qk": 0.057, "qr": 0.998}, "accel": {"x": -0.14, "y": 0.25, "z": 9.88}, "lin_accel": {"x": -0.0, "y": 0.01, "z": 0.01}, "gravity": {"x": -0.13, "y": 0.23, "z": 9.88}, "gyro": {"x": 0.0, "y": 0.0, "z": 0.0}, "mag": {"x": -2.8, "y": -2.1, "z": 10.1}, "steps": 0, "cal": 0}, "rtk_raw": {"type": "rtk_frame", "version": 1, "lat": 38.94224752666667, "lon": -92.31809795, "alt": 231.191, "fix_quality": 5, "num_sats": 15, "hdop": 1.0, "speed_knots": 0.01, "track_deg": 356.04, "rtk_ts": 1777769715.6585119, "server_ts": 1777769715.927556, "source": "rtk"}}
{"type": "autonav_status", "version": 1, "state": "running", "current_wp_idx": 0, "total_wp": 27, "heading_deg": 358.9, "target_bearing_deg": 2.9, "bearing_error_deg": 4.0, "dist_to_wp_m": 0.23, "linear": 0.0, "angular": 0.0, "gps_age_s": 0.01, "gps_packet_age_s": 0.01, "gps_fix_quality": 5, "sensor_block_reason": null, "imu_age_s": 0.0, "speed_ratio": 1.0, "manual_speed": 0.4, "calib": {"mark": {"lat": 38.942250015, "lon": -92.31809810166666}, "offset_applied": 5.44567531067338}, "waypoints_window": [{"idx": 0, "lat": 38.942249635, "lon": -92.318097815, "current": true}, {"idx": 1, "lat": 38.9422613038, "lon": -92.318097815, "current": false}, {"idx": 2, "lat": 38.9423162156, "lon": -92.318097815, "current": false}, {"idx": 3, "lat": 38.9423278844, "lon": -92.318097815, "current": false}, {"idx": 4, "lat": 38.942382796, "lon": -92.318097815, "current": false}, {"idx": 5, "lat": 38.942394465, "lon": -92.318097815, "current": false}, {"idx": 6, "lat": 38.942449377, "lon": -92.318097815, "current": false}], "waiting_at_wp": true, "waiting_wp_idx": 0, "pause_mode": "all", "imu_raw": {"type": "imu_frame", "version": 1, "rot": {"qi": 0.012, "qj": -0.006, "qk": -0.836, "qr": 0.549}, "euler": {"roll": 1.33, "pitch": 0.77, "yaw": 252.02, "north_offset_deg": 5.4457}, "hz": 48.5, "heading": {"raw": 353.454, "deg": 358.9, "dir": "N"}, "ts": 814402, "game_rot": {"qi": 0.011, "qj": 0.007, "qk": 0.057, "qr": 0.998}, "accel": {"x": -0.1, "y": 0.25, "z": 9.88}, "lin_accel": {"x": 0.03, "y": 0.01, "z": 0.01}, "gravity": {"x": -0.13, "y": 0.23, "z": 9.88}, "gyro": {"x": 0.0, "y": 0.0, "z": 0.0}, "mag": {"x": -3.1, "y": -1.4, "z": 9.3}, "steps": 0, "cal": 0}, "rtk_raw": {"type": "rtk_frame", "version": 1, "lat": 38.94224752666667, "lon": -92.31809795, "alt": 231.191, "fix_quality": 5, "num_sats": 15, "hdop": 1.0, "speed_knots": 0.01, "track_deg": 356.04, "rtk_ts": 1777769715.6585119, "server_ts": 1777769716.1286469, "source": "rtk"}}
{"type": "autonav_status", "version": 1, "state": "running", "current_wp_idx": 0, "total_wp": 27, "heading_deg": 358.9, "target_bearing_deg": 2.9, "bearing_error_deg": 4.0, "dist_to_wp_m": 0.23, "linear": 0.0, "angular": 0.0, "gps_age_s": 0.01, "gps_packet_age_s": 0.01, "gps_fix_quality": 5, "sensor_block_reason": null, "imu_age_s": 0.02, "speed_ratio": 1.0, "manual_speed": 0.4, "calib": {"mark": {"lat": 38.942250015, "lon": -92.31809810166666}, "offset_applied": 5.44567531067338}, "waypoints_window": [{"idx": 0, "lat": 38.942249635, "lon": -92.318097815, "current": true}, {"idx": 1, "lat": 38.9422613038, "lon": -92.318097815, "current": false}, {"idx": 2, "lat": 38.9423162156, "lon": -92.318097815, "current": false}, {"idx": 3, "lat": 38.9423278844, "lon": -92.318097815, "current": false}, {"idx": 4, "lat": 38.942382796, "lon": -92.318097815, "current": false}, {"idx": 5, "lat": 38.942394465, "lon": -92.318097815, "current": false}, {"idx": 6, "lat": 38.942449377, "lon": -92.318097815, "current": false}], "waiting_at_wp": true, "waiting_wp_idx": 0, "pause_mode": "all", "imu_raw": {"type": "imu_frame", "version": 1, "rot": {"qi": 0.012, "qj": -0.006, "qk": -0.836, "qr": 0.549}, "euler": {"roll": 1.33, "pitch": 0.77, "yaw": 252.02, "north_offset_deg": 5.4457}, "hz": 48.6, "heading": {"raw": 353.454, "deg": 358.9, "dir": "N"}, "ts": 814590, "game_rot": {"qi": 0.011, "qj": 0.007, "qk": 0.057, "qr": 0.998}, "accel": {"x": -0.1, "y": 0.25, "z": 9.84}, "lin_accel": {"x": 0.02, "y": 0.02, "z": -0.03}, "gravity": {"x": -0.12, "y": 0.23, "z": 9.88}, "gyro": {"x": 0.0, "y": 0.0, "z": 0.0}, "mag": {"x": -3.4, "y": -2.6, "z": 9.2}, "steps": 0, "cal": 0}, "rtk_raw": {"type": "rtk_frame", "version": 1, "lat": 38.94224752666667, "lon": -92.31809795, "alt": 231.191, "fix_quality": 5, "num_sats": 15, "hdop": 1.0, "speed_knots": 0.01, "track_deg": 356.04, "rtk_ts": 1777769715.6585119, "server_ts": 1777769716.328851, "source": "rtk"}}
{"type": "autonav_status", "version": 1, "state": "running", "current_wp_idx": 0, "total_wp": 27, "heading_deg": 358.9, "target_bearing_deg": 2.9, "bearing_error_deg": 4.0, "dist_to_wp_m": 0.23, "linear": 0.0, "angular": 0.0, "gps_age_s": 0.01, "gps_packet_age_s": 0.01, "gps_fix_quality": 5, "sensor_block_reason": null, "imu_age_s": 0.01, "speed_ratio": 1.0, "manual_speed": 0.4, "calib": {"mark": {"lat": 38.942250015, "lon": -92.31809810166666}, "offset_applied": 5.44567531067338}, "waypoints_window": [{"idx": 0, "lat": 38.942249635, "lon": -92.318097815, "current": true}, {"idx": 1, "lat": 38.9422613038, "lon": -92.318097815, "current": false}, {"idx": 2, "lat": 38.9423162156, "lon": -92.318097815, "current": false}, {"idx": 3, "lat": 38.9423278844, "lon": -92.318097815, "current": false}, {"idx": 4, "lat": 38.942382796, "lon": -92.318097815, "current": false}, {"idx": 5, "lat": 38.942394465, "lon": -92.318097815, "current": false}, {"idx": 6, "lat": 38.942449377, "lon": -92.318097815, "current": false}], "waiting_at_wp": true, "waiting_wp_idx": 0, "pause_mode": "all", "imu_raw": {"type": "imu_frame", "version": 1, "rot": {"qi": 0.012, "qj": -0.006, "qk": -0.836, "qr": 0.549}, "euler": {"roll": 1.33, "pitch": 0.77, "yaw": 252.02, "north_offset_deg": 5.4457}, "hz": 48.1, "heading": {"raw": 353.454, "deg": 358.9, "dir": "N"}, "ts": 814801, "game_rot": {"qi": 0.011, "qj": 0.007, "qk": 0.057, "qr": 0.998}, "accel": {"x": -0.06, "y": 0.28, "z": 9.89}, "lin_accel": {"x": 0.05, "y": 0.01, "z": -0.02}, "gravity": {"x": -0.1, "y": 0.23, "z": 9.87}, "gyro": {"x": 0.0, "y": 0.0, "z": 0.0}, "mag": {"x": -3.8, "y": -2.2, "z": 8.5}, "steps": 0, "cal": 0}, "rtk_raw": {"type": "rtk_frame", "version": 1, "lat": 38.94224752666667, "lon": -92.31809795, "alt": 231.191, "fix_quality": 5, "num_sats": 15, "hdop": 1.0, "speed_knots": 0.01, "track_deg": 356.04, "rtk_ts": 1777769715.6585119, "server_ts": 1777769716.529964, "source": "rtk"}}
{"type": "autonav_status", "version": 1, "state": "running", "current_wp_idx": 0, "total_wp": 27, "heading_deg": 358.9, "target_bearing_deg": 2.3, "bearing_error_deg": 3.4, "dist_to_wp_m": 0.23, "linear": 0.0, "angular": 0.0, "gps_age_s": 0.01, "gps_packet_age_s": 0.01, "gps_fix_quality": 5, "sensor_block_reason": null, "imu_age_s": 0.0, "speed_ratio": 1.0, "manual_speed": 0.4, "calib": {"mark": {"lat": 38.942250015, "lon": -92.31809810166666}, "offset_applied": 5.44567531067338}, "waypoints_window": [{"idx": 0, "lat": 38.942249635, "lon": -92.318097815, "current": true}, {"idx": 1, "lat": 38.9422613038, "lon": -92.318097815, "current": false}, {"idx": 2, "lat": 38.9423162156, "lon": -92.318097815, "current": false}, {"idx": 3, "lat": 38.9423278844, "lon": -92.318097815, "current": false}, {"idx": 4, "lat": 38.942382796, "lon": -92.318097815, "current": false}, {"idx": 5, "lat": 38.942394465, "lon": -92.318097815, "current": false}, {"idx": 6, "lat": 38.942449377, "lon": -92.318097815, "current": false}], "waiting_at_wp": true, "waiting_wp_idx": 0, "pause_mode": "all", "imu_raw": {"type": "imu_frame", "version": 1, "rot": {"qi": 0.012, "qj": -0.006, "qk": -0.836, "qr": 0.549}, "euler": {"roll": 1.33, "pitch": 0.77, "yaw": 252.02, "north_offset_deg": 5.4457}, "hz": 48.3, "heading": {"raw": 353.454, "deg": 358.9, "dir": "N"}, "ts": 815004, "game_rot": {"qi": 0.011, "qj": 0.007, "qk": 0.057, "qr": 0.998}, "accel": {"x": -0.25, "y": 0.17, "z": 9.93}, "lin_accel": {"x": -0.13, "y": -0.07, "z": 0.05}, "gravity": {"x": -0.12, "y": 0.23, "z": 9.88}, "gyro": {"x": 0.0, "y": 0.0, "z": 0.0}, "mag": {"x": -3.1, "y": -2.8, "z": 10.1}, "steps": 0, "cal": 0}, "rtk_raw": {"type": "rtk_frame", "version": 1, "lat": 38.942247556666665, "lon": -92.31809792, "alt": 231.19, "fix_quality": 5, "num_sats": 16, "hdop": 1.0, "speed_knots": 0.08, "track_deg": 356.04, "rtk_ts": 1777769716.651358, "server_ts": 1777769716.7310789, "source": "rtk"}}
{"type": "autonav_status", "version": 1, "state": "running", "current_wp_idx": 0, "total_wp": 27, "heading_deg": 358.9, "target_bearing_deg": 2.3, "bearing_error_deg": 3.4, "dist_to_wp_m": 0.23, "linear": 0.0, "angular": 0.0, "gps_age_s": 0.01, "gps_packet_age_s": 0.01, "gps_fix_quality": 5, "sensor_block_reason": null, "imu_age_s": 0.02, "speed_ratio": 1.0, "manual_speed": 0.4, "calib": {"mark": {"lat": 38.942250015, "lon": -92.31809810166666}, "offset_applied": 5.44567531067338}, "waypoints_window": [{"idx": 0, "lat": 38.942249635, "lon": -92.318097815, "current": true}, {"idx": 1, "lat": 38.9422613038, "lon": -92.318097815, "current": false}, {"idx": 2, "lat": 38.9423162156, "lon": -92.318097815, "current": false}, {"idx": 3, "lat": 38.9423278844, "lon": -92.318097815, "current": false}, {"idx": 4, "lat": 38.942382796, "lon": -92.318097815, "current": false}, {"idx": 5, "lat": 38.942394465, "lon": -92.318097815, "current": false}, {"idx": 6, "lat": 38.942449377, "lon": -92.318097815, "current": false}], "waiting_at_wp": true, "waiting_wp_idx": 0, "pause_mode": "all", "imu_raw": {"type": "imu_frame", "version": 1, "rot": {"qi": 0.012, "qj": -0.006, "qk": -0.836, "qr": 0.549}, "euler": {"roll": 1.33, "pitch": 0.77, "yaw": 252.02, "north_offset_deg": 5.4457}, "hz": 48.5, "heading": {"raw": 353.454, "deg": 358.9, "dir": "N"}, "ts": 815192, "game_rot": {"qi": 0.011, "qj": 0.007, "qk": 0.057, "qr": 0.998}, "accel": {"x": -0.18, "y": 0.25, "z": 9.92}, "lin_accel": {"x": -0.04, "y": 0.01, "z": 0.05}, "gravity": {"x": -0.14, "y": 0.23, "z": 9.88}, "gyro": {"x": 0.0, "y": 0.0, "z": 0.0}, "mag": {"x": -2.8, "y": -2.1, "z": 8.9}, "steps": 0, "cal": 0}, "rtk_raw": {"type": "rtk_frame", "version": 1, "lat": 38.942247556666665, "lon": -92.31809792, "alt": 231.19, "fix_quality": 5, "num_sats": 16, "hdop": 1.0, "speed_knots": 0.08, "track_deg": 356.04, "rtk_ts": 1777769716.651358, "server_ts": 1777769716.9321759, "source": "rtk"}}
{"type": "autonav_status", "version": 1, "state": "running", "current_wp_idx": 0, "total_wp": 27, "heading_deg": 358.9, "target_bearing_deg": 2.3, "bearing_error_deg": 3.4, "dist_to_wp_m": 0.23, "linear": 0.0, "angular": 0.0, "gps_age_s": 0.01, "gps_packet_age_s": 0.01, "gps_fix_quality": 5, "sensor_block_reason": null, "imu_age_s": 0.02, "speed_ratio": 1.0, "manual_speed": 0.4, "calib": {"mark": {"lat": 38.942250015, "lon": -92.31809810166666}, "offset_applied": 5.44567531067338}, "waypoints_window": [{"idx": 0, "lat": 38.942249635, "lon": -92.318097815, "current": true}, {"idx": 1, "lat": 38.9422613038, "lon": -92.318097815, "current": false}, {"idx": 2, "lat": 38.9423162156, "lon": -92.318097815, "current": false}, {"idx": 3, "lat": 38.9423278844, "lon": -92.318097815, "current": false}, {"idx": 4, "lat": 38.942382796, "lon": -92.318097815, "current": false}, {"idx": 5, "lat": 38.942394465, "lon": -92.318097815, "current": false}, {"idx": 6, "lat": 38.942449377, "lon": -92.318097815, "current": false}], "waiting_at_wp": true, "waiting_wp_idx": 0, "pause_mode": "all", "imu_raw": {"type": "imu_frame", "version": 1, "rot": {"qi": 0.012, "qj": -0.006, "qk": -0.836, "qr": 0.549}, "euler": {"roll": 1.33, "pitch": 0.77, "yaw": 252.02, "north_offset_deg": 5.4457}, "hz": 48.5, "heading": {"raw": 353.454, "deg": 358.9, "dir": "N"}, "ts": 815393, "game_rot": {"qi": 0.011, "qj": 0.007, "qk": 0.057, "qr": 0.998}, "accel": {"x": -0.1, "y": 0.25, "z": 9.88}, "lin_accel": {"x": 0.06, "y": 0.02, "z": 0.01}, "gravity": {"x": -0.16, "y": 0.23, "z": 9.88}, "gyro": {"x": 0.0, "y": 0.0, "z": 0.0}, "mag": {"x": -3.4, "y": -1.3, "z": 10.1}, "steps": 0, "cal": 0}, "rtk_raw": {"type": "rtk_frame", "version": 1, "lat": 38.942247556666665, "lon": -92.31809792, "alt": 231.19, "fix_quality": 5, "num_sats": 16, "hdop": 1.0, "speed_knots": 0.08, "track_deg": 356.04, "rtk_ts": 1777769716.651358, "server_ts": 1777769717.1323829, "source": "rtk"}}
{"type": "autonav_status", "version": 1, "state": "running", "current_wp_idx": 0, "total_wp": 27, "heading_deg": 358.9, "target_bearing_deg": 2.3, "bearing_error_deg": 3.4, "dist_to_wp_m": 0.23, "linear": 0.0, "angular": 0.0, "gps_age_s": 0.01, "gps_packet_age_s": 0.01, "gps_fix_quality": 5, "sensor_block_reason": null, "imu_age_s": 0.01, "speed_ratio": 1.0, "manual_speed": 0.4, "calib": {"mark": {"lat": 38.942250015, "lon": -92.31809810166666}, "offset_applied": 5.44567531067338}, "waypoints_window": [{"idx": 0, "lat": 38.942249635, "lon": -92.318097815, "current": true}, {"idx": 1, "lat": 38.9422613038, "lon": -92.318097815, "current": false}, {"idx": 2, "lat": 38.9423162156, "lon": -92.318097815, "current": false}, {"idx": 3, "lat": 38.9423278844, "lon": -92.318097815, "current": false}, {"idx": 4, "lat": 38.942382796, "lon": -92.318097815, "current": false}, {"idx": 5, "lat": 38.942394465, "lon": -92.318097815, "current": false}, {"idx": 6, "lat": 38.942449377, "lon": -92.318097815, "current": false}], "waiting_at_wp": true, "waiting_wp_idx": 0, "pause_mode": "all", "imu_raw": {"type": "imu_frame", "version": 1, "rot": {"qi": 0.012, "qj": -0.006, "qk": -0.836, "qr": 0.549}, "euler": {"roll": 1.33, "pitch": 0.77, "yaw": 252.02, "north_offset_deg": 5.4457}, "hz": 48.4, "heading": {"raw": 353.454, "deg": 358.9, "dir": "N"}, "ts": 815602, "game_rot": {"qi": 0.011, "qj": 0.007, "qk": 0.057, "qr": 0.998}, "accel": {"x": -0.18, "y": 0.21, "z": 9.89}, "lin_accel": {"x": -0.04, "y": -0.03, "z": 0.01}, "gravity": {"x": -0.14, "y": 0.23, "z": 9.88}, "gyro": {"x": 0.0, "y": 0.0, "z": 0.0}, "mag": {"x": -3.4, "y": -2.4, "z": 11.2}, "steps": 0, "cal": 0}, "rtk_raw": {"type": "rtk_frame", "version": 1, "lat": 38.942247556666665, "lon": -92.31809792, "alt": 231.19, "fix_quality": 5, "num_sats": 16, "hdop": 1.0, "speed_knots": 0.08, "track_deg": 356.04, "rtk_ts": 1777769716.651358, "server_ts": 1777769717.333496, "source": "rtk"}}
{"type": "autonav_status", "version": 1, "state": "running", "current_wp_idx": 0, "total_wp": 27, "heading_deg": 358.9, "target_bearing_deg": 2.3, "bearing_error_deg": 3.4, "dist_to_wp_m": 0.23, "linear": 0.0, "angular": 0.0, "gps_age_s": 0.01, "gps_packet_age_s": 0.01, "gps_fix_quality": 5, "sensor_block_reason": null, "imu_age_s": 0.01, "speed_ratio": 1.0, "manual_speed": 0.4, "calib": {"mark": {"lat": 38.942250015, "lon": -92.31809810166666}, "offset_applied": 5.44567531067338}, "waypoints_window": [{"idx": 0, "lat": 38.942249635, "lon": -92.318097815, "current": true}, {"idx": 1, "lat": 38.9422613038, "lon": -92.318097815, "current": false}, {"idx": 2, "lat": 38.9423162156, "lon": -92.318097815, "current": false}, {"idx": 3, "lat": 38.9423278844, "lon": -92.318097815, "current": false}, {"idx": 4, "lat": 38.942382796, "lon": -92.318097815, "current": false}, {"idx": 5, "lat": 38.942394465, "lon": -92.318097815, "current": false}, {"idx": 6, "lat": 38.942449377, "lon": -92.318097815, "current": false}], "waiting_at_wp": true, "waiting_wp_idx": 0, "pause_mode": "all", "imu_raw": {"type": "imu_frame", "version": 1, "rot": {"qi": 0.012, "qj": -0.006, "qk": -0.836, "qr": 0.549}, "euler": {"roll": 1.33, "pitch": 0.77, "yaw": 252.02, "north_offset_deg": 5.4457}, "hz": 48.9, "heading": {"raw": 353.454, "deg": 358.9, "dir": "N"}, "ts": 815804, "game_rot": {"qi": 0.011, "qj": 0.007, "qk": 0.057, "qr": 0.998}, "accel": {"x": -0.14, "y": 0.21, "z": 9.84}, "lin_accel": {"x": 0.0, "y": -0.03, "z": -0.03}, "gravity": {"x": -0.14, "y": 0.23, "z": 9.88}, "gyro": {"x": 0.0, "y": 0.0, "z": 0.0}, "mag": {"x": -2.8, "y": -3.2, "z": 9.2}, "steps": 0, "cal": 0}, "rtk_raw": {"type": "rtk_frame", "version": 1, "lat": 38.942247556666665, "lon": -92.31809792, "alt": 231.19, "fix_quality": 5, "num_sats": 16, "hdop": 1.0, "speed_knots": 0.08, "track_deg": 356.04, "rtk_ts": 1777769716.651358, "server_ts": 1777769717.5346, "source": "rtk"}}
